~VERSION INFORMATION
 VERS.                 2.0:   CWLS LOG ASCII STANDARD - VERSION 2.0
 WRAP.                  NO:   SINGLE LINE PER DEPTH STEP
 CREA.                 16/2/2017 12:26:34 p. m.
#CREATED USING IP VERSION 4.2.2015.61 BY PANESSOR ON 16/2/2017 12:26:34 p. m.
~WELL INFORMATION
#MNEM.UNIT       DATA                          DESCRIPTION MNEMONIC
#---------      ---------------------------   --------------------------
 STRT    .FT        2850.0000                 : START DEPTH
 STOP    .FT        5750.0000                 : STOP DEPTH
 STEP    .FT        0.5000                    : STEP VALUE
 NULL    .      -999.0000                     : NULL VALUE
 DATE    .      16/2/2017                     : LAS file Creation Date
 WELL  .      AGUACHICA-2                                   : Well Name
 COMP  .      INTERNATIONAL PETROLEUM COMPANY COLOMBIA LTDA : Company
 FLD   .      WILDCAT                                       : Field
 STATE .      CESAR                                         : State
 COUNT .      COLOMBIA                                      : Country
 API   .      AGUA0002                                      : API Number
 UWI   .      100000000367                                  : Unique Well Identifier (UWI)
 LOC   .      GAUSS ORIGIN BOGOTA                           : Location
 LATI  .      8.3363348055                                  : Latitude/Northing
 LONG  .      -73.7086179998                                : Longitude/Easting
 RWS   .      -999                                          : Def_Rw
 WST   .      -999                                          : Def_Rwt
 PROV  .                                                    : Province
 SRVC  .      SCH                                           : Contractor
~CURVE INFORMATION
#MNEM                 UNIT       API CODE     Description
#----------     --------------- ----------  --------------
 DEPTH         .FT                        : 
 CALI_IR       .IN                        : Caliper
 RD_IR         .OHMM                      : Formation Resitivity AM64"
 RM_IR         .OHMM                      : Resistivity AM16"
 SPC_IR        .MV                        : Spontaneous Potential
 BS_IR         .inch                      : Bit Size
 COND_IR       .mmohs                     : Conductivity
 PHIE_IR       .Dec                       : Effective Porosity
 SW_IR         .Dec                       : Water Saturation
 BVW_IR        .Dec                       : Bulk Volume water (Phie x SW)
 VWCL_IR       .Dec                       : Volume wet Clay
 VSILT_IR      .Dec                       : Volume Silt
 LATds_IR      .OHMM                      : Lateral AO18'8" Depth Shift
 ResFlag_IR    .                          : Net Reservoir
 PayFlag_IR    .                          : Net Pay
 K_PHI_IR      .                          : K/PHI RATIO
 Perm_IR       .md                        : Calculated Permeability
 ResFlagRT_IR  .                          : Net Reservoir Rock Type
 MUD_WEIGHT_IR .PPG                       : MUD_WEIGHT
 PayFlagRT_IR  .                          : Pay Flag Rock Type
 Rock_Type_IR  .microns                   : Pore Throat Size - Rock Types
 BADHOLE_IR    .FLAG                      : Bad Hole Indicator
 Temp_IR       .F                         : Formation Temperature
~P Interactive Petrophysics parameters
#Name        Value                 Description
#----- --------------------------  -----------
#Logging Run 
 RUN  .     1            : Run Number
 DATE .     13-MAR-1953  : Date                      | RUN[0]
 DFT  .     /            : Type of Fluid in Hole     | RUN[1]
~A  DEPTH  CALI_IR    RD_IR     RM_IR     SPC_IR    BS_IR    COND_IR   PHIE_IR    SW_IR     BVW_IR   VWCL_IR   VSILT_IR  LATds_IR ResFlag_~ PayFlag_~  K_PHI_IR  Perm_IR  ResFlagR~ MUD_WEIG~ PayFlagR~ Rock_Typ~ BADHOLE_~  Temp_IR  
# ...
3462.5000 -999.0000   16.3180   15.9270  -11.0929 -999.0000   61.2820    0.0001    1.0000    0.0001    0.9970    0.0023   15.9936    0.0000    0.0000    0.0000    0.0000    0.0000   14.0000    0.0000    0.0000 -999.0000  120.7518 
3463.0000 -999.0000   15.8080   15.3710  -11.0777 -999.0000   63.2591    0.0001    1.0000    0.0001    0.9975    0.0018   15.4323    0.0000    0.0000    0.0000    0.0000    0.0000   14.0000    0.0000    0.0000 -999.0000  120.7571 
3463.5000 -999.0000   15.2790   14.7210  -11.0626 -999.0000   65.4493    0.0001    1.0000    0.0001    0.9980    0.0014   15.0016    0.0000    0.0000    0.0000    0.0000    0.0000   14.0000    0.0000    0.0000 -999.0000  120.7624 
3464.0000 -999.0000   14.6070   14.1630  -11.0474 -999.0000   68.4603    0.0001    1.0000    0.0001    0.9985    0.0009   14.6566    0.0000    0.0000    0.0000    0.0000    0.0000   14.0000    0.0000    0.0000 -999.0000  120.7677 
3464.5000 -999.0000   13.9360   13.6370  -11.0323 -999.0000   71.7566    0.0001    1.0000    0.0001    0.9990    0.0004   14.4348    0.0000    0.0000    0.0000    0.0000    0.0000   14.0000    0.0000    0.0000 -999.0000  120.7730 
3465.0000 -999.0000   13.4120   13.1120  -11.0171 -999.0000   74.5601    0.0001    1.0000    0.0001    0.9994    0.0000   14.2358    0.0000    0.0000    0.0000    0.0000    0.0000   14.0000    0.0000    0.0000 -999.0000  120.7783 
3465.5000 -999.0000   13.0100   12.5860  -11.0020 -999.0000   76.8640    0.0001    1.0000    0.0001    0.9999    0.0000   14.0371    0.0000    0.0000    0.0000    0.0000    0.0000   14.0000    0.0000    0.0000 -999.0000  120.7836 
3466.0000 -999.0000   12.6660   12.1350  -10.9868 -999.0000   78.9515    0.0001    1.0000    0.0001    1.0000    0.0000   13.8387    0.0000    0.0000    0.0000    0.0000    0.0000   14.0000    0.0000    0.0000 -999.0000  120.7889 
3466.5000 -999.0000   12.6420   12.5900  -10.9717 -999.0000   79.1014    0.0001    1.0000    0.0001    1.0000    0.0000   13.6404    0.0000    0.0000    0.0000    0.0000    0.0000   14.0000    0.0000    0.0000 -999.0000  120.7942 
3467.0000 -999.0000   12.5540   13.6120  -10.9510 -999.0000   79.6559    0.0001    1.0000    0.0001    1.0000    0.0000   13.4941    0.0000    0.0000    0.0000    0.0000    0.0000   14.0000    0.0000    0.0000 -999.0000  120.7995 
3467.5000 -999.0000   12.4660   14.4210  -10.9303 -999.0000   80.2182    0.0001    1.0000    0.0001    1.0000    0.0000   13.5652    0.0000    0.0000    0.0000    0.0000    0.0000   14.0000    0.0000    0.0000 -999.0000  120.8049 
3468.0000 -999.0000   13.0160   14.9480  -10.9095 -999.0000   76.8285    0.0001    1.0000    0.0001    1.0000    0.0000   13.7422    0.0000    0.0000    0.0000    0.0000    0.0000   14.0000    0.0000    0.0000 -999.0000  120.8102 
3468.5000 -999.0000   13.5130   14.8960  -10.8888 -999.0000   74.0028    0.0001    1.0000    0.0001    1.0000    0.0000   14.0988    0.0000    0.0000    0.0000    0.0000    0.0000   14.0000    0.0000    0.0000 -999.0000  120.8155 
3469.0000 -999.0000   13.8800   14.5940  -10.8681 -999.0000   72.0461    0.0001    1.0000    0.0001    1.0000    0.0000   14.7855    0.0000    0.0000    0.0000    0.0000    0.0000   14.0000    0.0000    0.0000 -999.0000  120.8208 
3469.5000 -999.0000   13.9440   14.3310  -10.8473 -999.0000   71.7154    0.0001    1.0000    0.0001    1.0000    0.0000   15.6666    0.0000    0.0000    0.0000    0.0000    0.0000   14.0000    0.0000    0.0000 -999.0000  120.8261 
3470.0000 -999.0000   14.0080   14.1330  -10.8266 -999.0000   71.3878    0.0001    1.0000    0.0001    1.0000    0.0000   16.5731    0.0000    0.0000    0.0000    0.0000    0.0000   14.0000    0.0000    0.0000 -999.0000  120.8314 
3470.5000 -999.0000   14.0720   13.9780  -10.8058 -999.0000   71.0631    0.0001    1.0000    0.0001    1.0000    0.0000   17.5198    0.0000    0.0000    0.0000    0.0000    0.0000   14.0000    0.0000    0.0000 -999.0000  120.8367 
3471.0000 -999.0000   14.1410   13.8850  -10.7851 -999.0000   70.7164    0.0001    1.0000    0.0001    1.0000    0.0000   18.4656    0.0000    0.0000    0.0000    0.0000    0.0000   14.0000    0.0000    0.0000 -999.0000  120.8420 
3471.5000 -999.0000   14.2220   13.7920  -10.8644 -999.0000   70.3136    0.0001    1.0000    0.0001    1.0000    0.0000   19.4121    0.0000    0.0000    0.0000    0.0000    0.0000   14.0000    0.0000    0.0000 -999.0000  120.8473 
3472.0000 -999.0000   14.3020   13.7270  -10.9906 -999.0000   69.9203    0.0001    1.0000    0.0001    1.0000    0.0000   19.9610    0.0000    0.0000    0.0000    0.0000    0.0000   14.0000    0.0000    0.0000 -999.0000  120.8526 
3472.5000 -999.0000   14.3830   13.7270  -11.1159 -999.0000   69.5265    0.0001    1.0000    0.0001    0.9963    0.0031   20.1090    0.0000    0.0000    0.0000    0.0000    0.0000   14.0000    0.0000    0.0000 -999.0000  120.8579 
3473.0000 -999.0000   14.4630   13.7460  -11.2411 -999.0000   69.1419    0.0001    1.0000    0.0001    0.9922    0.0071   20.2872    0.0000    0.0000    0.0000    0.0000    0.0000   14.0000    0.0000    0.0000 -999.0000  120.8632 
3473.5000 -999.0000   14.5440   13.8540  -11.3664 -999.0000   68.7569    0.0001    1.0000    0.0001    0.9882    0.0112   20.6854    0.0000    0.0000    0.0000    0.0000    0.0000   14.0000    0.0000    0.0000 -999.0000  120.8685 
3474.0000 -999.0000   14.7250   13.9620  -11.4927 -999.0000   67.9117    0.0001    1.0000    0.0001    0.9841    0.0152   21.0841    0.0000    0.0000    0.0000    0.0000    0.0000   14.0000    0.0000    0.0000 -999.0000  120.8738 
3474.5000 -999.0000   15.0910   14.1290  -11.6179 -999.0000   66.2647    0.0001    1.0000    0.0001    0.9801    0.0193   21.4827    0.0000    0.0000    0.0000    0.0000    0.0000   14.0000    0.0000    0.0000 -999.0000  120.8792 
3475.0000 -999.0000   15.4570   14.3550  -11.7432 -999.0000   64.6956    0.0001    1.0000    0.0001    0.9760    0.0233   21.8814    0.0000    0.0000    0.0000    0.0000    0.0000   14.0000    0.0000    0.0000 -999.0000  120.8845 
3475.5000 -999.0000   15.8220   14.5800  -11.8684 -999.0000   63.2031    0.0001    1.0000    0.0001    0.9720    0.0273   22.1252    0.0000    0.0000    0.0000    0.0000    0.0000   14.0000    0.0000    0.0000 -999.0000  120.8898 
3476.0000 -999.0000   16.1760   14.8660  -11.9947 -999.0000   61.8200    0.0001    1.0000    0.0001    0.9679    0.0314   21.5855    0.0000    0.0000    0.0000    0.0000    0.0000   14.0000    0.0000    0.0000 -999.0000  120.8951 
3476.5000 -999.0000   16.5100   15.2390  -12.1200 -999.0000   60.5694    0.0001    1.0000    0.0001    0.9639    0.0355   20.9359    0.0000    0.0000    0.0000    0.0000    0.0000   14.0000    0.0000    0.0000 -999.0000  120.9004 
3477.0000 -999.0000   16.8440   15.7200  -12.4412 -999.0000   59.3683    0.0001    1.0000    0.0001    0.9535    0.0458   20.4250    0.0000    0.0000    0.0000    0.0000    0.0000   14.0000    0.0000    0.0000 -999.0000  120.9057 
3477.5000 -999.0000   17.0970   15.9580  -12.7755 -999.0000   58.4898    0.0002    1.0000    0.0002    0.9427    0.0562   19.9900    0.0000    0.0000    0.0000    0.0000    0.0000   14.0000    0.0000    0.0000 -999.0000  120.9110 
3478.0000 -999.0000   17.2700   16.2620  -13.1097 -999.0000   57.9039    0.0002    1.0000    0.0002    0.9319    0.0665   19.7524    0.0000    0.0000    0.0000    0.0000    0.0000   14.0000    0.0000    0.0000 -999.0000  120.9163 
3478.5000 -999.0000   17.4440   16.5050  -13.4440 -999.0000   57.3263    0.0003    1.0000    0.0003    0.9212    0.0766   19.9431    0.0000    0.0000    0.0000    0.0000    0.0000   14.0000    0.0000    0.0000 -999.0000  120.9216 
3479.0000 -999.0000   17.9960   16.6190  -13.6003 -999.0000   55.5679    0.0004    1.0000    0.0004    0.9161    0.0813   20.4804    0.0000    0.0000    0.0000    0.0000    0.0000   14.0000    0.0000    0.0000 -999.0000  120.9269 
3479.5000 -999.0000   18.7820   16.5820  -13.7235 -999.0000   53.2425    0.0004    1.0000    0.0004    0.9121    0.0849   21.0812    0.0000    0.0000    0.0000    0.0000    0.0000   14.0000    0.0000    0.0000 -999.0000  120.9322 
