~VERSION INFORMATION
 VERS.                 2.0:   CWLS LOG ASCII STANDARD - VERSION 2.0
 WRAP.                  NO:   SINGLE LINE PER DEPTH STEP
 CREA.                 16/2/2017 12:26:34 p. m.
#CREATED USING IP VERSION 4.2.2015.61 BY PANESSOR ON 16/2/2017 12:26:34 p. m.
~WELL INFORMATION
#MNEM.UNIT       DATA                          DESCRIPTION MNEMONIC
#---------      ---------------------------   --------------------------
 STRT    .FT        2850.0000                 : START DEPTH
 STOP    .FT        5750.0000                 : STOP DEPTH
 STEP    .FT        0.5000                    : STEP VALUE
 NULL    .      -999.0000                     : NULL VALUE
 DATE    .      16/2/2017                     : LAS file Creation Date
 WELL  .      AGUACHICA-2                                   : Well Name
 COMP  .      INTERNATIONAL PETROLEUM COMPANY COLOMBIA LTDA : Company
 FLD   .      WILDCAT                                       : Field
 STATE .      CESAR                                         : State
 COUNT .      COLOMBIA                                      : Country
 API   .      AGUA0002                                      : API Number
 UWI   .      100000000367                                  : Unique Well Identifier (UWI)
 LOC   .      GAUSS ORIGIN BOGOTA                           : Location
 LATI  .      8.3363348055                                  : Latitude/Northing
 LONG  .      -73.7086179998                                : Longitude/Easting
 RWS   .      -999                                          : Def_Rw
 WST   .      -999                                          : Def_Rwt
 PROV  .                                                    : Province
 SRVC  .      SCH                                           : Contractor
~CURVE INFORMATION
#MNEM                 UNIT       API CODE     Description
#----------     --------------- ----------  --------------
 DEPTH         .FT                        : 
 CALI_IR       .IN                        : Caliper
 RD_IR         .OHMM                      : Formation Resitivity AM64"
 RM_IR         .OHMM                      : Resistivity AM16"
 SPC_IR        .MV                        : Spontaneous Potential
 BS_IR         .inch                      : Bit Size
 COND_IR       .mmohs                     : Conductivity
 PHIE_IR       .Dec                       : Effective Porosity
 SW_IR         .Dec                       : Water Saturation
 BVW_IR        .Dec                       : Bulk Volume water (Phie x SW)
 VWCL_IR       .Dec                       : Volume wet Clay
 VSILT_IR      .Dec                       : Volume Silt
 LATds_IR      .OHMM                      : Lateral AO18'8" Depth Shift
 ResFlag_IR    .                          : Net Reservoir
 PayFlag_IR    .                          : Net Pay
 K_PHI_IR      .                          : K/PHI RATIO
 Perm_IR       .md                        : Calculated Permeability
 ResFlagRT_IR  .                          : Net Reservoir Rock Type
 MUD_WEIGHT_IR .PPG                       : MUD_WEIGHT
 PayFlagRT_IR  .                          : Pay Flag Rock Type
 Rock_Type_IR  .microns                   : Pore Throat Size - Rock Types
 BADHOLE_IR    .FLAG                      : Bad Hole Indicator
 Temp_IR       .F                         : Formation Temperature
~P Interactive Petrophysics parameters
#Name        Value                 Description
#----- --------------------------  -----------
#Logging Run 
 RUN  .     1            : Run Number
 DATE .     13-MAR-1953  : Date                      | RUN[0]
 DFT  .     /            : Type of Fluid in Hole     | RUN[1]
~A  DEPTH  CALI_IR    RD_IR     RM_IR     SPC_IR    BS_IR    COND_IR   PHIE_IR    SW_IR     BVW_IR   VWCL_IR   VSILT_IR  LATds_IR ResFlag_~ PayFlag_~  K_PHI_IR  Perm_IR  ResFlagR~ MUD_WEIG~ PayFlagR~ Rock_Typ~ BADHOLE_~  Temp_IR  
# ...
4407.5000 -999.0000    3.0860    3.4760  -11.6380 -999.0000  324.0441    0.0001    1.0000    0.0001    0.9664    0.0331    5.5294    0.0000    0.0000    0.0000    0.0000    0.0000   14.0000    0.0000    0.0000 -999.0000  130.7822 
4408.0000 -999.0000    3.0600    3.3940  -11.8482 -999.0000  326.7974    0.0002    1.0000    0.0002    0.9554    0.0438    5.4615    0.0000    0.0000    0.0000    0.0000    0.0000   14.0000    0.0000    0.0000 -999.0000  130.7875 
4408.5000 -999.0000    3.0320    3.3170  -12.0573 -999.0000  329.8153    0.0004    1.0000    0.0004    0.9444    0.0544    5.2795    0.0000    0.0000    0.0000    0.0000    0.0000   14.0000    0.0000    0.0000 -999.0000  130.7928 
4409.0000 -999.0000    3.0200    3.2400  -12.2674 -999.0000  331.1258    0.0006    1.0000    0.0006    0.9333    0.0648    5.1009    0.0000    0.0000    0.0000    0.0000    0.0000   14.0000    0.0000    0.0000 -999.0000  130.7982 
4409.5000 -999.0000    3.0120    3.1940  -12.1123 -999.0000  332.0053    0.0004    1.0000    0.0004    0.9415    0.0571    4.9647    0.0000    0.0000    0.0000    0.0000    0.0000   14.0000    0.0000    0.0000 -999.0000  130.8035 
4410.0000 -999.0000    3.0030    3.2360  -11.8602 -999.0000  333.0003    0.0003    1.0000    0.0003    0.9547    0.0444    4.8704    0.0000    0.0000    0.0000    0.0000    0.0000   14.0000    0.0000    0.0000 -999.0000  130.8088 
4410.5000 -999.0000    2.9950    3.3540  -11.6091 -999.0000  333.8898    0.0001    1.0000    0.0001    0.9679    0.0316    4.7758    0.0000    0.0000    0.0000    0.0000    0.0000   14.0000    0.0000    0.0000 -999.0000  130.8141 
4411.0000 -999.0000    2.9860    3.4540  -11.3580 -999.0000  334.8962    0.0001    1.0000    0.0001    0.9812    0.0185    4.6810    0.0000    0.0000    0.0000    0.0000    0.0000   14.0000    0.0000    0.0000 -999.0000  130.8194 
4411.5000 -999.0000    2.9780    3.5200  -11.1070 -999.0000  335.7958    0.0001    1.0000    0.0001    0.9944    0.0053    4.5862    0.0000    0.0000    0.0000    0.0000    0.0000   14.0000    0.0000    0.0000 -999.0000  130.8247 
4412.0000 -999.0000    2.9720    3.4840  -10.8549 -999.0000  336.4738    0.0001    1.0000    0.0001    1.0000    0.0000    4.4844    0.0000    0.0000    0.0000    0.0000    0.0000   14.0000    0.0000    0.0000 -999.0000  130.8300 
4412.5000 -999.0000    2.9660    3.3970  -10.6038 -999.0000  337.1544    0.0001    1.0000    0.0001    1.0000    0.0000    4.3241    0.0000    0.0000    0.0000    0.0000    0.0000   14.0000    0.0000    0.0000 -999.0000  130.8353 
4413.0000 -999.0000    2.9590    3.2950  -10.3527 -999.0000  337.9520    0.0001    1.0000    0.0001    1.0000    0.0000    4.1486    0.0000    0.0000    0.0000    0.0000    0.0000   14.0000    0.0000    0.0000 -999.0000  130.8406 
4413.5000 -999.0000    2.9550    3.1930  -10.2196 -999.0000  338.4095    0.0001    1.0000    0.0001    1.0000    0.0000    4.0334    0.0000    0.0000    0.0000    0.0000    0.0000   14.0000    0.0000    0.0000 -999.0000  130.8459 
4414.0000 -999.0000    2.9550    3.1370  -10.3955 -999.0000  338.4095    0.0001    1.0000    0.0001    1.0000    0.0000    3.9404    0.0000    0.0000    0.0000    0.0000    0.0000   14.0000    0.0000    0.0000 -999.0000  130.8512 
4414.5000 -999.0000    2.9550    3.1290  -10.5704 -999.0000  338.4095    0.0001    1.0000    0.0001    1.0000    0.0000    3.8545    0.0000    0.0000    0.0000    0.0000    0.0000   14.0000    0.0000    0.0000 -999.0000  130.8565 
4415.0000 -999.0000    2.9550    3.1190  -10.6944 -999.0000  338.4095    0.0001    1.0000    0.0001    1.0000    0.0000    3.7708    0.0000    0.0000    0.0000    0.0000    0.0000   14.0000    0.0000    0.0000 -999.0000  130.8618 
4415.5000 -999.0000    3.0130    3.0970  -10.7513 -999.0000  331.8951    0.0001    1.0000    0.0001    1.0000    0.0000    3.7547    0.0000    0.0000    0.0000    0.0000    0.0000   14.0000    0.0000    0.0000 -999.0000  130.8672 
4416.0000 -999.0000    3.0860    3.0900  -10.8092 -999.0000  324.0441    0.0001    1.0000    0.0001    1.0000    0.0000    3.7897    0.0000    0.0000    0.0000    0.0000    0.0000   14.0000    0.0000    0.0000 -999.0000  130.8725 
4416.5000 -999.0000    3.1600    3.1220  -10.8671 -999.0000  316.4557    0.0001    1.0000    0.0001    1.0000    0.0000    3.8969    0.0000    0.0000    0.0000    0.0000    0.0000   14.0000    0.0000    0.0000 -999.0000  130.8778 
4417.0000 -999.0000    3.2490    3.1740  -10.9250 -999.0000  307.7870    0.0001    1.0000    0.0001    1.0000    0.0000    4.0576    0.0000    0.0000    0.0000    0.0000    0.0000   14.0000    0.0000    0.0000 -999.0000  130.8831 
4417.5000 -999.0000    3.4120    3.2500  -11.1629 -999.0000  293.0833    0.0001    1.0000    0.0001    0.9914    0.0082    4.2971    0.0000    0.0000    0.0000    0.0000    0.0000   14.0000    0.0000    0.0000 -999.0000  130.8884 
4418.0000 -999.0000    3.5590    3.4090  -11.4328 -999.0000  280.9778    0.0001    1.0000    0.0001    0.9772    0.0224    4.6595    0.0000    0.0000    0.0000    0.0000    0.0000   14.0000    0.0000    0.0000 -999.0000  130.8937 
4418.5000 -999.0000    3.6810    4.2820  -11.7217 -999.0000  271.6653    0.0002    1.0000    0.0002    0.9620    0.0374    5.0150    0.0000    0.0000    0.0000    0.0000    0.0000   14.0000    0.0000    0.0000 -999.0000  130.8990 
4419.0000 -999.0000    3.7820    4.9010  -12.1497 -999.0000  264.4104    0.0005    1.0000    0.0005    0.9395    0.0590    5.2646    0.0000    0.0000    0.0000    0.0000    0.0000   14.0000    0.0000    0.0000 -999.0000  130.9043 
4419.5000 -999.0000    3.8100    5.9580  -12.5776 -999.0000  262.4672    0.0010    1.0000    0.0010    0.9170    0.0798    5.4049    0.0000    0.0000    0.0000    0.0000    0.0000   14.0000    0.0000    0.0000 -999.0000  130.9096 
4420.0000 -999.0000    3.8500    7.3180  -13.0065 -999.0000  259.7403    0.0018    1.0000    0.0018    0.8944    0.0995    5.3021    0.0000    0.0000    0.0000    0.0000    0.0000   14.0000    0.0000    0.0001 -999.0000  130.9149 
4420.5000 -999.0000    3.9020    8.7570  -13.2914 -999.0000  256.2788    0.0027    1.0000    0.0027    0.8794    0.1115    5.0502    0.0000    0.0000    0.0000    0.0000    0.0000   14.0000    0.0000    0.0002 -999.0000  130.9202 
4421.0000 -999.0000    3.9740   10.2410  -13.3613 -999.0000  251.6356    0.0030    1.0000    0.0030    0.8757    0.1143    4.7669    0.0000    0.0000    0.0000    0.0000    0.0000   14.0000    0.0000    0.0003 -999.0000  130.9255 
4421.5000 -999.0000    4.0570   11.3750  -13.5772 -999.0000  246.4875    0.0039    1.0000    0.0039    0.8644    0.1225    4.5273    0.0000    0.0000    0.0000    0.0000    0.0000   14.0000    0.0000    0.0004 -999.0000  130.9308 
4422.0000 -999.0000    4.4130   11.4960  -13.9181 -999.0000  226.6032    0.0060    1.0000    0.0060    0.8464    0.1337    4.4111    0.0000    0.0000    0.0000    0.0000    0.0000   14.0000    0.0000    0.0010 -999.0000  130.9361 
4422.5000 -999.0000    4.7980   10.6510  -14.2581 -999.0000  208.4202    0.0088    1.0000    0.0088    0.8285    0.1421    4.4057    0.0000    0.0000    0.0002    0.0000    0.0000   14.0000    0.0000    0.0021 -999.0000  130.9415 
4423.0000 -999.0000    5.2820    9.3970  -14.5990 -999.0000  189.3222    0.0127    1.0000    0.0127    0.8106    0.1471    4.4609    0.0000    0.0000    0.0006    0.0000    0.0000   14.0000    0.0000    0.0044 -999.0000  130.9467 
4423.5000 -999.0000    5.7840    8.5040  -14.2559 -999.0000  172.8907    0.0088    1.0000    0.0088    0.8286    0.1421    4.5714    0.0000    0.0000    0.0002    0.0000    0.0000   14.0000    0.0000    0.0021 -999.0000  130.9521 
4424.0000 -999.0000    6.3210    8.4980  -13.6848 -999.0000  158.2028    0.0045    1.0000    0.0045    0.8587    0.1263    4.7001    0.0000    0.0000    0.0000    0.0000    0.0000   14.0000    0.0000    0.0006 -999.0000  130.9574 
4424.5000 -999.0000    6.8490    9.0830  -12.8457 -999.0000  146.0067    0.0015    1.0000    0.0015    0.9029    0.0923    4.7838    0.0000    0.0000    0.0000    0.0000    0.0000   14.0000    0.0000    0.0001 -999.0000  130.9627 
