~VERSION INFORMATION
 VERS.                 2.0:   CWLS LOG ASCII STANDARD - VERSION 2.0
 WRAP.                  NO:   SINGLE LINE PER DEPTH STEP
 CREA.                 16/2/2017 12:26:34 p. m.
#CREATED USING IP VERSION 4.2.2015.61 BY PANESSOR ON 16/2/2017 12:26:34 p. m.
~WELL INFORMATION
#MNEM.UNIT       DATA                          DESCRIPTION MNEMONIC
#---------      ---------------------------   --------------------------
 STRT    .FT        2850.0000                 : START DEPTH
 STOP    .FT        5750.0000                 : STOP DEPTH
 STEP    .FT        0.5000                    : STEP VALUE
 NULL    .      -999.0000                     : NULL VALUE
 DATE    .      16/2/2017                     : LAS file Creation Date
 WELL  .      AGUACHICA-2                                   : Well Name
 COMP  .      INTERNATIONAL PETROLEUM COMPANY COLOMBIA LTDA : Company
 FLD   .      WILDCAT                                       : Field
 STATE .      CESAR                                         : State
 COUNT .      COLOMBIA                                      : Country
 API   .      AGUA0002                                      : API Number
 UWI   .      100000000367                                  : Unique Well Identifier (UWI)
 LOC   .      GAUSS ORIGIN BOGOTA                           : Location
 LATI  .      8.3363348055                                  : Latitude/Northing
 LONG  .      -73.7086179998                                : Longitude/Easting
 RWS   .      -999                                          : Def_Rw
 WST   .      -999                                          : Def_Rwt
 PROV  .                                                    : Province
 SRVC  .      SCH                                           : Contractor
~CURVE INFORMATION
#MNEM                 UNIT       API CODE     Description
#----------     --------------- ----------  --------------
 DEPTH         .FT                        : 
 CALI_IR       .IN                        : Caliper
 RD_IR         .OHMM                      : Formation Resitivity AM64"
 RM_IR         .OHMM                      : Resistivity AM16"
 SPC_IR        .MV                        : Spontaneous Potential
 BS_IR         .inch                      : Bit Size
 COND_IR       .mmohs                     : Conductivity
 PHIE_IR       .Dec                       : Effective Porosity
 SW_IR         .Dec                       : Water Saturation
 BVW_IR        .Dec                       : Bulk Volume water (Phie x SW)
 VWCL_IR       .Dec                       : Volume wet Clay
 VSILT_IR      .Dec                       : Volume Silt
 LATds_IR      .OHMM                      : Lateral AO18'8" Depth Shift
 ResFlag_IR    .                          : Net Reservoir
 PayFlag_IR    .                          : Net Pay
 K_PHI_IR      .                          : K/PHI RATIO
 Perm_IR       .md                        : Calculated Permeability
 ResFlagRT_IR  .                          : Net Reservoir Rock Type
 MUD_WEIGHT_IR .PPG                       : MUD_WEIGHT
 PayFlagRT_IR  .                          : Pay Flag Rock Type
 Rock_Type_IR  .microns                   : Pore Throat Size - Rock Types
 BADHOLE_IR    .FLAG                      : Bad Hole Indicator
 Temp_IR       .F                         : Formation Temperature
~P Interactive Petrophysics parameters
#Name        Value                 Description
#----- --------------------------  -----------
#Logging Run 
 RUN  .     1            : Run Number
 DATE .     13-MAR-1953  : Date                      | RUN[0]
 DFT  .     /            : Type of Fluid in Hole     | RUN[1]
~A  DEPTH  CALI_IR    RD_IR     RM_IR     SPC_IR    BS_IR    COND_IR   PHIE_IR    SW_IR     BVW_IR   VWCL_IR   VSILT_IR  LATds_IR ResFlag_~ PayFlag_~  K_PHI_IR  Perm_IR  ResFlagR~ MUD_WEIG~ PayFlagR~ Rock_Typ~ BADHOLE_~  Temp_IR  
# ...
5545.0000    8.2690  882.2840  215.9230  -29.5018    8.5000    1.1334    0.0495    0.4260    0.0211    0.5147    0.3203 1950.0000    0.0000    0.0000    0.2572    0.0127    0.0000   14.0000    0.0000    0.1041    0.0000  142.8559 
5545.5000    8.2690  876.2950  215.9230  -29.4737    8.5000    1.1412    0.0494    0.4282    0.0212    0.5155    0.3198 1950.0000    0.0000    0.0000    0.2543    0.0126    0.0000   14.0000    0.0000    0.1035    0.0000  142.8612 
5546.0000    8.2500  870.3050  215.9230  -29.4216    8.5000    1.1490    0.0493    0.4310    0.0212    0.5170    0.3188 1950.0000    0.0000    0.0000    0.2496    0.0123    0.0000   14.0000    0.0000    0.1024    0.0000  142.8665 
5546.5000    8.2500  863.1920  215.9230  -29.3685    8.5000    1.1585    0.0491    0.4341    0.0213    0.5186    0.3177 1950.0000    0.0000    0.0000    0.2447    0.0120    0.0000   14.0000    0.0000    0.1013    0.0000  142.8718 
5547.0000    8.2690  854.9560  216.4840  -29.3164    8.5000    1.1697    0.0489    0.4376    0.0214    0.5201    0.3167 1950.0000    0.0000    0.0000    0.2398    0.0117    0.0000   14.0000    0.0000    0.1002    0.0000  142.8772 
5547.5000    8.2500  846.7200  217.6070  -29.2643    8.5000    1.1810    0.0488    0.4411    0.0215    0.5216    0.3157 1950.0000    0.0000    0.0000    0.2351    0.0115    0.0000   14.0000    0.0000    0.0991    0.0000  142.8825 
5548.0000    8.2310  838.5610  218.7310  -29.2472    8.5000    1.1925    0.0487    0.4437    0.0216    0.5221    0.3154 1950.0000    0.0000    0.0000    0.2327    0.0113    0.0000   14.0000    0.0000    0.0986    0.0000  142.8878 
5548.5000    8.2120  830.5990  219.8540  -29.6431    8.5000    1.2040    0.0499    0.4353    0.0217    0.5105    0.3231 1950.0000    0.0000    0.0000    0.2600    0.0130    0.0000   14.0000    0.0000    0.1045    0.0000  142.8931 
5549.0000    8.1920  822.6380  220.9770  -30.0540    8.5000    1.2156    0.0512    0.4268    0.0218    0.4984    0.3310 1950.0000    0.0000    0.0000    0.2909    0.0149    0.0000   14.0000    0.0000    0.1109    0.0000  142.8984 
5549.5000    8.1920  814.6760  222.1000  -30.1079    8.5000    1.2275    0.0513    0.4275    0.0219    0.4968    0.3321 1950.0000    0.0000    0.0000    0.2939    0.0151    0.0000   14.0000    0.0000    0.1115    0.0000  142.9037 
5550.0000    8.2120  803.1240  223.0980  -30.1618    8.5000    1.2451    0.0515    0.4292    0.0221    0.4952    0.3331 1950.0000    0.0000    0.0000    0.2963    0.0153    0.0000   14.0000    0.0000    0.1119    0.0000  142.9090 
5550.5000    8.2310  791.3610  218.2820  -30.2157    8.5000    1.2636    0.0516    0.4310    0.0223    0.4937    0.3342 1950.0000    0.0000    0.0000    0.2986    0.0154    0.0000   14.0000    0.0000    0.1123    0.0000  142.9143 
5551.0000    8.2690  779.5970  213.6600  -29.9676    8.5000    1.2827    0.0509    0.4406    0.0224    0.5010    0.3294 1950.0000    0.0000    0.0000    0.2764    0.0141    0.0000   14.0000    0.0000    0.1078    0.0000  142.9196 
5551.5000    8.3080  761.9320  206.2730  -29.6715    8.5000    1.3125    0.0500    0.4536    0.0227    0.5097    0.3236 1950.0000    0.0000    0.0000    0.2511    0.0126    0.0000   14.0000    0.0000    0.1024    0.0000  142.9249 
5552.0000    8.3460  741.2670  202.6930  -29.3754    8.5000    1.3490    0.0491    0.4682    0.0230    0.5184    0.3179 1950.0000    0.0000    0.0000    0.2273    0.0112    0.0000   14.0000    0.0000    0.0970    0.0000  142.9302 
5552.5000    8.3650  720.6020  201.2230  -29.1533    8.5000    1.3877    0.0485    0.4814    0.0233    0.5249    0.3136 1950.0000    0.0000    0.0000    0.2099    0.0102    0.0000   14.0000    0.0000    0.0929    0.0000  142.9355 
5553.0000    8.3850  693.7130  199.7520  -29.0401    8.5000    1.4415    0.0481    0.4941    0.0238    0.5282    0.3114 1950.0000    0.0000    0.0000    0.1991    0.0096    0.0000   14.0000    0.0000    0.0903    0.0000  142.9408 
5553.5000    8.3460  660.8640  198.2820  -28.8680    8.5000    1.5132    0.0476    0.5117    0.0244    0.5333    0.3080 1950.0000    0.0000    0.0000    0.1845    0.0088    0.0000   14.0000    0.0000    0.0866    0.0000  142.9461 
5554.0000    8.3080  628.0140  195.0540  -28.5149    8.5000    1.5923    0.0465    0.5368    0.0250    0.5437    0.3012 1950.0000    0.0000    0.0000    0.1615    0.0075    0.0000   14.0000    0.0000    0.0805    0.0000  142.9514 
5554.5000    8.2880  594.4610  187.0520  -28.1618    8.5000    1.6822    0.0455    0.5646    0.0257    0.5541    0.2943 1950.0000    0.0000    0.0000    0.1407    0.0064    0.0000   14.0000    0.0000    0.0747    0.0000  142.9568 
5555.0000    8.2690  560.7240  177.6720  -27.8087    8.5000    1.7834    0.0444    0.5952    0.0264    0.5644    0.2875 1950.0000    0.0000    0.0000    0.1220    0.0054    0.0000   14.0000    0.0000    0.0692    0.0000  142.9621 
5555.5000    8.2690  528.2400  168.2930  -27.4556    8.5000    1.8931    0.0434    0.6282    0.0272    0.5748    0.2806 1846.1184    0.0000    0.0000    0.1055    0.0046    0.0000   14.0000    0.0000    0.0639    0.0000  142.9674 
5556.0000    8.2500  510.9770  158.8780  -26.9115    8.5000    1.9570    0.0417    0.6637    0.0277    0.5908    0.2700 1674.7711    0.0000    0.0000    0.0863    0.0036    0.0000   14.0000    0.0000    0.0574    0.0000  142.9727 
5556.5000    8.2120  493.7140  149.1370  -26.1444    8.5000    2.0255    0.0394    0.7908    0.0312    0.6134    0.2552 1565.2811    0.0000    0.0000    0.0584    0.0023    0.0000   14.0000    0.0000    0.0464    0.0000  142.9780 
5557.0000    8.2120  478.8900  139.9800  -24.9123    8.5000    2.0882    0.0357    1.0000    0.0357    0.6496    0.2312 1464.7789    0.0000    0.0000    0.0318    0.0011    0.0000   14.0000    0.0000    0.0333    0.0000  142.9833 
5557.5000    8.3270  462.5190  134.3720  -23.1602    8.5000    2.1621    0.0305    1.0000    0.0305    0.7012    0.1972 1372.1332    0.0000    0.0000    0.0173    0.0005    0.0000   14.0000    0.0000    0.0244    0.0000  142.9886 
5558.0000    8.3080  446.6660  128.8880  -21.4141    8.5000    2.2388    0.0252    1.0000    0.0252    0.7525    0.1633 1281.5118    0.0000    0.0000    0.0085    0.0002    0.0000   14.0000    0.0000    0.0169    0.0000  142.9939 
5558.5000    8.2690  430.6390  125.9700  -20.3920    8.5000    2.3221    0.0215    1.0000    0.0215    0.7826    0.1458 1202.2584    0.0000    0.0000    0.0046    0.0001    0.0000   14.0000    0.0000    0.0123    0.0000  142.9992 
5559.0000    8.1920  422.9150  124.3870  -19.3699    8.5000    2.3645    0.0122    1.0000    0.0122    0.8127    0.1467 1140.1144    0.0000    0.0000    0.0005    0.0000    0.0000   14.0000    0.0000    0.0040    0.0000  143.0045 
5559.5000    8.1150  415.1060  124.1250  -18.5098    8.5000    2.4090    0.0072    1.0000    0.0072    0.8379    0.1380 1092.9447    0.0000    0.0000    0.0001    0.0000    0.0000   14.0000    0.0000    0.0014    0.0000  143.0098 
5560.0000    8.0580  407.2970  124.7740  -17.9477    8.5000    2.4552    0.0050    1.0000    0.0050    0.8545    0.1289 1063.4048    0.0000    0.0000    0.0000    0.0000    0.0000   14.0000    0.0000    0.0007    0.0000  143.0151 
5560.5000    8.0190  401.8600  125.8460  -17.3856    8.5000    2.4884    0.0034    1.0000    0.0034    0.8710    0.1178 1044.8130    0.0000    0.0000    0.0000    0.0000    0.0000   14.0000    0.0000    0.0003    0.0000  143.0204 
5561.0000    8.0190  402.4660  127.5950  -16.9395    8.5000    2.4847    0.0024    1.0000    0.0024    0.8841    0.1078 1039.6364    0.0000    0.0000    0.0000    0.0000    0.0000   14.0000    0.0000    0.0002    0.0000  143.0258 
5561.5000    8.0380  403.0730  130.6120  -16.6624    8.5000    2.4809    0.0019    1.0000    0.0019    0.8923    0.1012 1041.1869    0.0000    0.0000    0.0000    0.0000    0.0000   14.0000    0.0000    0.0001    0.0000  143.0311 
5562.0000    8.0380  403.6790  134.4330  -16.3863    8.5000    2.4772    0.0016    1.0000    0.0016    0.9004    0.0944 1046.6543    0.0000    0.0000    0.0000    0.0000    0.0000   14.0000    0.0000    0.0001    0.0000  143.0364 
