~VERSION INFORMATION
 VERS.                 2.0:   CWLS LOG ASCII STANDARD - VERSION 2.0
 WRAP.                  NO:   SINGLE LINE PER DEPTH STEP
 CREA.                 16/2/2017 12:26:34 p. m.
#CREATED USING IP VERSION 4.2.2015.61 BY PANESSOR ON 16/2/2017 12:26:34 p. m.
~WELL INFORMATION
#MNEM.UNIT       DATA                          DESCRIPTION MNEMONIC
#---------      ---------------------------   --------------------------
 STRT    .FT        2850.0000                 : START DEPTH
 STOP    .FT        5750.0000                 : STOP DEPTH
 STEP    .FT        0.5000                    : STEP VALUE
 NULL    .      -999.0000                     : NULL VALUE
 DATE    .      16/2/2017                     : LAS file Creation Date
 WELL  .      AGUACHICA-2                                   : Well Name
 COMP  .      INTERNATIONAL PETROLEUM COMPANY COLOMBIA LTDA : Company
 FLD   .      WILDCAT                                       : Field
 STATE .      CESAR                                         : State
 COUNT .      COLOMBIA                                      : Country
 API   .      AGUA0002                                      : API Number
 UWI   .      100000000367                                  : Unique Well Identifier (UWI)
 LOC   .      GAUSS ORIGIN BOGOTA                           : Location
 LATI  .      8.3363348055                                  : Latitude/Northing
 LONG  .      -73.7086179998                                : Longitude/Easting
 RWS   .      -999                                          : Def_Rw
 WST   .      -999                                          : Def_Rwt
 PROV  .                                                    : Province
 SRVC  .      SCH                                           : Contractor
~CURVE INFORMATION
#MNEM                 UNIT       API CODE     Description
#----------     --------------- ----------  --------------
 DEPTH         .FT                        : 
 CALI_IR       .IN                        : Caliper
 RD_IR         .OHMM                      : Formation Resitivity AM64"
 RM_IR         .OHMM                      : Resistivity AM16"
 SPC_IR        .MV                        : Spontaneous Potential
 BS_IR         .inch                      : Bit Size
 COND_IR       .mmohs                     : Conductivity
 PHIE_IR       .Dec                       : Effective Porosity
 SW_IR         .Dec                       : Water Saturation
 BVW_IR        .Dec                       : Bulk Volume water (Phie x SW)
 VWCL_IR       .Dec                       : Volume wet Clay
 VSILT_IR      .Dec                       : Volume Silt
 LATds_IR      .OHMM                      : Lateral AO18'8" Depth Shift
 ResFlag_IR    .                          : Net Reservoir
 PayFlag_IR    .                          : Net Pay
 K_PHI_IR      .                          : K/PHI RATIO
 Perm_IR       .md                        : Calculated Permeability
 ResFlagRT_IR  .                          : Net Reservoir Rock Type
 MUD_WEIGHT_IR .PPG                       : MUD_WEIGHT
 PayFlagRT_IR  .                          : Pay Flag Rock Type
 Rock_Type_IR  .microns                   : Pore Throat Size - Rock Types
 BADHOLE_IR    .FLAG                      : Bad Hole Indicator
 Temp_IR       .F                         : Formation Temperature
~P Interactive Petrophysics parameters
#Name        Value                 Description
#----- --------------------------  -----------
#Logging Run 
 RUN  .     1            : Run Number
 DATE .     13-MAR-1953  : Date                      | RUN[0]
 DFT  .     /            : Type of Fluid in Hole     | RUN[1]
~A  DEPTH  CALI_IR    RD_IR     RM_IR     SPC_IR    BS_IR    COND_IR   PHIE_IR    SW_IR     BVW_IR   VWCL_IR   VSILT_IR  LATds_IR ResFlag_~ PayFlag_~  K_PHI_IR  Perm_IR  ResFlagR~ MUD_WEIG~ PayFlagR~ Rock_Typ~ BADHOLE_~  Temp_IR  
# ...
4985.0000 -999.0000    9.9070   12.9890  -10.5174 -999.0000  100.9387    0.0001    1.0000    0.0001    1.0000    0.0000    8.9810    0.0000    0.0000    0.0000    0.0000    0.0000   14.0000    0.0000    0.0000 -999.0000  136.9120 
4985.5000 -999.0000    9.8760   12.5330  -10.3084 -999.0000  101.2556    0.0001    1.0000    0.0001    1.0000    0.0000    9.2497    0.0000    0.0000    0.0000    0.0000    0.0000   14.0000    0.0000    0.0000 -999.0000  136.9173 
4986.0000 -999.0000    9.8460   12.2360  -10.0994 -999.0000  101.5641    0.0001    1.0000    0.0001    1.0000    0.0000    9.5053    0.0000    0.0000    0.0000    0.0000    0.0000   14.0000    0.0000    0.0000 -999.0000  136.9226 
4986.5000 -999.0000    9.8150   12.1230   -9.9554 -999.0000  101.8849    0.0001    1.0000    0.0001    1.0000    0.0000    9.5961    0.0000    0.0000    0.0000    0.0000    0.0000   14.0000    0.0000    0.0000 -999.0000  136.9279 
4987.0000 -999.0000    9.7840   12.4330   -9.9554 -999.0000  102.2077    0.0001    1.0000    0.0001    1.0000    0.0000    9.6284    0.0000    0.0000    0.0000    0.0000    0.0000   14.0000    0.0000    0.0000 -999.0000  136.9332 
4987.5000 -999.0000    9.7540   13.1360   -9.9554 -999.0000  102.5220    0.0001    1.0000    0.0001    1.0000    0.0000    9.6348    0.0000    0.0000    0.0000    0.0000    0.0000   14.0000    0.0000    0.0000 -999.0000  136.9385 
4988.0000 -999.0000    9.7230   13.8280   -9.9554 -999.0000  102.8489    0.0001    1.0000    0.0001    1.0000    0.0000    9.6193    0.0000    0.0000    0.0000    0.0000    0.0000   14.0000    0.0000    0.0000 -999.0000  136.9438 
4988.5000 -999.0000    9.6920   14.2940  -10.4894 -999.0000  103.1779    0.0001    1.0000    0.0001    1.0000    0.0000    9.5936    0.0000    0.0000    0.0000    0.0000    0.0000   14.0000    0.0000    0.0000 -999.0000  136.9491 
4989.0000 -999.0000    9.6860   14.3910  -10.9394 -999.0000  103.2418    0.0001    1.0000    0.0001    1.0000    0.0000    9.6149    0.0000    0.0000    0.0000    0.0000    0.0000   14.0000    0.0000    0.0000 -999.0000  136.9544 
4989.5000 -999.0000    9.6860   14.0530  -11.2304 -999.0000  103.2418    0.0001    1.0000    0.0001    0.9936    0.0061    9.7515    0.0000    0.0000    0.0000    0.0000    0.0000   14.0000    0.0000    0.0000 -999.0000  136.9597 
4990.0000 -999.0000    9.7890   13.2210  -11.5224 -999.0000  102.1555    0.0001    1.0000    0.0001    0.9855    0.0142    9.9099    0.0000    0.0000    0.0000    0.0000    0.0000   14.0000    0.0000    0.0000 -999.0000  136.9650 
4990.5000 -999.0000    9.8990   12.4850  -11.8134 -999.0000  101.0203    0.0001    1.0000    0.0001    0.9774    0.0223   10.0619    0.0000    0.0000    0.0000    0.0000    0.0000   14.0000    0.0000    0.0000 -999.0000  136.9703 
4991.0000 -999.0000   10.0080   12.0990  -11.7324 -999.0000   99.9201    0.0001    1.0000    0.0001    0.9797    0.0200   10.1948    0.0000    0.0000    0.0000    0.0000    0.0000   14.0000    0.0000    0.0000 -999.0000  136.9756 
4991.5000 -999.0000   10.1180   11.9060  -11.5174 -999.0000   98.8338    0.0001    1.0000    0.0001    0.9856    0.0140   10.2979    0.0000    0.0000    0.0000    0.0000    0.0000   14.0000    0.0000    0.0000 -999.0000  136.9809 
4992.0000 -999.0000   10.2120   12.0020  -11.3024 -999.0000   97.9240    0.0001    1.0000    0.0001    0.9916    0.0081   10.3430    0.0000    0.0000    0.0000    0.0000    0.0000   14.0000    0.0000    0.0000 -999.0000  136.9863 
4992.5000 -999.0000   10.0580   12.5810  -11.0884 -999.0000   99.4233    0.0001    1.0000    0.0001    0.9975    0.0021   10.2507    0.0000    0.0000    0.0000    0.0000    0.0000   14.0000    0.0000    0.0000 -999.0000  136.9916 
4993.0000 -999.0000    9.8550   13.4260  -10.9304 -999.0000  101.4713    0.0001    1.0000    0.0001    1.0000    0.0000   10.1194    0.0000    0.0000    0.0000    0.0000    0.0000   14.0000    0.0000    0.0000 -999.0000  136.9969 
4993.5000 -999.0000    9.5780   14.4870  -10.9634 -999.0000  104.4059    0.0001    1.0000    0.0001    1.0000    0.0000    9.9997    0.0000    0.0000    0.0000    0.0000    0.0000   14.0000    0.0000    0.0000 -999.0000  137.0022 
4994.0000 -999.0000    9.3340   15.2990  -10.9974 -999.0000  107.1352    0.0001    1.0000    0.0001    1.0000    0.0000    9.9300    0.0000    0.0000    0.0000    0.0000    0.0000   14.0000    0.0000    0.0000 -999.0000  137.0075 
4994.5000 -999.0000    9.2110   15.7180  -11.0304 -999.0000  108.5658    0.0001    1.0000    0.0001    0.9992    0.0005    9.9305    0.0000    0.0000    0.0000    0.0000    0.0000   14.0000    0.0000    0.0000 -999.0000  137.0128 
4995.0000 -999.0000    9.3230   15.5250  -10.9604 -999.0000  107.2616    0.0001    1.0000    0.0001    1.0000    0.0000   10.0170    0.0000    0.0000    0.0000    0.0000    0.0000   14.0000    0.0000    0.0000 -999.0000  137.0181 
4995.5000 -999.0000    9.4800   14.5110  -10.8224 -999.0000  105.4852    0.0001    1.0000    0.0001    1.0000    0.0000   10.2104    0.0000    0.0000    0.0000    0.0000    0.0000   14.0000    0.0000    0.0000 -999.0000  137.0234 
4996.0000 -999.0000    9.6590   13.6810  -10.6854 -999.0000  103.5304    0.0001    1.0000    0.0001    1.0000    0.0000   10.5455    0.0000    0.0000    0.0000    0.0000    0.0000   14.0000    0.0000    0.0000 -999.0000  137.0287 
4996.5000 -999.0000    9.8910   12.8710  -10.5654 -999.0000  101.1020    0.0001    1.0000    0.0001    1.0000    0.0000   10.8648    0.0000    0.0000    0.0000    0.0000    0.0000   14.0000    0.0000    0.0000 -999.0000  137.0340 
4997.0000 -999.0000   10.0540   12.3160  -10.6254 -999.0000   99.4629    0.0001    1.0000    0.0001    1.0000    0.0000   11.0643    0.0000    0.0000    0.0000    0.0000    0.0000   14.0000    0.0000    0.0000 -999.0000  137.0393 
4997.5000 -999.0000   10.1220   12.0510  -10.6864 -999.0000   98.7947    0.0001    1.0000    0.0001    1.0000    0.0000   11.2343    0.0000    0.0000    0.0000    0.0000    0.0000   14.0000    0.0000    0.0000 -999.0000  137.0446 
4998.0000 -999.0000   10.1450   11.8700  -10.7464 -999.0000   98.5707    0.0001    1.0000    0.0001    1.0000    0.0000   11.3327    0.0000    0.0000    0.0000    0.0000    0.0000   14.0000    0.0000    0.0000 -999.0000  137.0499 
4998.5000 -999.0000   10.1250   11.6650  -10.8074 -999.0000   98.7654    0.0001    1.0000    0.0001    1.0000    0.0000   11.2993    0.0000    0.0000    0.0000    0.0000    0.0000   14.0000    0.0000    0.0000 -999.0000  137.0552 
4999.0000 -999.0000    9.9580   11.4720  -10.8684 -999.0000  100.4218    0.0001    1.0000    0.0001    1.0000    0.0000   11.0090    0.0000    0.0000    0.0000    0.0000    0.0000   14.0000    0.0000    0.0000 -999.0000  137.0605 
4999.5000 -999.0000    9.7860   11.4230  -10.9284 -999.0000  102.1868    0.0001    1.0000    0.0001    1.0000    0.0000   10.5045    0.0000    0.0000    0.0000    0.0000    0.0000   14.0000    0.0000    0.0000 -999.0000  137.0659 
5000.0000 -999.0000    9.6160   11.4990  -10.9894    8.5000  103.9933    0.0001    1.0000    0.0001    1.0000    0.0000   10.0130    0.0000    0.0000    0.0000    0.0000    0.0000   14.0000    0.0000    0.0000 -999.0000  137.0712 
5000.5000 -999.0000    9.4540   11.5440  -11.0494    8.5000  105.7753    0.0001    1.0000    0.0001    0.9986    0.0010    9.7818    0.0000    0.0000    0.0000    0.0000    0.0000   14.0000    0.0000    0.0000 -999.0000  137.0765 
5001.0000 -999.0000    9.3130   11.4760  -11.1104    8.5000  107.3768    0.0001    1.0000    0.0001    0.9969    0.0027    9.6720    0.0000    0.0000    0.0000    0.0000    0.0000   14.0000    0.0000    0.0000 -999.0000  137.0818 
5001.5000 -999.0000    9.2330   11.3160  -11.1704    8.5000  108.3072    0.0001    1.0000    0.0001    0.9953    0.0044    9.6577    0.0000    0.0000    0.0000    0.0000    0.0000   14.0000    0.0000    0.0000 -999.0000  137.0871 
5002.0000 -999.0000    9.1640   11.1350  -11.2214    8.5000  109.1227    0.0001    1.0000    0.0001    0.9938    0.0058    9.6597    0.0000    0.0000    0.0000    0.0000    0.0000   14.0000    0.0000    0.0000 -999.0000  137.0924 
