~VERSION INFORMATION
 VERS.                 2.0:   CWLS LOG ASCII STANDARD - VERSION 2.0
 WRAP.                  NO:   SINGLE LINE PER DEPTH STEP
 CREA.                 16/2/2017 12:26:34 p. m.
#CREATED USING IP VERSION 4.2.2015.61 BY PANESSOR ON 16/2/2017 12:26:34 p. m.
~WELL INFORMATION
#MNEM.UNIT       DATA                          DESCRIPTION MNEMONIC
#---------      ---------------------------   --------------------------
 STRT    .FT        2850.0000                 : START DEPTH
 STOP    .FT        5750.0000                 : STOP DEPTH
 STEP    .FT        0.5000                    : STEP VALUE
 NULL    .      -999.0000                     : NULL VALUE
 DATE    .      16/2/2017                     : LAS file Creation Date
 WELL  .      AGUACHICA-2                                   : Well Name
 COMP  .      INTERNATIONAL PETROLEUM COMPANY COLOMBIA LTDA : Company
 FLD   .      WILDCAT                                       : Field
 STATE .      CESAR                                         : State
 COUNT .      COLOMBIA                                      : Country
 API   .      AGUA0002                                      : API Number
 UWI   .      100000000367                                  : Unique Well Identifier (UWI)
 LOC   .      GAUSS ORIGIN BOGOTA                           : Location
 LATI  .      8.3363348055                                  : Latitude/Northing
 LONG  .      -73.7086179998                                : Longitude/Easting
 RWS   .      -999                                          : Def_Rw
 WST   .      -999                                          : Def_Rwt
 PROV  .                                                    : Province
 SRVC  .      SCH                                           : Contractor
~CURVE INFORMATION
#MNEM                 UNIT       API CODE     Description
#----------     --------------- ----------  --------------
 DEPTH         .FT                        : 
 CALI_IR       .IN                        : Caliper
 RD_IR         .OHMM                      : Formation Resitivity AM64"
 RM_IR         .OHMM                      : Resistivity AM16"
 SPC_IR        .MV                        : Spontaneous Potential
 BS_IR         .inch                      : Bit Size
 COND_IR       .mmohs                     : Conductivity
 PHIE_IR       .Dec                       : Effective Porosity
 SW_IR         .Dec                       : Water Saturation
 BVW_IR        .Dec                       : Bulk Volume water (Phie x SW)
 VWCL_IR       .Dec                       : Volume wet Clay
 VSILT_IR      .Dec                       : Volume Silt
 LATds_IR      .OHMM                      : Lateral AO18'8" Depth Shift
 ResFlag_IR    .                          : Net Reservoir
 PayFlag_IR    .                          : Net Pay
 K_PHI_IR      .                          : K/PHI RATIO
 Perm_IR       .md                        : Calculated Permeability
 ResFlagRT_IR  .                          : Net Reservoir Rock Type
 MUD_WEIGHT_IR .PPG                       : MUD_WEIGHT
 PayFlagRT_IR  .                          : Pay Flag Rock Type
 Rock_Type_IR  .microns                   : Pore Throat Size - Rock Types
 BADHOLE_IR    .FLAG                      : Bad Hole Indicator
 Temp_IR       .F                         : Formation Temperature
~P Interactive Petrophysics parameters
#Name        Value                 Description
#----- --------------------------  -----------
#Logging Run 
 RUN  .     1            : Run Number
 DATE .     13-MAR-1953  : Date                      | RUN[0]
 DFT  .     /            : Type of Fluid in Hole     | RUN[1]
~A  DEPTH  CALI_IR    RD_IR     RM_IR     SPC_IR    BS_IR    COND_IR   PHIE_IR    SW_IR     BVW_IR   VWCL_IR   VSILT_IR  LATds_IR ResFlag_~ PayFlag_~  K_PHI_IR  Perm_IR  ResFlagR~ MUD_WEIG~ PayFlagR~ Rock_Typ~ BADHOLE_~  Temp_IR  
# ...
5177.5000 -999.0000  445.9440  184.3810  -29.7213    8.5000    2.2424    0.0283    1.0000    0.0283    0.7645    0.1413  501.8953    0.0000    0.0000    0.0130    0.0004    0.0000   14.0000    0.0000    0.0210 -999.0000  138.9552 
5178.0000 -999.0000  450.1060  184.9190  -29.4427    8.5000    2.2217    0.0275    1.0000    0.0275    0.7684    0.1399  510.2745    0.0000    0.0000    0.0118    0.0003    0.0000   14.0000    0.0000    0.0200 -999.0000  138.9605 
5178.5000 -999.0000  454.2670  185.4040  -29.1651    8.5000    2.2013    0.0257    1.0000    0.0257    0.7723    0.1419  518.6541    0.0000    0.0000    0.0091    0.0002    0.0000   14.0000    0.0000    0.0175 -999.0000  138.9658 
5179.0000 -999.0000  455.7720  186.1280  -28.8896    8.5000    2.1941    0.0241    1.0000    0.0241    0.7762    0.1436  525.4489    0.0000    0.0000    0.0071    0.0002    0.0000   14.0000    0.0000    0.0153 -999.0000  138.9711 
5179.5000 -999.0000  457.0780  186.5010  -28.9830    8.5000    2.1878    0.0246    1.0000    0.0246    0.7749    0.1431  526.6340    0.0000    0.0000    0.0077    0.0002    0.0000   14.0000    0.0000    0.0160 -999.0000  138.9764 
5180.0000 -999.0000  460.7760  186.8700  -29.0744    8.5000    2.1703    0.0252    1.0000    0.0252    0.7736    0.1425  527.9009    0.0000    0.0000    0.0084    0.0002    0.0000   14.0000    0.0000    0.0168 -999.0000  138.9817 
5180.5000 -999.0000  464.6700  187.1470  -29.1668    8.5000    2.1521    0.0257    1.0000    0.0257    0.7723    0.1419  536.6257    0.0000    0.0000    0.0091    0.0002    0.0000   14.0000    0.0000    0.0175 -999.0000  138.9870 
5181.0000 -999.0000  468.5450  187.2840  -29.2582    8.5000    2.1343    0.0263    1.0000    0.0263    0.7710    0.1412  549.3973    0.0000    0.0000    0.0099    0.0003    0.0000   14.0000    0.0000    0.0183 -999.0000  138.9923 
5181.5000 -999.0000  472.4190  187.4220  -29.3497    8.5000    2.1168    0.0269    1.0000    0.0269    0.7697    0.1406  565.5935    0.0000    0.0000    0.0108    0.0003    0.0000   14.0000    0.0000    0.0191 -999.0000  138.9977 
5182.0000 -999.0000  476.2930  187.5590  -29.4421    8.5000    2.0995    0.0275    1.0000    0.0275    0.7684    0.1399  584.8180    0.0000    0.0000    0.0118    0.0003    0.0000   14.0000    0.0000    0.0199 -999.0000  139.0030 
5182.5000 -999.0000  480.5930  187.5750  -29.5335    8.5000    2.0808    0.0279    1.0000    0.0279    0.7671    0.1397  604.1889    0.0000    0.0000    0.0125    0.0003    0.0000   14.0000    0.0000    0.0206 -999.0000  139.0083 
5183.0000 -999.0000  485.7590  187.5750  -29.6259    8.5000    2.0586    0.0281    1.0000    0.0281    0.7658    0.1405  623.5221    0.0000    0.0000    0.0127    0.0004    0.0000   14.0000    0.0000    0.0208 -999.0000  139.0136 
5183.5000 -999.0000  490.3290  188.5650  -29.7174    8.5000    2.0394    0.0283    1.0000    0.0283    0.7645    0.1413  642.4957    0.0000    0.0000    0.0130    0.0004    0.0000   14.0000    0.0000    0.0210 -999.0000  139.0189 
5184.0000 -999.0000  494.2030  189.8510  -29.7988    8.5000    2.0235    0.0284    1.0000    0.0284    0.7634    0.1420  656.5558    0.0000    0.0000    0.0132    0.0004    0.0000   14.0000    0.0000    0.0212 -999.0000  139.0242 
5184.5000 -999.0000  494.5450  191.4680  -29.7532    8.5000    2.0221    0.0283    1.0000    0.0283    0.7640    0.1416  660.0178    0.0000    0.0000    0.0131    0.0004    0.0000   14.0000    0.0000    0.0211 -999.0000  139.0295 
5185.0000 -999.0000  496.9840  193.2450  -29.7086    8.5000    2.0121    0.0282    1.0000    0.0282    0.7647    0.1412  661.7142    0.0000    0.0000    0.0130    0.0004    0.0000   14.0000    0.0000    0.0210 -999.0000  139.0348 
5185.5000 -999.0000  500.1490  194.7580  -29.6641    8.5000    1.9994    0.0282    1.0000    0.0282    0.7653    0.1408  659.7891    0.0000    0.0000    0.0128    0.0004    0.0000   14.0000    0.0000    0.0209 -999.0000  139.0401 
5186.0000 -999.0000  504.0230  195.8810  -29.9615    8.5000    1.9840    0.0287    1.0000    0.0287    0.7611    0.1433  659.2213    0.0000    0.0000    0.0137    0.0004    0.0000   14.0000    0.0000    0.0216 -999.0000  139.0454 
5186.5000 -999.0000  512.0130  196.4290  -30.2539    8.5000    1.9531    0.0292    1.0000    0.0292    0.7570    0.1458  664.4695    0.0000    0.0000    0.0147    0.0004    0.0000   14.0000    0.0000    0.0224 -999.0000  139.0507 
5187.0000 -999.0000  522.3440  197.0570  -30.5073    8.5000    1.9144    0.0296    1.0000    0.0296    0.7534    0.1479  673.9727    0.0000    0.0000    0.0155    0.0005    0.0000   14.0000    0.0000    0.0230 -999.0000  139.0560 
5187.5000 -999.0000  531.9660  197.7890  -30.5788    8.5000    1.8798    0.0297    1.0000    0.0297    0.7524    0.1486  689.0951    0.0000    0.0000    0.0157    0.0005    0.0000   14.0000    0.0000    0.0232 -999.0000  139.0613 
5188.0000 -999.0000  541.6160  203.8600  -30.6492    8.5000    1.8463    0.0298    1.0000    0.0298    0.7514    0.1491  708.4702    0.0000    0.0000    0.0160    0.0005    0.0000   14.0000    0.0000    0.0234 -999.0000  139.0667 
5188.5000 -999.0000  558.0780  209.8230  -30.7196    8.5000    1.7919    0.0299    1.0000    0.0299    0.7504    0.1497  729.8146    0.0000    0.0000    0.0162    0.0005    0.0000   14.0000    0.0000    0.0236 -999.0000  139.0719 
5189.0000 -999.0000  570.5670  215.7210  -31.0990    8.5000    1.7526    0.0306    1.0000    0.0306    0.7451    0.1529  756.4763    0.0000    0.0000    0.0176    0.0005    0.0000   14.0000    0.0000    0.0246 -999.0000  139.0773 
5189.5000 -999.0000  584.0770  221.6190  -31.4765    8.5000    1.7121    0.0312    1.0000    0.0312    0.7398    0.1561  786.2796    0.0000    0.0000    0.0190    0.0006    0.0000   14.0000    0.0000    0.0256 -999.0000  139.0826 
5190.0000 -999.0000  599.5170  227.5170  -31.9189    8.5000    1.6680    0.0320    1.0000    0.0320    0.7335    0.1599  818.0708    0.0000    0.0000    0.0208    0.0007    0.0000   14.0000    0.0000    0.0268 -999.0000  139.0879 
5190.5000 -999.0000  613.3490  233.4160  -32.6873    8.5000    1.6304    0.0333    1.0000    0.0333    0.7227    0.1664  857.3998    0.0000    0.0000    0.0242    0.0008    0.0000   14.0000    0.0000    0.0290 -999.0000  139.0932 
5191.0000 -999.0000  628.4680  239.3140  -33.4567    8.5000    1.5912    0.0346    1.0000    0.0346    0.7119    0.1729  901.5893    0.0000    0.0000    0.0280    0.0010    0.0000   14.0000    0.0000    0.0312 -999.0000  139.0985 
5191.5000 -999.0000  643.8010  245.2120  -34.2412    8.5000    1.5533    0.0359    1.0000    0.0359    0.7008    0.1795  945.7792    0.0000    0.0000    0.0323    0.0012    0.0000   14.0000    0.0000    0.0336 -999.0000  139.1038 
5192.0000 -999.0000  659.8310  250.8440  -35.0876    8.5000    1.5155    0.0373    1.0000    0.0373    0.6889    0.1867  983.3233    0.0000    0.0000    0.0375    0.0014    0.0000   14.0000    0.0000    0.0363 -999.0000  139.1091 
5192.5000 -999.0000  673.5450  256.3330  -35.9330    8.5000    1.4847    0.0388    1.0000    0.0388    0.6770    0.1938 1007.6408    0.0000    0.0000    0.0432    0.0017    0.0000   14.0000    0.0000    0.0390 -999.0000  139.1144 
5193.0000 -999.0000  687.4100  261.7610  -36.7794    8.5000    1.4547    0.0402    1.0000    0.0402    0.6651    0.2010 1033.4020    0.0000    0.0000    0.0496    0.0020    0.0000   14.0000    0.0000    0.0419 -999.0000  139.1197 
5193.5000 -999.0000  700.2350  264.1610  -37.6259    8.5000    1.4281    0.0416    0.8713    0.0363    0.6532    0.2081 1062.7592    0.0000    0.0000    0.0650    0.0027    0.0000   14.0000    0.0000    0.0487 -999.0000  139.1250 
5194.0000 -999.0000  712.9450  266.5340  -38.4713    8.5000    1.4026    0.0431    0.7550    0.0325    0.6412    0.2153 1096.7516    0.0000    0.0000    0.0853    0.0037    0.0000   14.0000    0.0000    0.0566 -999.0000  139.1303 
5194.5000 -999.0000  724.7160  268.9080  -39.4107    8.5000    1.3799    0.0446    0.6494    0.0290    0.6280    0.2232 1140.0745    0.0000    0.0000    0.1139    0.0051    0.0000   14.0000    0.0000    0.0663 -999.0000  139.1356 
