~VERSION INFORMATION
 VERS.                 2.0:   CWLS LOG ASCII STANDARD - VERSION 2.0
 WRAP.                  NO:   SINGLE LINE PER DEPTH STEP
 CREA.                 16/2/2017 12:26:34 p. m.
#CREATED USING IP VERSION 4.2.2015.61 BY PANESSOR ON 16/2/2017 12:26:34 p. m.
~WELL INFORMATION
#MNEM.UNIT       DATA                          DESCRIPTION MNEMONIC
#---------      ---------------------------   --------------------------
 STRT    .FT        2850.0000                 : START DEPTH
 STOP    .FT        5750.0000                 : STOP DEPTH
 STEP    .FT        0.5000                    : STEP VALUE
 NULL    .      -999.0000                     : NULL VALUE
 DATE    .      16/2/2017                     : LAS file Creation Date
 WELL  .      AGUACHICA-2                                   : Well Name
 COMP  .      INTERNATIONAL PETROLEUM COMPANY COLOMBIA LTDA : Company
 FLD   .      WILDCAT                                       : Field
 STATE .      CESAR                                         : State
 COUNT .      COLOMBIA                                      : Country
 API   .      AGUA0002                                      : API Number
 UWI   .      100000000367                                  : Unique Well Identifier (UWI)
 LOC   .      GAUSS ORIGIN BOGOTA                           : Location
 LATI  .      8.3363348055                                  : Latitude/Northing
 LONG  .      -73.7086179998                                : Longitude/Easting
 RWS   .      -999                                          : Def_Rw
 WST   .      -999                                          : Def_Rwt
 PROV  .                                                    : Province
 SRVC  .      SCH                                           : Contractor
~CURVE INFORMATION
#MNEM                 UNIT       API CODE     Description
#----------     --------------- ----------  --------------
 DEPTH         .FT                        : 
 CALI_IR       .IN                        : Caliper
 RD_IR         .OHMM                      : Formation Resitivity AM64"
 RM_IR         .OHMM                      : Resistivity AM16"
 SPC_IR        .MV                        : Spontaneous Potential
 BS_IR         .inch                      : Bit Size
 COND_IR       .mmohs                     : Conductivity
 PHIE_IR       .Dec                       : Effective Porosity
 SW_IR         .Dec                       : Water Saturation
 BVW_IR        .Dec                       : Bulk Volume water (Phie x SW)
 VWCL_IR       .Dec                       : Volume wet Clay
 VSILT_IR      .Dec                       : Volume Silt
 LATds_IR      .OHMM                      : Lateral AO18'8" Depth Shift
 ResFlag_IR    .                          : Net Reservoir
 PayFlag_IR    .                          : Net Pay
 K_PHI_IR      .                          : K/PHI RATIO
 Perm_IR       .md                        : Calculated Permeability
 ResFlagRT_IR  .                          : Net Reservoir Rock Type
 MUD_WEIGHT_IR .PPG                       : MUD_WEIGHT
 PayFlagRT_IR  .                          : Pay Flag Rock Type
 Rock_Type_IR  .microns                   : Pore Throat Size - Rock Types
 BADHOLE_IR    .FLAG                      : Bad Hole Indicator
 Temp_IR       .F                         : Formation Temperature
~P Interactive Petrophysics parameters
#Name        Value                 Description
#----- --------------------------  -----------
#Logging Run 
 RUN  .     1            : Run Number
 DATE .     13-MAR-1953  : Date                      | RUN[0]
 DFT  .     /            : Type of Fluid in Hole     | RUN[1]
~A  DEPTH  CALI_IR    RD_IR     RM_IR     SPC_IR    BS_IR    COND_IR   PHIE_IR    SW_IR     BVW_IR   VWCL_IR   VSILT_IR  LATds_IR ResFlag_~ PayFlag_~  K_PHI_IR  Perm_IR  ResFlagR~ MUD_WEIG~ PayFlagR~ Rock_Typ~ BADHOLE_~  Temp_IR  
# ...
5352.5000    8.3460  356.4540  142.8120  -16.9057    8.5000    2.8054    0.0004    1.0000    0.0004    0.9450    0.0538  652.0346    0.0000    0.0000    0.0000    0.0000    0.0000   14.0000    0.0000    0.0000    0.0000  140.8127 
5353.0000    8.2310  339.8260  137.3940  -17.5841    8.5000    2.9427    0.0005    1.0000    0.0005    0.9354    0.0628  546.7946    0.0000    0.0000    0.0000    0.0000    0.0000   14.0000    0.0000    0.0000    0.0000  140.8180 
5353.5000    8.1350  321.1350  129.6750  -18.3966    8.5000    3.1140    0.0008    1.0000    0.0008    0.9240    0.0734  457.4513    0.0000    0.0000    0.0000    0.0000    0.0000   14.0000    0.0000    0.0000    0.0000  140.8233 
5354.0000    8.0960  302.8800  121.6950  -19.0890    8.5000    3.3016    0.0010    1.0000    0.0010    0.9142    0.0823  391.4624    0.0000    0.0000    0.0000    0.0000    0.0000   14.0000    0.0000    0.0000    0.0000  140.8286 
5354.5000    8.0770  284.8460  113.7150  -19.5164    8.5000    3.5107    0.0012    1.0000    0.0012    0.9082    0.0876  350.4889    0.0000    0.0000    0.0000    0.0000    0.0000   14.0000    0.0000    0.0000    0.0000  140.8339 
5355.0000    8.0770  275.4990  105.7360  -19.1528    8.5000    3.6298    0.0011    1.0000    0.0011    0.9133    0.0831  325.6668    0.0000    0.0000    0.0000    0.0000    0.0000   14.0000    0.0000    0.0000    0.0000  140.8392 
5355.5000    8.0770  266.5860   99.1200  -18.3253    8.5000    3.7511    0.0007    1.0000    0.0007    0.9250    0.0725  309.8824    0.0000    0.0000    0.0000    0.0000    0.0000   14.0000    0.0000    0.0000    0.0000  140.8445 
5356.0000    8.0580  264.2010   94.5330  -17.1347    8.5000    3.7850    0.0004    1.0000    0.0004    0.9418    0.0568  302.7330    0.0000    0.0000    0.0000    0.0000    0.0000   14.0000    0.0000    0.0000    0.0000  140.8498 
5356.5000    8.0770  261.7610   91.1310  -15.9431    8.5000    3.8203    0.0002    1.0000    0.0002    0.9585    0.0407  303.2248    0.0000    0.0000    0.0000    0.0000    0.0000   14.0000    0.0000    0.0000    0.0000  140.8551 
5357.0000    8.0960  268.4920   89.6260  -14.7515    8.5000    3.7245    0.0001    1.0000    0.0001    0.9753    0.0243  306.1283    0.0000    0.0000    0.0000    0.0000    0.0000   14.0000    0.0000    0.0000    0.0000  140.8604 
5357.5000    8.1150  275.1510   89.6260  -13.7500    8.5000    3.6344    0.0001    1.0000    0.0001    0.9894    0.0102  307.5525    0.0000    0.0000    0.0000    0.0000    0.0000   14.0000    0.0000    0.0000    0.0000  140.8658 
5358.0000    8.1150  277.9250   91.5560  -12.9104    8.5000    3.5981    0.0001    1.0000    0.0001    1.0000    0.0000  308.8215    0.0000    0.0000    0.0000    0.0000    0.0000   14.0000    0.0000    0.0000    0.0000  140.8711 
5358.5000    8.0770  279.9430   94.4140  -12.0718    8.5000    3.5722    0.0001    1.0000    0.0001    1.0000    0.0000  310.9899    0.0000    0.0000    0.0000    0.0000    0.0000   14.0000    0.0000    0.0000    0.0000  140.8764 
5359.0000    8.0770  282.0040   98.9640  -11.6032    8.5000    3.5460    0.0001    1.0000    0.0001    1.0000    0.0000  313.5490    0.0000    0.0000    0.0000    0.0000    0.0000   14.0000    0.0000    0.0000    0.0000  140.8817 
5359.5000    8.0960  284.1170  103.5140  -11.5103    8.5000    3.5197    0.0001    1.0000    0.0001    1.0000    0.0000  320.1333    0.0000    0.0000    0.0000    0.0000    0.0000   14.0000    0.0000    0.0000    0.0000  140.8870 
5360.0000    8.0960  287.0320  109.7450  -11.4274    8.5000    3.4839    0.0001    1.0000    0.0001    1.0000    0.0000  330.2493    0.0000    0.0000    0.0000    0.0000    0.0000   14.0000    0.0000    0.0000    0.0000  140.8923 
5360.5000    8.1150  294.0590  116.1140  -11.6126    8.5000    3.4007    0.0001    1.0000    0.0001    1.0000    0.0000  343.8026    0.0000    0.0000    0.0000    0.0000    0.0000   14.0000    0.0000    0.0000    0.0000  140.8976 
5361.0000    8.1350  301.0850  122.8140  -12.0537    8.5000    3.3213    0.0001    1.0000    0.0001    1.0000    0.0000  362.1735    0.0000    0.0000    0.0000    0.0000    0.0000   14.0000    0.0000    0.0000    0.0000  140.9029 
5361.5000    8.1730  312.8350  130.8650  -12.2529    8.5000    3.1966    0.0001    1.0000    0.0001    1.0000    0.0000  388.6284    0.0000    0.0000    0.0000    0.0000    0.0000   14.0000    0.0000    0.0000    0.0000  140.9082 
5362.0000    8.2310  326.0800  138.9160  -12.3720    8.5000    3.0667    0.0001    1.0000    0.0001    1.0000    0.0000  416.4929    0.0000    0.0000    0.0000    0.0000    0.0000   14.0000    0.0000    0.0000    0.0000  140.9135 
5362.5000    8.2880  340.8390  146.9670  -12.7582    8.5000    2.9339    0.0001    1.0000    0.0001    1.0000    0.0000  439.5203    0.0000    0.0000    0.0000    0.0000    0.0000   14.0000    0.0000    0.0000    0.0000  140.9188 
5363.0000    8.3270  360.4610  155.0170  -13.1593    8.5000    2.7742    0.0001    1.0000    0.0001    0.9953    0.0044  459.6235    0.0000    0.0000    0.0000    0.0000    0.0000   14.0000    0.0000    0.0000    0.0000  140.9241 
5363.5000    8.3080  380.0830  163.0680  -13.7525    8.5000    2.6310    0.0001    1.0000    0.0001    0.9779    0.0218  478.8498    0.0000    0.0000    0.0000    0.0000    0.0000   14.0000    0.0000    0.0000    0.0000  140.9294 
5364.0000    8.3080  400.2980  171.1190  -14.3456    8.5000    2.4981    0.0002    1.0000    0.0002    0.9604    0.0389  494.6816    0.0000    0.0000    0.0000    0.0000    0.0000   14.0000    0.0000    0.0000    0.0000  140.9348 
5364.5000    8.2880  421.0740  179.1700  -14.9158    8.5000    2.3749    0.0004    1.0000    0.0004    0.9437    0.0550  510.4359    0.0000    0.0000    0.0000    0.0000    0.0000   14.0000    0.0000    0.0000    0.0000  140.9401 
5365.0000    8.2690  438.6810  189.2640  -16.0869    8.5000    2.2796    0.0012    1.0000    0.0012    0.9092    0.0868  524.3070    0.0000    0.0000    0.0000    0.0000    0.0000   14.0000    0.0000    0.0000    0.0000  140.9454 
5365.5000    8.2500  454.6240  193.8560  -17.2181    8.5000    2.1996    0.0030    1.0000    0.0030    0.8759    0.1142  536.4150    0.0000    0.0000    0.0000    0.0000    0.0000   14.0000    0.0000    0.0003    0.0000  140.9507 
5366.0000    8.2310  466.1040  195.7780  -18.3562    8.5000    2.1454    0.0065    1.0000    0.0065    0.8425    0.1358  547.8433    0.0000    0.0000    0.0000    0.0000    0.0000   14.0000    0.0000    0.0012    0.0000  140.9560 
5366.5000    8.2500  475.5640  196.5060  -19.4684    8.5000    2.1028    0.0129    1.0000    0.0129    0.8098    0.1472  554.8110    0.0000    0.0000    0.0007    0.0000    0.0000   14.0000    0.0000    0.0045    0.0000  140.9613 
5367.0000    8.2690  485.6450  197.0220  -20.5585    8.5000    2.0591    0.0227    1.0000    0.0227    0.7777    0.1467  558.6125    0.0000    0.0000    0.0056    0.0001    0.0000   14.0000    0.0000    0.0137    0.0000  140.9666 
5367.5000    8.2880  496.6830  197.1180  -21.6497    8.5000    2.0134    0.0259    1.0000    0.0259    0.7456    0.1679  559.5677    0.0000    0.0000    0.0094    0.0002    0.0000   14.0000    0.0000    0.0178    0.0000  140.9719 
5368.0000    8.3270  506.7380  197.2140  -22.7398    8.5000    1.9734    0.0292    1.0000    0.0292    0.7135    0.1891  558.7826    0.0000    0.0000    0.0148    0.0004    0.0000   14.0000    0.0000    0.0224    0.0000  140.9772 
5368.5000    8.3460  513.0450  197.2260  -23.6490    8.5000    1.9491    0.0319    1.0000    0.0319    0.6868    0.2067  558.9394    0.0000    0.0000    0.0207    0.0007    0.0000   14.0000    0.0000    0.0267    0.0000  140.9825 
5369.0000    8.3850  519.3520  197.2260  -24.2171    8.5000    1.9255    0.0337    1.0000    0.0337    0.6701    0.2177  560.8148    0.0000    0.0000    0.0253    0.0009    0.0000   14.0000    0.0000    0.0296    0.0000  140.9878 
5369.5000    8.3460  518.9880  197.2260  -24.6903    8.5000    1.9268    0.0351    1.0000    0.0351    0.6562    0.2269  565.9556    0.0000    0.0000    0.0296    0.0010    0.0000   14.0000    0.0000    0.0321    0.0000  140.9931 
