~VERSION INFORMATION
 VERS.                 2.0:   CWLS LOG ASCII STANDARD - VERSION 2.0
 WRAP.                  NO:   SINGLE LINE PER DEPTH STEP
 CREA.                 16/2/2017 12:26:34 p. m.
#CREATED USING IP VERSION 4.2.2015.61 BY PANESSOR ON 16/2/2017 12:26:34 p. m.
~WELL INFORMATION
#MNEM.UNIT       DATA                          DESCRIPTION MNEMONIC
#---------      ---------------------------   --------------------------
 STRT    .FT        2850.0000                 : START DEPTH
 STOP    .FT        5750.0000                 : STOP DEPTH
 STEP    .FT        0.5000                    : STEP VALUE
 NULL    .      -999.0000                     : NULL VALUE
 DATE    .      16/2/2017                     : LAS file Creation Date
 WELL  .      AGUACHICA-2                                   : Well Name
 COMP  .      INTERNATIONAL PETROLEUM COMPANY COLOMBIA LTDA : Company
 FLD   .      WILDCAT                                       : Field
 STATE .      CESAR                                         : State
 COUNT .      COLOMBIA                                      : Country
 API   .      AGUA0002                                      : API Number
 UWI   .      100000000367                                  : Unique Well Identifier (UWI)
 LOC   .      GAUSS ORIGIN BOGOTA                           : Location
 LATI  .      8.3363348055                                  : Latitude/Northing
 LONG  .      -73.7086179998                                : Longitude/Easting
 RWS   .      -999                                          : Def_Rw
 WST   .      -999                                          : Def_Rwt
 PROV  .                                                    : Province
 SRVC  .      SCH                                           : Contractor
~CURVE INFORMATION
#MNEM                 UNIT       API CODE     Description
#----------     --------------- ----------  --------------
 DEPTH         .FT                        : 
 CALI_IR       .IN                        : Caliper
 RD_IR         .OHMM                      : Formation Resitivity AM64"
 RM_IR         .OHMM                      : Resistivity AM16"
 SPC_IR        .MV                        : Spontaneous Potential
 BS_IR         .inch                      : Bit Size
 COND_IR       .mmohs                     : Conductivity
 PHIE_IR       .Dec                       : Effective Porosity
 SW_IR         .Dec                       : Water Saturation
 BVW_IR        .Dec                       : Bulk Volume water (Phie x SW)
 VWCL_IR       .Dec                       : Volume wet Clay
 VSILT_IR      .Dec                       : Volume Silt
 LATds_IR      .OHMM                      : Lateral AO18'8" Depth Shift
 ResFlag_IR    .                          : Net Reservoir
 PayFlag_IR    .                          : Net Pay
 K_PHI_IR      .                          : K/PHI RATIO
 Perm_IR       .md                        : Calculated Permeability
 ResFlagRT_IR  .                          : Net Reservoir Rock Type
 MUD_WEIGHT_IR .PPG                       : MUD_WEIGHT
 PayFlagRT_IR  .                          : Pay Flag Rock Type
 Rock_Type_IR  .microns                   : Pore Throat Size - Rock Types
 BADHOLE_IR    .FLAG                      : Bad Hole Indicator
 Temp_IR       .F                         : Formation Temperature
~P Interactive Petrophysics parameters
#Name        Value                 Description
#----- --------------------------  -----------
#Logging Run 
 RUN  .     1            : Run Number
 DATE .     13-MAR-1953  : Date                      | RUN[0]
 DFT  .     /            : Type of Fluid in Hole     | RUN[1]
~A  DEPTH  CALI_IR    RD_IR     RM_IR     SPC_IR    BS_IR    COND_IR   PHIE_IR    SW_IR     BVW_IR   VWCL_IR   VSILT_IR  LATds_IR ResFlag_~ PayFlag_~  K_PHI_IR  Perm_IR  ResFlagR~ MUD_WEIG~ PayFlagR~ Rock_Typ~ BADHOLE_~  Temp_IR  
# ...
4232.5000 -999.0000    7.4430    9.4050  -13.9322 -999.0000  134.3544    0.0061    1.0000    0.0061    0.8457    0.1341    9.3059    0.0000    0.0000    0.0000    0.0000    0.0000   14.0000    0.0000    0.0010 -999.0000  128.9247 
4233.0000 -999.0000    7.5990    9.4390  -13.9484 -999.0000  131.5963    0.0062    1.0000    0.0062    0.8448    0.1345    9.3540    0.0000    0.0000    0.0000    0.0000    0.0000   14.0000    0.0000    0.0011 -999.0000  128.9301 
4233.5000 -999.0000    7.6960    9.3770  -13.6717 -999.0000  129.9376    0.0044    1.0000    0.0044    0.8594    0.1258    9.3696    0.0000    0.0000    0.0000    0.0000    0.0000   14.0000    0.0000    0.0006 -999.0000  128.9354 
4234.0000 -999.0000    7.7330    9.2740  -13.3470 -999.0000  129.3159    0.0029    1.0000    0.0029    0.8765    0.1138    9.3681    0.0000    0.0000    0.0000    0.0000    0.0000   14.0000    0.0000    0.0002 -999.0000  128.9407 
4234.5000 -999.0000    7.7610    9.1710  -13.0223 -999.0000  128.8494    0.0019    1.0000    0.0019    0.8936    0.1002    9.3476    0.0000    0.0000    0.0000    0.0000    0.0000   14.0000    0.0000    0.0001 -999.0000  128.9460 
4235.0000 -999.0000    7.7750    9.0900  -12.6975 -999.0000  128.6174    0.0012    1.0000    0.0012    0.9107    0.0855    9.3267    0.0000    0.0000    0.0000    0.0000    0.0000   14.0000    0.0000    0.0000 -999.0000  128.9513 
4235.5000 -999.0000    7.7500    9.0670  -12.3728 -999.0000  129.0323    0.0007    1.0000    0.0007    0.9277    0.0700    9.3061    0.0000    0.0000    0.0000    0.0000    0.0000   14.0000    0.0000    0.0000 -999.0000  128.9566 
4236.0000 -999.0000    7.7010    9.1300  -12.0481 -999.0000  129.8533    0.0004    1.0000    0.0004    0.9448    0.0539    9.2844    0.0000    0.0000    0.0000    0.0000    0.0000   14.0000    0.0000    0.0000 -999.0000  128.9619 
4236.5000 -999.0000    7.6150    9.3030  -11.7674 -999.0000  131.3198    0.0002    1.0000    0.0002    0.9596    0.0397    9.2151    0.0000    0.0000    0.0000    0.0000    0.0000   14.0000    0.0000    0.0000 -999.0000  128.9672 
4237.0000 -999.0000    7.5100    9.5250  -11.8156 -999.0000  133.1558    0.0002    1.0000    0.0002    0.9571    0.0422    9.1457    0.0000    0.0000    0.0000    0.0000    0.0000   14.0000    0.0000    0.0000 -999.0000  128.9725 
4237.5000 -999.0000    7.4180    9.7470  -11.8639 -999.0000  134.8072    0.0003    1.0000    0.0003    0.9545    0.0446    9.0644    0.0000    0.0000    0.0000    0.0000    0.0000   14.0000    0.0000    0.0000 -999.0000  128.9778 
4238.0000 -999.0000    7.3460    9.8040  -11.9112 -999.0000  136.1285    0.0003    1.0000    0.0003    0.9520    0.0470    8.9635    0.0000    0.0000    0.0000    0.0000    0.0000   14.0000    0.0000    0.0000 -999.0000  128.9831 
4238.5000 -999.0000    7.2930    9.6360  -11.9595 -999.0000  137.1178    0.0003    1.0000    0.0003    0.9495    0.0495    8.8438    0.0000    0.0000    0.0000    0.0000    0.0000   14.0000    0.0000    0.0000 -999.0000  128.9884 
4239.0000 -999.0000    7.2420    9.2780  -12.0077 -999.0000  138.0834    0.0003    1.0000    0.0003    0.9470    0.0519    8.7241    0.0000    0.0000    0.0000    0.0000    0.0000   14.0000    0.0000    0.0000 -999.0000  128.9937 
4239.5000 -999.0000    7.2090    8.9190  -12.0550 -999.0000  138.7155    0.0004    1.0000    0.0004    0.9445    0.0543    8.6370    0.0000    0.0000    0.0000    0.0000    0.0000   14.0000    0.0000    0.0000 -999.0000  128.9990 
4240.0000 -999.0000    7.1770    8.5610  -12.1033 -999.0000  139.3340    0.0004    1.0000    0.0004    0.9419    0.0567    8.6049    0.0000    0.0000    0.0000    0.0000    0.0000   14.0000    0.0000    0.0000 -999.0000  129.0043 
4240.5000 -999.0000    7.1420    8.2540  -12.1515 -999.0000  140.0168    0.0005    1.0000    0.0005    0.9394    0.0591    8.6697    0.0000    0.0000    0.0000    0.0000    0.0000   14.0000    0.0000    0.0000 -999.0000  129.0097 
4241.0000 -999.0000    7.1010    8.0290  -12.1988 -999.0000  140.8252    0.0005    1.0000    0.0005    0.9369    0.0614    8.7904    0.0000    0.0000    0.0000    0.0000    0.0000   14.0000    0.0000    0.0000 -999.0000  129.0150 
4241.5000 -999.0000    7.0460    7.9370  -12.2471 -999.0000  141.9245    0.0005    1.0000    0.0005    0.9344    0.0638    8.9219    0.0000    0.0000    0.0000    0.0000    0.0000   14.0000    0.0000    0.0000 -999.0000  129.0203 
4242.0000 -999.0000    6.9820    7.9090  -12.2954 -999.0000  143.2254    0.0006    1.0000    0.0006    0.9318    0.0662    9.0350    0.0000    0.0000    0.0000    0.0000    0.0000   14.0000    0.0000    0.0000 -999.0000  129.0256 
4242.5000 -999.0000    6.9000    7.9190  -12.2716 -999.0000  144.9275    0.0006    1.0000    0.0006    0.9331    0.0650    9.0808    0.0000    0.0000    0.0000    0.0000    0.0000   14.0000    0.0000    0.0000 -999.0000  129.0309 
4243.0000 -999.0000    6.8050    7.9510  -12.2119 -999.0000  146.9508    0.0005    1.0000    0.0005    0.9362    0.0621    8.9971    0.0000    0.0000    0.0000    0.0000    0.0000   14.0000    0.0000    0.0000 -999.0000  129.0362 
4243.5000 -999.0000    6.7000    7.9840  -12.1532 -999.0000  149.2537    0.0005    1.0000    0.0005    0.9393    0.0592    8.8867    0.0000    0.0000    0.0000    0.0000    0.0000   14.0000    0.0000    0.0000 -999.0000  129.0415 
4244.0000 -999.0000    6.5980    8.0300  -12.0935 -999.0000  151.5611    0.0004    1.0000    0.0004    0.9424    0.0562    8.7202    0.0000    0.0000    0.0000    0.0000    0.0000   14.0000    0.0000    0.0000 -999.0000  129.0468 
4244.5000 -999.0000    6.5420    8.1240  -12.0337 -999.0000  152.8585    0.0004    1.0000    0.0004    0.9456    0.0532    8.4358    0.0000    0.0000    0.0000    0.0000    0.0000   14.0000    0.0000    0.0000 -999.0000  129.0521 
4245.0000 -999.0000    6.5300    8.2630  -11.9740 -999.0000  153.1394    0.0003    1.0000    0.0003    0.9487    0.0502    8.1603    0.0000    0.0000    0.0000    0.0000    0.0000   14.0000    0.0000    0.0000 -999.0000  129.0574 
4245.5000 -999.0000    6.5360    8.2430  -11.9143 -999.0000  152.9988    0.0003    1.0000    0.0003    0.9519    0.0472    7.9203    0.0000    0.0000    0.0000    0.0000    0.0000   14.0000    0.0000    0.0000 -999.0000  129.0627 
4246.0000 -999.0000    6.5420    8.2210  -11.8545 -999.0000  152.8585    0.0003    1.0000    0.0003    0.9550    0.0441    7.7267    0.0000    0.0000    0.0000    0.0000    0.0000   14.0000    0.0000    0.0000 -999.0000  129.0680 
4246.5000 -999.0000    6.5470    8.2000  -11.7948 -999.0000  152.7417    0.0002    1.0000    0.0002    0.9582    0.0411    7.5894    0.0000    0.0000    0.0000    0.0000    0.0000   14.0000    0.0000    0.0000 -999.0000  129.0733 
4247.0000 -999.0000    6.5340    8.1780  -11.7561 -999.0000  153.0456    0.0002    1.0000    0.0002    0.9602    0.0391    7.5475    0.0000    0.0000    0.0000    0.0000    0.0000   14.0000    0.0000    0.0000 -999.0000  129.0786 
4247.5000 -999.0000    6.5030    8.1790  -11.9104 -999.0000  153.7752    0.0003    1.0000    0.0003    0.9521    0.0470    7.5149    0.0000    0.0000    0.0000    0.0000    0.0000   14.0000    0.0000    0.0000 -999.0000  129.0840 
4248.0000 -999.0000    6.4730    8.2060  -12.0636 -999.0000  154.4879    0.0004    1.0000    0.0004    0.9440    0.0547    7.5031    0.0000    0.0000    0.0000    0.0000    0.0000   14.0000    0.0000    0.0000 -999.0000  129.0893 
4248.5000 -999.0000    6.4420    8.2790  -12.2179 -999.0000  155.2313    0.0005    1.0000    0.0005    0.9359    0.0624    7.5204    0.0000    0.0000    0.0000    0.0000    0.0000   14.0000    0.0000    0.0000 -999.0000  129.0946 
4249.0000 -999.0000    6.4120    8.3730  -12.3722 -999.0000  155.9576    0.0007    1.0000    0.0007    0.9278    0.0700    7.5822    0.0000    0.0000    0.0000    0.0000    0.0000   14.0000    0.0000    0.0000 -999.0000  129.0999 
4249.5000 -999.0000    6.3830    8.4290  -12.5255 -999.0000  156.6662    0.0009    1.0000    0.0009    0.9197    0.0774    7.6578    0.0000    0.0000    0.0000    0.0000    0.0000   14.0000    0.0000    0.0000 -999.0000  129.1052 
