~VERSION INFORMATION
 VERS.                 2.0:   CWLS LOG ASCII STANDARD - VERSION 2.0
 WRAP.                  NO:   SINGLE LINE PER DEPTH STEP
 CREA.                 16/2/2017 12:26:34 p. m.
#CREATED USING IP VERSION 4.2.2015.61 BY PANESSOR ON 16/2/2017 12:26:34 p. m.
~WELL INFORMATION
#MNEM.UNIT       DATA                          DESCRIPTION MNEMONIC
#---------      ---------------------------   --------------------------
 STRT    .FT        2850.0000                 : START DEPTH
 STOP    .FT        5750.0000                 : STOP DEPTH
 STEP    .FT        0.5000                    : STEP VALUE
 NULL    .      -999.0000                     : NULL VALUE
 DATE    .      16/2/2017                     : LAS file Creation Date
 WELL  .      AGUACHICA-2                                   : Well Name
 COMP  .      INTERNATIONAL PETROLEUM COMPANY COLOMBIA LTDA : Company
 FLD   .      WILDCAT                                       : Field
 STATE .      CESAR                                         : State
 COUNT .      COLOMBIA                                      : Country
 API   .      AGUA0002                                      : API Number
 UWI   .      100000000367                                  : Unique Well Identifier (UWI)
 LOC   .      GAUSS ORIGIN BOGOTA                           : Location
 LATI  .      8.3363348055                                  : Latitude/Northing
 LONG  .      -73.7086179998                                : Longitude/Easting
 RWS   .      -999                                          : Def_Rw
 WST   .      -999                                          : Def_Rwt
 PROV  .                                                    : Province
 SRVC  .      SCH                                           : Contractor
~CURVE INFORMATION
#MNEM                 UNIT       API CODE     Description
#----------     --------------- ----------  --------------
 DEPTH         .FT                        : 
 CALI_IR       .IN                        : Caliper
 RD_IR         .OHMM                      : Formation Resitivity AM64"
 RM_IR         .OHMM                      : Resistivity AM16"
 SPC_IR        .MV                        : Spontaneous Potential
 BS_IR         .inch                      : Bit Size
 COND_IR       .mmohs                     : Conductivity
 PHIE_IR       .Dec                       : Effective Porosity
 SW_IR         .Dec                       : Water Saturation
 BVW_IR        .Dec                       : Bulk Volume water (Phie x SW)
 VWCL_IR       .Dec                       : Volume wet Clay
 VSILT_IR      .Dec                       : Volume Silt
 LATds_IR      .OHMM                      : Lateral AO18'8" Depth Shift
 ResFlag_IR    .                          : Net Reservoir
 PayFlag_IR    .                          : Net Pay
 K_PHI_IR      .                          : K/PHI RATIO
 Perm_IR       .md                        : Calculated Permeability
 ResFlagRT_IR  .                          : Net Reservoir Rock Type
 MUD_WEIGHT_IR .PPG                       : MUD_WEIGHT
 PayFlagRT_IR  .                          : Pay Flag Rock Type
 Rock_Type_IR  .microns                   : Pore Throat Size - Rock Types
 BADHOLE_IR    .FLAG                      : Bad Hole Indicator
 Temp_IR       .F                         : Formation Temperature
~P Interactive Petrophysics parameters
#Name        Value                 Description
#----- --------------------------  -----------
#Logging Run 
 RUN  .     1            : Run Number
 DATE .     13-MAR-1953  : Date                      | RUN[0]
 DFT  .     /            : Type of Fluid in Hole     | RUN[1]
~A  DEPTH  CALI_IR    RD_IR     RM_IR     SPC_IR    BS_IR    COND_IR   PHIE_IR    SW_IR     BVW_IR   VWCL_IR   VSILT_IR  LATds_IR ResFlag_~ PayFlag_~  K_PHI_IR  Perm_IR  ResFlagR~ MUD_WEIG~ PayFlagR~ Rock_Typ~ BADHOLE_~  Temp_IR  
# ...
4600.0000 -999.0000    1.8380    2.7040  -10.8564 -999.0000  544.0696    0.0001    1.0000    0.0001    1.0000    0.0000    2.4031    0.0000    0.0000    0.0000    0.0000    0.0000   14.0000    0.0000    0.0000 -999.0000  132.8255 
4600.5000 -999.0000    1.8360    2.7570  -10.8723 -999.0000  544.6623    0.0001    1.0000    0.0001    1.0000    0.0000    2.4358    0.0000    0.0000    0.0000    0.0000    0.0000   14.0000    0.0000    0.0000 -999.0000  132.8308 
4601.0000 -999.0000    1.8340    2.7990  -11.0552 -999.0000  545.2563    0.0001    1.0000    0.0001    0.9971    0.0026    2.4685    0.0000    0.0000    0.0000    0.0000    0.0000   14.0000    0.0000    0.0000 -999.0000  132.8361 
4601.5000 -999.0000    1.8320    2.8310  -11.2381 -999.0000  545.8515    0.0001    1.0000    0.0001    0.9875    0.0122    2.4947    0.0000    0.0000    0.0000    0.0000    0.0000   14.0000    0.0000    0.0000 -999.0000  132.8414 
4602.0000 -999.0000    1.8300    2.8840  -11.4210 -999.0000  546.4481    0.0001    1.0000    0.0001    0.9778    0.0218    2.5040    0.0000    0.0000    0.0000    0.0000    0.0000   14.0000    0.0000    0.0000 -999.0000  132.8467 
4602.5000 -999.0000    1.8280    2.9160  -11.6039 -999.0000  547.0460    0.0001    1.0000    0.0001    0.9682    0.0313    2.5016    0.0000    0.0000    0.0000    0.0000    0.0000   14.0000    0.0000    0.0000 -999.0000  132.8520 
4603.0000 -999.0000    1.8260    2.8700  -11.7929 -999.0000  547.6451    0.0002    1.0000    0.0002    0.9583    0.0410    2.4987    0.0000    0.0000    0.0000    0.0000    0.0000   14.0000    0.0000    0.0000 -999.0000  132.8573 
4603.5000 -999.0000    1.8240    2.8370  -11.7978 -999.0000  548.2456    0.0002    1.0000    0.0002    0.9580    0.0413    2.4962    0.0000    0.0000    0.0000    0.0000    0.0000   14.0000    0.0000    0.0000 -999.0000  132.8626 
4604.0000 -999.0000    1.8220    2.8210  -11.8027 -999.0000  548.8474    0.0002    1.0000    0.0002    0.9578    0.0415    2.4940    0.0000    0.0000    0.0000    0.0000    0.0000   14.0000    0.0000    0.0000 -999.0000  132.8679 
4604.5000 -999.0000    1.8590    2.7720  -11.7376 -999.0000  537.9236    0.0002    1.0000    0.0002    0.9612    0.0382    2.4914    0.0000    0.0000    0.0000    0.0000    0.0000   14.0000    0.0000    0.0000 -999.0000  132.8732 
4605.0000 -999.0000    1.9180    2.7050  -11.5945 -999.0000  521.3765    0.0001    1.0000    0.0001    0.9687    0.0308    2.4892    0.0000    0.0000    0.0000    0.0000    0.0000   14.0000    0.0000    0.0000 -999.0000  132.8785 
4605.5000 -999.0000    1.9360    2.6470  -11.3604 -999.0000  516.5289    0.0001    1.0000    0.0001    0.9810    0.0186    2.4863    0.0000    0.0000    0.0000    0.0000    0.0000   14.0000    0.0000    0.0000 -999.0000  132.8839 
4606.0000 -999.0000    1.9540    2.6480  -11.1633 -999.0000  511.7707    0.0001    1.0000    0.0001    0.9914    0.0083    2.4833    0.0000    0.0000    0.0000    0.0000    0.0000   14.0000    0.0000    0.0000 -999.0000  132.8892 
4606.5000 -999.0000    1.9720    2.6920  -11.0413 -999.0000  507.0994    0.0001    1.0000    0.0001    0.9978    0.0018    2.4760    0.0000    0.0000    0.0000    0.0000    0.0000   14.0000    0.0000    0.0000 -999.0000  132.8945 
4607.0000 -999.0000    1.9900    2.7590  -10.9192 -999.0000  502.5126    0.0001    1.0000    0.0001    1.0000    0.0000    2.4492    0.0000    0.0000    0.0000    0.0000    0.0000   14.0000    0.0000    0.0000 -999.0000  132.8998 
4607.5000 -999.0000    1.9970    2.7970  -10.7971 -999.0000  500.7511    0.0001    1.0000    0.0001    1.0000    0.0000    2.4231    0.0000    0.0000    0.0000    0.0000    0.0000   14.0000    0.0000    0.0000 -999.0000  132.9051 
4608.0000 -999.0000    2.0040    2.8750  -10.7310 -999.0000  499.0020    0.0001    1.0000    0.0001    1.0000    0.0000    2.3951    0.0000    0.0000    0.0000    0.0000    0.0000   14.0000    0.0000    0.0000 -999.0000  132.9104 
4608.5000 -999.0000    2.0110    2.9610  -10.6999 -999.0000  497.2651    0.0001    1.0000    0.0001    1.0000    0.0000    2.3298    0.0000    0.0000    0.0000    0.0000    0.0000   14.0000    0.0000    0.0000 -999.0000  132.9157 
4609.0000 -999.0000    2.0120    3.0470  -10.6688 -999.0000  497.0179    0.0001    1.0000    0.0001    1.0000    0.0000    2.2569    0.0000    0.0000    0.0000    0.0000    0.0000   14.0000    0.0000    0.0000 -999.0000  132.9210 
4609.5000 -999.0000    2.0080    3.1330  -10.7137 -999.0000  498.0080    0.0001    1.0000    0.0001    1.0000    0.0000    2.2239    0.0000    0.0000    0.0000    0.0000    0.0000   14.0000    0.0000    0.0000 -999.0000  132.9263 
4610.0000 -999.0000    2.0030    3.1980  -10.9836 -999.0000  499.2511    0.0001    1.0000    0.0001    1.0000    0.0000    2.1940    0.0000    0.0000    0.0000    0.0000    0.0000   14.0000    0.0000    0.0000 -999.0000  132.9316 
4610.5000 -999.0000    1.9990    3.2500  -11.2546 -999.0000  500.2501    0.0001    1.0000    0.0001    0.9866    0.0131    2.1642    0.0000    0.0000    0.0000    0.0000    0.0000   14.0000    0.0000    0.0000 -999.0000  132.9369 
4611.0000 -999.0000    1.9940    3.2660  -11.5245 -999.0000  501.5045    0.0001    1.0000    0.0001    0.9724    0.0272    2.1336    0.0000    0.0000    0.0000    0.0000    0.0000   14.0000    0.0000    0.0000 -999.0000  132.9422 
4611.5000 -999.0000    1.9900    3.2390  -11.7954 -999.0000  502.5126    0.0002    1.0000    0.0002    0.9581    0.0411    2.1210    0.0000    0.0000    0.0000    0.0000    0.0000   14.0000    0.0000    0.0000 -999.0000  132.9475 
4612.0000 -999.0000    1.9850    3.2030  -12.0663 -999.0000  503.7783    0.0004    1.0000    0.0004    0.9439    0.0548    2.1569    0.0000    0.0000    0.0000    0.0000    0.0000   14.0000    0.0000    0.0000 -999.0000  132.9529 
4612.5000 -999.0000    1.9810    3.1680  -12.2102 -999.0000  504.7956    0.0005    1.0000    0.0005    0.9363    0.0620    2.2214    0.0000    0.0000    0.0000    0.0000    0.0000   14.0000    0.0000    0.0000 -999.0000  132.9582 
4613.0000 -999.0000    1.9760    3.0760  -12.0971 -999.0000  506.0729    0.0004    1.0000    0.0004    0.9423    0.0564    2.2712    0.0000    0.0000    0.0000    0.0000    0.0000   14.0000    0.0000    0.0000 -999.0000  132.9635 
4613.5000 -999.0000    1.9720    2.9700  -11.9850 -999.0000  507.0994    0.0003    1.0000    0.0003    0.9482    0.0507    2.3034    0.0000    0.0000    0.0000    0.0000    0.0000   14.0000    0.0000    0.0000 -999.0000  132.9688 
4614.0000 -999.0000    1.9680    2.8790  -11.8720 -999.0000  508.1301    0.0003    1.0000    0.0003    0.9541    0.0450    2.3318    0.0000    0.0000    0.0000    0.0000    0.0000   14.0000    0.0000    0.0000 -999.0000  132.9741 
4614.5000 -999.0000    1.9580    2.8150  -11.7589 -999.0000  510.7253    0.0002    1.0000    0.0002    0.9601    0.0393    2.3601    0.0000    0.0000    0.0000    0.0000    0.0000   14.0000    0.0000    0.0000 -999.0000  132.9794 
4615.0000 -999.0000    1.9470    2.7520  -11.6468 -999.0000  513.6107    0.0002    1.0000    0.0002    0.9660    0.0335    2.3885    0.0000    0.0000    0.0000    0.0000    0.0000   14.0000    0.0000    0.0000 -999.0000  132.9847 
4615.5000 -999.0000    1.9360    2.6850  -11.5337 -999.0000  516.5289    0.0001    1.0000    0.0001    0.9719    0.0277    2.4169    0.0000    0.0000    0.0000    0.0000    0.0000   14.0000    0.0000    0.0000 -999.0000  132.9900 
4616.0000 -999.0000    1.9250    2.6460  -11.4206 -999.0000  519.4805    0.0001    1.0000    0.0001    0.9779    0.0218    2.4447    0.0000    0.0000    0.0000    0.0000    0.0000   14.0000    0.0000    0.0000 -999.0000  132.9953 
4616.5000 -999.0000    1.9160    2.6090  -11.3085 -999.0000  521.9207    0.0001    1.0000    0.0001    0.9838    0.0159    2.4671    0.0000    0.0000    0.0000    0.0000    0.0000   14.0000    0.0000    0.0000 -999.0000  133.0006 
4617.0000 -999.0000    1.9110    2.5890  -11.1954 -999.0000  523.2863    0.0001    1.0000    0.0001    0.9897    0.0100    2.4708    0.0000    0.0000    0.0000    0.0000    0.0000   14.0000    0.0000    0.0000 -999.0000  133.0059 
