~VERSION INFORMATION
 VERS.                 2.0:   CWLS LOG ASCII STANDARD - VERSION 2.0
 WRAP.                  NO:   SINGLE LINE PER DEPTH STEP
 CREA.                 16/2/2017 12:26:34 p. m.
#CREATED USING IP VERSION 4.2.2015.61 BY PANESSOR ON 16/2/2017 12:26:34 p. m.
~WELL INFORMATION
#MNEM.UNIT       DATA                          DESCRIPTION MNEMONIC
#---------      ---------------------------   --------------------------
 STRT    .FT        2850.0000                 : START DEPTH
 STOP    .FT        5750.0000                 : STOP DEPTH
 STEP    .FT        0.5000                    : STEP VALUE
 NULL    .      -999.0000                     : NULL VALUE
 DATE    .      16/2/2017                     : LAS file Creation Date
 WELL  .      AGUACHICA-2                                   : Well Name
 COMP  .      INTERNATIONAL PETROLEUM COMPANY COLOMBIA LTDA : Company
 FLD   .      WILDCAT                                       : Field
 STATE .      CESAR                                         : State
 COUNT .      COLOMBIA                                      : Country
 API   .      AGUA0002                                      : API Number
 UWI   .      100000000367                                  : Unique Well Identifier (UWI)
 LOC   .      GAUSS ORIGIN BOGOTA                           : Location
 LATI  .      8.3363348055                                  : Latitude/Northing
 LONG  .      -73.7086179998                                : Longitude/Easting
 RWS   .      -999                                          : Def_Rw
 WST   .      -999                                          : Def_Rwt
 PROV  .                                                    : Province
 SRVC  .      SCH                                           : Contractor
~CURVE INFORMATION
#MNEM                 UNIT       API CODE     Description
#----------     --------------- ----------  --------------
 DEPTH         .FT                        : 
 CALI_IR       .IN                        : Caliper
 RD_IR         .OHMM                      : Formation Resitivity AM64"
 RM_IR         .OHMM                      : Resistivity AM16"
 SPC_IR        .MV                        : Spontaneous Potential
 BS_IR         .inch                      : Bit Size
 COND_IR       .mmohs                     : Conductivity
 PHIE_IR       .Dec                       : Effective Porosity
 SW_IR         .Dec                       : Water Saturation
 BVW_IR        .Dec                       : Bulk Volume water (Phie x SW)
 VWCL_IR       .Dec                       : Volume wet Clay
 VSILT_IR      .Dec                       : Volume Silt
 LATds_IR      .OHMM                      : Lateral AO18'8" Depth Shift
 ResFlag_IR    .                          : Net Reservoir
 PayFlag_IR    .                          : Net Pay
 K_PHI_IR      .                          : K/PHI RATIO
 Perm_IR       .md                        : Calculated Permeability
 ResFlagRT_IR  .                          : Net Reservoir Rock Type
 MUD_WEIGHT_IR .PPG                       : MUD_WEIGHT
 PayFlagRT_IR  .                          : Pay Flag Rock Type
 Rock_Type_IR  .microns                   : Pore Throat Size - Rock Types
 BADHOLE_IR    .FLAG                      : Bad Hole Indicator
 Temp_IR       .F                         : Formation Temperature
~P Interactive Petrophysics parameters
#Name        Value                 Description
#----- --------------------------  -----------
#Logging Run 
 RUN  .     1            : Run Number
 DATE .     13-MAR-1953  : Date                      | RUN[0]
 DFT  .     /            : Type of Fluid in Hole     | RUN[1]
~A  DEPTH  CALI_IR    RD_IR     RM_IR     SPC_IR    BS_IR    COND_IR   PHIE_IR    SW_IR     BVW_IR   VWCL_IR   VSILT_IR  LATds_IR ResFlag_~ PayFlag_~  K_PHI_IR  Perm_IR  ResFlagR~ MUD_WEIG~ PayFlagR~ Rock_Typ~ BADHOLE_~  Temp_IR  
# ...
5737.5000 -999.0000 -999.0000 -999.0000  -11.8013    8.5000   26.6873    0.0001    1.0000    0.0001    0.9777    0.0219 -999.0000    0.0000    0.0000    0.0000    0.0000    0.0000   14.0000    0.0000    0.0000 -999.0000  144.8992 
5738.0000 -999.0000 -999.0000 -999.0000  -12.0189    8.5000   26.6638    0.0001    1.0000    0.0001    0.9717    0.0279 -999.0000    0.0000    0.0000    0.0000    0.0000    0.0000   14.0000    0.0000    0.0000 -999.0000  144.9045 
5738.5000 -999.0000 -999.0000 -999.0000  -11.8955    8.5000   26.6404    0.0001    1.0000    0.0001    0.9751    0.0245 -999.0000    0.0000    0.0000    0.0000    0.0000    0.0000   14.0000    0.0000    0.0000 -999.0000  144.9098 
5739.0000 -999.0000 -999.0000 -999.0000  -11.5000    8.5000   26.6170    0.0001    1.0000    0.0001    0.9861    0.0136 -999.0000    0.0000    0.0000    0.0000    0.0000    0.0000   14.0000    0.0000    0.0000 -999.0000  144.9151 
5739.5000 -999.0000 -999.0000 -999.0000  -11.3586    8.5000   26.5943    0.0001    1.0000    0.0001    0.9900    0.0096 -999.0000    0.0000    0.0000    0.0000    0.0000    0.0000   14.0000    0.0000    0.0000 -999.0000  144.9204 
5740.0000 -999.0000 -999.0000 -999.0000  -11.2172    8.5000   26.5710    0.0001    1.0000    0.0001    0.9940    0.0057 -999.0000    0.0000    0.0000    0.0000    0.0000    0.0000   14.0000    0.0000    0.0000 -999.0000  144.9257 
5740.5000 -999.0000 -999.0000 -999.0000  -11.0848    8.5000   26.5477    0.0001    1.0000    0.0001    0.9976    0.0020 -999.0000    0.0000    0.0000    0.0000    0.0000    0.0000   14.0000    0.0000    0.0000 -999.0000  144.9310 
5741.0000 -999.0000 -999.0000 -999.0000  -11.0994    8.5000   26.5245    0.0001    1.0000    0.0001    0.9972    0.0024 -999.0000    0.0000    0.0000    0.0000    0.0000    0.0000   14.0000    0.0000    0.0000 -999.0000  144.9363 
5741.5000 -999.0000 -999.0000 -999.0000  -11.1077    8.5000   26.5013    0.0001    1.0000    0.0001    0.9970    0.0027 -999.0000    0.0000    0.0000    0.0000    0.0000    0.0000   14.0000    0.0000    0.0000 -999.0000  144.9416 
5742.0000 -999.0000 -999.0000 -999.0000  -11.1077    8.5000   26.4894    0.0001    1.0000    0.0001    0.9970    0.0027 -999.0000    0.0000    0.0000    0.0000    0.0000    0.0000   14.0000    0.0000    0.0000 -999.0000  144.9469 
5742.5000 -999.0000 -999.0000 -999.0000  -11.1077    8.5000   26.5013    0.0001    1.0000    0.0001    0.9970    0.0027 -999.0000    0.0000    0.0000    0.0000    0.0000    0.0000   14.0000    0.0000    0.0000 -999.0000  144.9522 
5743.0000 -999.0000 -999.0000 -999.0000  -11.1077    8.5000   26.5132    0.0001    1.0000    0.0001    0.9970    0.0027 -999.0000    0.0000    0.0000    0.0000    0.0000    0.0000   14.0000    0.0000    0.0000 -999.0000  144.9576 
5743.5000 -999.0000 -999.0000 -999.0000  -11.3137    8.5000   26.5252    0.0001    1.0000    0.0001    0.9913    0.0084 -999.0000    0.0000    0.0000    0.0000    0.0000    0.0000   14.0000    0.0000    0.0000 -999.0000  144.9628 
5744.0000 -999.0000 -999.0000 -999.0000  -11.5517    8.5000   26.5372    0.0001    1.0000    0.0001    0.9847    0.0150 -999.0000    0.0000    0.0000    0.0000    0.0000    0.0000   14.0000    0.0000    0.0000 -999.0000  144.9682 
5744.5000 -999.0000 -999.0000 -999.0000  -11.7897    8.5000   26.5484    0.0001    1.0000    0.0001    0.9781    0.0216 -999.0000    0.0000    0.0000    0.0000    0.0000    0.0000   14.0000    0.0000    0.0000 -999.0000  144.9735 
5745.0000 -999.0000 -999.0000 -999.0000  -12.0277    8.5000   26.5604    0.0001    1.0000    0.0001    0.9715    0.0282 -999.0000    0.0000    0.0000    0.0000    0.0000    0.0000   14.0000    0.0000    0.0000 -999.0000  144.9788 
5745.5000 -999.0000 -999.0000 -999.0000  -12.2657    8.5000   26.5724    0.0002    1.0000    0.0002    0.9648    0.0346 -999.0000    0.0000    0.0000    0.0000    0.0000    0.0000   14.0000    0.0000    0.0000 -999.0000  144.9841 
5746.0000 -999.0000 -999.0000 -999.0000  -12.2717    8.5000   26.5844    0.0002    1.0000    0.0002    0.9647    0.0348 -999.0000    0.0000    0.0000    0.0000    0.0000    0.0000   14.0000    0.0000    0.0000 -999.0000  144.9894 
5746.5000 -999.0000 -999.0000 -999.0000  -12.2147    8.5000   26.5965    0.0002    1.0000    0.0002    0.9663    0.0332 -999.0000    0.0000    0.0000    0.0000    0.0000    0.0000   14.0000    0.0000    0.0000 -999.0000  144.9947 
5747.0000 -999.0000 -999.0000 -999.0000  -12.1567    8.5000   26.6085    0.0001    1.0000    0.0001    0.9679    0.0317 -999.0000    0.0000    0.0000    0.0000    0.0000    0.0000   14.0000    0.0000    0.0000 -999.0000  145.0000 
5747.5000 -999.0000 -999.0000 -999.0000  -12.0987    8.5000   26.6205    0.0001    1.0000    0.0001    0.9695    0.0301 -999.0000    0.0000    0.0000    0.0000    0.0000    0.0000   14.0000    0.0000    0.0000 -999.0000  145.0053 
5748.0000 -999.0000 -999.0000 -999.0000  -12.0417    8.5000   26.6326    0.0001    1.0000    0.0001    0.9711    0.0285 -999.0000    0.0000    0.0000    0.0000    0.0000    0.0000   14.0000    0.0000    0.0000 -999.0000  145.0106 
5748.5000 -999.0000 -999.0000 -999.0000  -11.9837    8.5000   26.6446    0.0001    1.0000    0.0001    0.9727    0.0270 -999.0000    0.0000    0.0000    0.0000    0.0000    0.0000   14.0000    0.0000    0.0000 -999.0000  145.0159 
5749.0000 -999.0000 -999.0000 -999.0000  -11.9257    8.5000   26.6560    0.0001    1.0000    0.0001    0.9743    0.0254 -999.0000    0.0000    0.0000    0.0000    0.0000    0.0000   14.0000    0.0000    0.0000 -999.0000  145.0212 
5749.5000 -999.0000 -999.0000 -999.0000  -11.8687    8.5000   26.6560    0.0001    1.0000    0.0001    0.9759    0.0238 -999.0000    0.0000    0.0000    0.0000    0.0000    0.0000   14.0000    0.0000    0.0000 -999.0000  145.0265 
5750.0000 -999.0000 -999.0000 -999.0000  -11.8327    8.5000   26.6560    0.0001    1.0000    0.0001    0.9769    0.0228 -999.0000    0.0000    0.0000    0.0000    0.0000    0.0000   14.0000    0.0000    0.0000 -999.0000  145.0318 
