~VERSION INFORMATION
 VERS.                 2.0:   CWLS LOG ASCII STANDARD - VERSION 2.0
 WRAP.                  NO:   SINGLE LINE PER DEPTH STEP
 CREA.                 16/2/2017 12:26:34 p. m.
#CREATED USING IP VERSION 4.2.2015.61 BY PANESSOR ON 16/2/2017 12:26:34 p. m.
~WELL INFORMATION
#MNEM.UNIT       DATA                          DESCRIPTION MNEMONIC
#---------      ---------------------------   --------------------------
 STRT    .FT        2850.0000                 : START DEPTH
 STOP    .FT        5750.0000                 : STOP DEPTH
 STEP    .FT        0.5000                    : STEP VALUE
 NULL    .      -999.0000                     : NULL VALUE
 DATE    .      16/2/2017                     : LAS file Creation Date
 WELL  .      AGUACHICA-2                                   : Well Name
 COMP  .      INTERNATIONAL PETROLEUM COMPANY COLOMBIA LTDA : Company
 FLD   .      WILDCAT                                       : Field
 STATE .      CESAR                                         : State
 COUNT .      COLOMBIA                                      : Country
 API   .      AGUA0002                                      : API Number
 UWI   .      100000000367                                  : Unique Well Identifier (UWI)
 LOC   .      GAUSS ORIGIN BOGOTA                           : Location
 LATI  .      8.3363348055                                  : Latitude/Northing
 LONG  .      -73.7086179998                                : Longitude/Easting
 RWS   .      -999                                          : Def_Rw
 WST   .      -999                                          : Def_Rwt
 PROV  .                                                    : Province
 SRVC  .      SCH                                           : Contractor
~CURVE INFORMATION
#MNEM                 UNIT       API CODE     Description
#----------     --------------- ----------  --------------
 DEPTH         .FT                        : 
 CALI_IR       .IN                        : Caliper
 RD_IR         .OHMM                      : Formation Resitivity AM64"
 RM_IR         .OHMM                      : Resistivity AM16"
 SPC_IR        .MV                        : Spontaneous Potential
 BS_IR         .inch                      : Bit Size
 COND_IR       .mmohs                     : Conductivity
 PHIE_IR       .Dec                       : Effective Porosity
 SW_IR         .Dec                       : Water Saturation
 BVW_IR        .Dec                       : Bulk Volume water (Phie x SW)
 VWCL_IR       .Dec                       : Volume wet Clay
 VSILT_IR      .Dec                       : Volume Silt
 LATds_IR      .OHMM                      : Lateral AO18'8" Depth Shift
 ResFlag_IR    .                          : Net Reservoir
 PayFlag_IR    .                          : Net Pay
 K_PHI_IR      .                          : K/PHI RATIO
 Perm_IR       .md                        : Calculated Permeability
 ResFlagRT_IR  .                          : Net Reservoir Rock Type
 MUD_WEIGHT_IR .PPG                       : MUD_WEIGHT
 PayFlagRT_IR  .                          : Pay Flag Rock Type
 Rock_Type_IR  .microns                   : Pore Throat Size - Rock Types
 BADHOLE_IR    .FLAG                      : Bad Hole Indicator
 Temp_IR       .F                         : Formation Temperature
~P Interactive Petrophysics parameters
#Name        Value                 Description
#----- --------------------------  -----------
#Logging Run 
 RUN  .     1            : Run Number
 DATE .     13-MAR-1953  : Date                      | RUN[0]
 DFT  .     /            : Type of Fluid in Hole     | RUN[1]
~A  DEPTH  CALI_IR    RD_IR     RM_IR     SPC_IR    BS_IR    COND_IR   PHIE_IR    SW_IR     BVW_IR   VWCL_IR   VSILT_IR  LATds_IR ResFlag_~ PayFlag_~  K_PHI_IR  Perm_IR  ResFlagR~ MUD_WEIG~ PayFlagR~ Rock_Typ~ BADHOLE_~  Temp_IR  
# ...
3847.5000 -999.0000   90.3500   76.1430  -28.1126 -999.0000   11.0681    0.0632    1.0000    0.0632    0.4480    0.1308   26.6626    0.0000    0.0000    0.2769    0.0175    0.0000   14.0000    0.0000    0.0697 -999.0000  124.8383 
3848.0000 -999.0000   90.0040   74.5850  -27.6233 -999.0000   11.1106    0.0614    1.0000    0.0614    0.4638    0.1270   26.8726    0.0000    0.0000    0.2480    0.0152    0.0000   14.0000    0.0000    0.0655 -999.0000  124.8436 
3848.5000 -999.0000   89.6260   72.8280  -26.9289 -999.0000   11.1575    0.0588    1.0000    0.0588    0.4862    0.1217   28.0966    0.0000    0.0000    0.2109    0.0124    0.0000   14.0000    0.0000    0.0596 -999.0000  124.8489 
3849.0000 -999.0000   89.7660   70.4870  -25.9856 -999.0000   11.1401    0.0553    1.0000    0.0553    0.5166    0.1145   29.7772    0.0000    0.0000    0.1672    0.0093    0.0000   14.0000    0.0000    0.0522 -999.0000  124.8542 
3849.5000 -999.0000   90.2150   68.1460  -24.7262 -999.0000   11.0846    0.0507    1.0000    0.0507    0.5572    0.1049   31.4578    0.0000    0.0000    0.1198    0.0061    0.0000   14.0000    0.0000    0.0430 -999.0000  124.8595 
3850.0000 -999.0000   91.0490   66.3810  -23.3148 -999.0000   10.9831    0.0455    1.0000    0.0455    0.6027    0.0941   32.6934    0.0000    0.0000    0.0793    0.0036    0.0000   14.0000    0.0000    0.0339 -999.0000  124.8648 
3850.5000 -999.0000   92.0970   65.0140  -21.9035 -999.0000   10.8581    0.0403    1.0000    0.0403    0.6483    0.0833   33.4184    0.0000    0.0000    0.0499    0.0020    0.0000   14.0000    0.0000    0.0260 -999.0000  124.8701 
3851.0000 -999.0000   92.2800   64.6580  -21.1941 -999.0000   10.8366    0.0376    1.0000    0.0376    0.6712    0.0779   32.7114    0.0000    0.0000    0.0387    0.0015    0.0000   14.0000    0.0000    0.0224 -999.0000  124.8754 
3851.5000 -999.0000   90.4330   64.5720  -20.6248 -999.0000   11.0579    0.0344    1.0000    0.0344    0.6895    0.0810   30.7431    0.0000    0.0000    0.0276    0.0009    0.0000   14.0000    0.0000    0.0185 -999.0000  124.8807 
3852.0000 -999.0000   87.5900   64.8720  -19.7344 -999.0000   11.4168    0.0238    1.0000    0.0238    0.7182    0.1230   28.3886    0.0000    0.0000    0.0068    0.0002    0.0000   14.0000    0.0000    0.0082 -999.0000  124.8860 
3852.5000 -999.0000   84.1510   65.5290  -19.1081 -999.0000   11.8834    0.0178    1.0000    0.0178    0.7384    0.1430   26.0336    0.0000    0.0000    0.0022    0.0000    0.0000   14.0000    0.0000    0.0043 -999.0000  124.8913 
3853.0000 -999.0000   80.7120   66.1870  -18.8157 -999.0000   12.3897    0.0154    1.0000    0.0154    0.7479    0.1495   24.6173    0.0000    0.0000    0.0013    0.0000    0.0000   14.0000    0.0000    0.0032 -999.0000  124.8966 
3853.5000 -999.0000   77.2190   66.3410  -18.8513 -999.0000   12.9502    0.0157    1.0000    0.0157    0.7467    0.1488   25.0893    0.0000    0.0000    0.0014    0.0000    0.0000   14.0000    0.0000    0.0033 -999.0000  124.9019 
3854.0000 -999.0000   73.9750   65.5320  -18.8870 -999.0000   13.5181    0.0159    1.0000    0.0159    0.7456    0.1481   27.1610    0.0000    0.0000    0.0015    0.0000    0.0000   14.0000    0.0000    0.0034 -999.0000  124.9073 
3854.5000 -999.0000   72.0530   63.4840  -18.9226 -999.0000   13.8787    0.0162    1.0000    0.0162    0.7444    0.1473   31.3691    0.0000    0.0000    0.0016    0.0000    0.0000   14.0000    0.0000    0.0036 -999.0000  124.9126 
3855.0000 -999.0000   71.2220   60.4000  -18.7773 -999.0000   14.0406    0.0151    1.0000    0.0151    0.7491    0.1503   37.9584    0.0000    0.0000    0.0012    0.0000    0.0000   14.0000    0.0000    0.0030 -999.0000  124.9179 
3855.5000 -999.0000   71.1140   57.2980  -18.4499 -999.0000   14.0619    0.0127    1.0000    0.0127    0.7597    0.1554   45.8936    0.0000    0.0000    0.0006    0.0000    0.0000   14.0000    0.0000    0.0021 -999.0000  124.9232 
3856.0000 -999.0000   71.3220   55.1510  -17.7996 -999.0000   14.0209    0.0089    1.0000    0.0089    0.7807    0.1600   54.3544    0.0000    0.0000    0.0002    0.0000    0.0000   14.0000    0.0000    0.0010 -999.0000  124.9285 
3856.5000 -999.0000   71.3360   52.9550  -17.0842 -999.0000   14.0182    0.0058    1.0000    0.0058    0.8037    0.1576   61.0728    0.0000    0.0000    0.0000    0.0000    0.0000   14.0000    0.0000    0.0004 -999.0000  124.9338 
3857.0000 -999.0000   70.6630   52.9550  -16.3688 -999.0000   14.1517    0.0037    1.0000    0.0037    0.8268    0.1488   63.9546    0.0000    0.0000    0.0000    0.0000    0.0000   14.0000    0.0000    0.0001 -999.0000  124.9391 
3857.5000 -999.0000   68.4100   53.4260  -15.8635 -999.0000   14.6177    0.0026    1.0000    0.0026    0.8431    0.1397   63.0011    0.0000    0.0000    0.0000    0.0000    0.0000   14.0000    0.0000    0.0001 -999.0000  124.9444 
3858.0000 -999.0000   65.0510   54.5490  -15.7101 -999.0000   15.3726    0.0023    1.0000    0.0023    0.8481    0.1366   58.4729    0.0000    0.0000    0.0000    0.0000    0.0000   14.0000    0.0000    0.0000 -999.0000  124.9497 
3858.5000 -999.0000   60.4630   55.6710  -15.5498 -999.0000   16.5390    0.0020    1.0000    0.0020    0.8532    0.1331   51.5625    0.0000    0.0000    0.0000    0.0000    0.0000   14.0000    0.0000    0.0000 -999.0000  124.9550 
3859.0000 -999.0000   55.2330   56.0920  -15.5084 -999.0000   18.1051    0.0020    1.0000    0.0020    0.8546    0.1322   43.8620    0.0000    0.0000    0.0000    0.0000    0.0000   14.0000    0.0000    0.0000 -999.0000  124.9603 
3859.5000 -999.0000   49.3370   55.3020  -15.4670 -999.0000   20.2688    0.0019    1.0000    0.0019    0.8559    0.1313   36.1123    0.0000    0.0000    0.0000    0.0000    0.0000   14.0000    0.0000    0.0000 -999.0000  124.9656 
3860.0000 -999.0000   46.2140   53.8140  -15.4257 -999.0000   21.6385    0.0019    1.0000    0.0019    0.8572    0.1303   28.7105    0.0000    0.0000    0.0000    0.0000    0.0000   14.0000    0.0000    0.0000 -999.0000  124.9709 
3860.5000 -999.0000   43.2520   50.3030  -15.3843 -999.0000   23.1203    0.0018    1.0000    0.0018    0.8586    0.1294   25.1587    0.0000    0.0000    0.0000    0.0000    0.0000   14.0000    0.0000    0.0000 -999.0000  124.9762 
3861.0000 -999.0000   40.7590   46.0650  -15.0730 -999.0000   24.5345    0.0014    1.0000    0.0014    0.8686    0.1219   23.4022    0.0000    0.0000    0.0000    0.0000    0.0000   14.0000    0.0000    0.0000 -999.0000  124.9816 
3861.5000 -999.0000   38.4540   41.4460  -14.6236 -999.0000   26.0051    0.0010    1.0000    0.0010    0.8831    0.1103   23.7541    0.0000    0.0000    0.0000    0.0000    0.0000   14.0000    0.0000    0.0000 -999.0000  124.9869 
3862.0000 -999.0000   36.3600   40.1250  -14.1753 -999.0000   27.5028    0.0007    1.0000    0.0007    0.8976    0.0979   26.7635    0.0000    0.0000    0.0000    0.0000    0.0000   14.0000    0.0000    0.0000 -999.0000  124.9922 
3862.5000 -999.0000   35.3860   39.7290  -13.7259 -999.0000   28.2598    0.0004    1.0000    0.0004    0.9121    0.0850   32.2651    0.0000    0.0000    0.0000    0.0000    0.0000   14.0000    0.0000    0.0000 -999.0000  124.9975 
3863.0000 -999.0000   34.6200   34.9200  -13.0725 -999.0000   28.8850    0.0002    1.0000    0.0002    0.9331    0.0653   39.3981    0.0000    0.0000    0.0000    0.0000    0.0000   14.0000    0.0000    0.0000 -999.0000  125.0028 
3863.5000 -999.0000   34.0860   31.8380  -12.4632 -999.0000   29.3376    0.0001    1.0000    0.0001    0.9528    0.0465   51.1422    0.0000    0.0000    0.0000    0.0000    0.0000   14.0000    0.0000    0.0000 -999.0000  125.0081 
3864.0000 -999.0000   33.9980   29.5730  -12.0868 -999.0000   29.4135    0.0001    1.0000    0.0001    0.9649    0.0344   64.6665    0.0000    0.0000    0.0000    0.0000    0.0000   14.0000    0.0000    0.0000 -999.0000  125.0134 
3864.5000 -999.0000   34.1580   27.7780  -11.7115 -999.0000   29.2757    0.0001    1.0000    0.0001    0.9770    0.0223   79.9447    0.0000    0.0000    0.0000    0.0000    0.0000   14.0000    0.0000    0.0000 -999.0000  125.0187 
