~VERSION INFORMATION
 VERS.                 2.0:   CWLS LOG ASCII STANDARD - VERSION 2.0
 WRAP.                  NO:   SINGLE LINE PER DEPTH STEP
 CREA.                 16/2/2017 12:26:34 p. m.
#CREATED USING IP VERSION 4.2.2015.61 BY PANESSOR ON 16/2/2017 12:26:34 p. m.
~WELL INFORMATION
#MNEM.UNIT       DATA                          DESCRIPTION MNEMONIC
#---------      ---------------------------   --------------------------
 STRT    .FT        2850.0000                 : START DEPTH
 STOP    .FT        5750.0000                 : STOP DEPTH
 STEP    .FT        0.5000                    : STEP VALUE
 NULL    .      -999.0000                     : NULL VALUE
 DATE    .      16/2/2017                     : LAS file Creation Date
 WELL  .      AGUACHICA-2                                   : Well Name
 COMP  .      INTERNATIONAL PETROLEUM COMPANY COLOMBIA LTDA : Company
 FLD   .      WILDCAT                                       : Field
 STATE .      CESAR                                         : State
 COUNT .      COLOMBIA                                      : Country
 API   .      AGUA0002                                      : API Number
 UWI   .      100000000367                                  : Unique Well Identifier (UWI)
 LOC   .      GAUSS ORIGIN BOGOTA                           : Location
 LATI  .      8.3363348055                                  : Latitude/Northing
 LONG  .      -73.7086179998                                : Longitude/Easting
 RWS   .      -999                                          : Def_Rw
 WST   .      -999                                          : Def_Rwt
 PROV  .                                                    : Province
 SRVC  .      SCH                                           : Contractor
~CURVE INFORMATION
#MNEM                 UNIT       API CODE     Description
#----------     --------------- ----------  --------------
 DEPTH         .FT                        : 
 CALI_IR       .IN                        : Caliper
 RD_IR         .OHMM                      : Formation Resitivity AM64"
 RM_IR         .OHMM                      : Resistivity AM16"
 SPC_IR        .MV                        : Spontaneous Potential
 BS_IR         .inch                      : Bit Size
 COND_IR       .mmohs                     : Conductivity
 PHIE_IR       .Dec                       : Effective Porosity
 SW_IR         .Dec                       : Water Saturation
 BVW_IR        .Dec                       : Bulk Volume water (Phie x SW)
 VWCL_IR       .Dec                       : Volume wet Clay
 VSILT_IR      .Dec                       : Volume Silt
 LATds_IR      .OHMM                      : Lateral AO18'8" Depth Shift
 ResFlag_IR    .                          : Net Reservoir
 PayFlag_IR    .                          : Net Pay
 K_PHI_IR      .                          : K/PHI RATIO
 Perm_IR       .md                        : Calculated Permeability
 ResFlagRT_IR  .                          : Net Reservoir Rock Type
 MUD_WEIGHT_IR .PPG                       : MUD_WEIGHT
 PayFlagRT_IR  .                          : Pay Flag Rock Type
 Rock_Type_IR  .microns                   : Pore Throat Size - Rock Types
 BADHOLE_IR    .FLAG                      : Bad Hole Indicator
 Temp_IR       .F                         : Formation Temperature
~P Interactive Petrophysics parameters
#Name        Value                 Description
#----- --------------------------  -----------
#Logging Run 
 RUN  .     1            : Run Number
 DATE .     13-MAR-1953  : Date                      | RUN[0]
 DFT  .     /            : Type of Fluid in Hole     | RUN[1]
~A  DEPTH  CALI_IR    RD_IR     RM_IR     SPC_IR    BS_IR    COND_IR   PHIE_IR    SW_IR     BVW_IR   VWCL_IR   VSILT_IR  LATds_IR ResFlag_~ PayFlag_~  K_PHI_IR  Perm_IR  ResFlagR~ MUD_WEIG~ PayFlagR~ Rock_Typ~ BADHOLE_~  Temp_IR  
# ...
2902.5000 -999.0000  104.9360   65.6210  -24.7792 -999.0000    9.5296 -999.0000 -999.0000 -999.0000 -999.0000 -999.0000  116.4909    0.0000    0.0000 -999.0000    0.0000    0.0000   14.0000    0.0000 -999.0000 -999.0000  114.8078 
2903.0000 -999.0000  104.9010   66.4660  -25.1165 -999.0000    9.5328 -999.0000 -999.0000 -999.0000 -999.0000 -999.0000  113.5108    0.0000    0.0000 -999.0000    0.0000    0.0000   14.0000    0.0000 -999.0000 -999.0000  114.8131 
2903.5000 -999.0000  105.6060   66.2180  -25.4538 -999.0000    9.4692 -999.0000 -999.0000 -999.0000 -999.0000 -999.0000  111.0786    0.0000    0.0000 -999.0000    0.0000    0.0000   14.0000    0.0000 -999.0000 -999.0000  114.8184 
2904.0000 -999.0000  106.2730   65.9700  -25.7901 -999.0000    9.4097 -999.0000 -999.0000 -999.0000 -999.0000 -999.0000  109.3306    0.0000    0.0000 -999.0000    0.0000    0.0000   14.0000    0.0000 -999.0000 -999.0000  114.8237 
2904.5000 -999.0000  107.0570   65.7220  -26.0434 -999.0000    9.3408 -999.0000 -999.0000 -999.0000 -999.0000 -999.0000  109.0785    0.0000    0.0000 -999.0000    0.0000    0.0000   14.0000    0.0000 -999.0000 -999.0000  114.8290 
2905.0000 -999.0000  107.8010   65.3970  -26.0237 -999.0000    9.2764 -999.0000 -999.0000 -999.0000 -999.0000 -999.0000  110.6377    0.0000    0.0000 -999.0000    0.0000    0.0000   14.0000    0.0000 -999.0000 -999.0000  114.8344 
2905.5000 -999.0000  108.2660   64.4410  -26.0039 -999.0000    9.2365 -999.0000 -999.0000 -999.0000 -999.0000 -999.0000  113.9372    0.0000    0.0000 -999.0000    0.0000    0.0000   14.0000    0.0000 -999.0000 -999.0000  114.8397 
2906.0000 -999.0000  108.6540   63.1680  -25.7642 -999.0000    9.2035 -999.0000 -999.0000 -999.0000 -999.0000 -999.0000  118.3347    0.0000    0.0000 -999.0000    0.0000    0.0000   14.0000    0.0000 -999.0000 -999.0000  114.8450 
2906.5000 -999.0000  109.0590   61.6810  -25.4555 -999.0000    9.1693 -999.0000 -999.0000 -999.0000 -999.0000 -999.0000  122.3434    0.0000    0.0000 -999.0000    0.0000    0.0000   14.0000    0.0000 -999.0000 -999.0000  114.8503 
2907.0000 -999.0000  109.5050   60.2730  -25.0358 -999.0000    9.1320 -999.0000 -999.0000 -999.0000 -999.0000 -999.0000  125.3944    0.0000    0.0000 -999.0000    0.0000    0.0000   14.0000    0.0000 -999.0000 -999.0000  114.8556 
2907.5000 -999.0000  109.7760   59.1260  -24.6161 -999.0000    9.1095 -999.0000 -999.0000 -999.0000 -999.0000 -999.0000  126.8653    0.0000    0.0000 -999.0000    0.0000    0.0000   14.0000    0.0000 -999.0000 -999.0000  114.8609 
2908.0000 -999.0000  109.5630   58.1500  -24.1963 -999.0000    9.1272 -999.0000 -999.0000 -999.0000 -999.0000 -999.0000  127.2442    0.0000    0.0000 -999.0000    0.0000    0.0000   14.0000    0.0000 -999.0000 -999.0000  114.8662 
2908.5000 -999.0000  108.6950   57.5550  -23.7766 -999.0000    9.2001 -999.0000 -999.0000 -999.0000 -999.0000 -999.0000  126.3118    0.0000    0.0000 -999.0000    0.0000    0.0000   14.0000    0.0000 -999.0000 -999.0000  114.8715 
2909.0000 -999.0000  107.1000   57.1930  -23.6039 -999.0000    9.3371 -999.0000 -999.0000 -999.0000 -999.0000 -999.0000  125.1310    0.0000    0.0000 -999.0000    0.0000    0.0000   14.0000    0.0000 -999.0000 -999.0000  114.8768 
2909.5000 -999.0000  104.5490   56.8310  -23.6552 -999.0000    9.5649 -999.0000 -999.0000 -999.0000 -999.0000 -999.0000  123.8191    0.0000    0.0000 -999.0000    0.0000    0.0000   14.0000    0.0000 -999.0000 -999.0000  114.8821 
2910.0000 -999.0000  101.9970   56.4690  -23.7065 -999.0000    9.8042 -999.0000 -999.0000 -999.0000 -999.0000 -999.0000  122.5074    0.0000    0.0000 -999.0000    0.0000    0.0000   14.0000    0.0000 -999.0000 -999.0000  114.8874 
2910.5000 -999.0000   99.4440   55.6740  -23.7567 -999.0000   10.0559 -999.0000 -999.0000 -999.0000 -999.0000 -999.0000  121.5483    0.0000    0.0000 -999.0000    0.0000    0.0000   14.0000    0.0000 -999.0000 -999.0000  114.8927 
2911.0000 -999.0000   96.8290   54.6220  -23.8080 -999.0000   10.3275 -999.0000 -999.0000 -999.0000 -999.0000 -999.0000  120.8111    0.0000    0.0000 -999.0000    0.0000    0.0000   14.0000    0.0000 -999.0000 -999.0000  114.8980 
2911.5000 -999.0000   94.5020   53.5690  -23.8583 -999.0000   10.5818 -999.0000 -999.0000 -999.0000 -999.0000 -999.0000  120.3009    0.0000    0.0000 -999.0000    0.0000    0.0000   14.0000    0.0000 -999.0000 -999.0000  114.9033 
2912.0000 -999.0000   92.7300   52.5160  -23.9096 -999.0000   10.7840 -999.0000 -999.0000 -999.0000 -999.0000 -999.0000  120.2358    0.0000    0.0000 -999.0000    0.0000    0.0000   14.0000    0.0000 -999.0000 -999.0000  114.9086 
2912.5000 -999.0000   91.4600   51.4640  -23.9609 -999.0000   10.9337 -999.0000 -999.0000 -999.0000 -999.0000 -999.0000  120.5101    0.0000    0.0000 -999.0000    0.0000    0.0000   14.0000    0.0000 -999.0000 -999.0000  114.9140 
2913.0000 -999.0000   90.2770   50.9500  -24.0142 -999.0000   11.0770 -999.0000 -999.0000 -999.0000 -999.0000 -999.0000  121.0971    0.0000    0.0000 -999.0000    0.0000    0.0000   14.0000    0.0000 -999.0000 -999.0000  114.9193 
2913.5000 -999.0000   89.3880   50.5620  -23.9394 -999.0000   11.1872 -999.0000 -999.0000 -999.0000 -999.0000 -999.0000  121.8460    0.0000    0.0000 -999.0000    0.0000    0.0000   14.0000    0.0000 -999.0000 -999.0000  114.9246 
2914.0000 -999.0000   88.9020   50.1730  -23.8617 -999.0000   11.2483 -999.0000 -999.0000 -999.0000 -999.0000 -999.0000  122.5943    0.0000    0.0000 -999.0000    0.0000    0.0000   14.0000    0.0000 -999.0000 -999.0000  114.9299 
2914.5000 -999.0000   88.9020   49.7840  -23.7840 -999.0000   11.2483 -999.0000 -999.0000 -999.0000 -999.0000 -999.0000  123.2428    0.0000    0.0000 -999.0000    0.0000    0.0000   14.0000    0.0000 -999.0000 -999.0000  114.9352 
2915.0000 -999.0000   89.4190   49.3950  -23.7063 -999.0000   11.1833 -999.0000 -999.0000 -999.0000 -999.0000 -999.0000  123.5458    0.0000    0.0000 -999.0000    0.0000    0.0000   14.0000    0.0000 -999.0000 -999.0000  114.9405 
2915.5000 -999.0000   90.2710   49.0060  -23.6286 -999.0000   11.0778 -999.0000 -999.0000 -999.0000 -999.0000 -999.0000  123.4266    0.0000    0.0000 -999.0000    0.0000    0.0000   14.0000    0.0000 -999.0000 -999.0000  114.9458 
2916.0000 -999.0000   91.3990   48.8540  -23.5508 -999.0000   10.9410 -999.0000 -999.0000 -999.0000 -999.0000 -999.0000  122.9883    0.0000    0.0000 -999.0000    0.0000    0.0000   14.0000    0.0000 -999.0000 -999.0000  114.9511 
2916.5000 -999.0000   92.2500   49.3230  -23.4731 -999.0000   10.8401 -999.0000 -999.0000 -999.0000 -999.0000 -999.0000  122.1865    0.0000    0.0000 -999.0000    0.0000    0.0000   14.0000    0.0000 -999.0000 -999.0000  114.9564 
2917.0000 -999.0000   92.8250   50.1900  -23.3954 -999.0000   10.7730 -999.0000 -999.0000 -999.0000 -999.0000 -999.0000  121.3844    0.0000    0.0000 -999.0000    0.0000    0.0000   14.0000    0.0000 -999.0000 -999.0000  114.9617 
2917.5000 -999.0000   93.0040   51.0580  -23.3917 -999.0000   10.7522 -999.0000 -999.0000 -999.0000 -999.0000 -999.0000  120.5930    0.0000    0.0000 -999.0000    0.0000    0.0000   14.0000    0.0000 -999.0000 -999.0000  114.9670 
2918.0000 -999.0000   93.1950   52.5760  -23.4340 -999.0000   10.7302 -999.0000 -999.0000 -999.0000 -999.0000 -999.0000  119.8257    0.0000    0.0000 -999.0000    0.0000    0.0000   14.0000    0.0000 -999.0000 -999.0000  114.9723 
2918.5000 -999.0000   93.3910   54.3010  -23.4762 -999.0000   10.7077 -999.0000 -999.0000 -999.0000 -999.0000 -999.0000  119.2189    0.0000    0.0000 -999.0000    0.0000    0.0000   14.0000    0.0000 -999.0000 -999.0000  114.9776 
2919.0000 -999.0000   94.0650   55.6570  -23.5185 -999.0000   10.6309 -999.0000 -999.0000 -999.0000 -999.0000 -999.0000  119.3162    0.0000    0.0000 -999.0000    0.0000    0.0000   14.0000    0.0000 -999.0000 -999.0000  114.9829 
2919.5000 -999.0000   95.1750   56.9900  -23.5618 -999.0000   10.5070 -999.0000 -999.0000 -999.0000 -999.0000 -999.0000  119.9063    0.0000    0.0000 -999.0000    0.0000    0.0000   14.0000    0.0000 -999.0000 -999.0000  114.9883 
