~VERSION INFORMATION
 VERS.                 2.0:   CWLS LOG ASCII STANDARD - VERSION 2.0
 WRAP.                  NO:   SINGLE LINE PER DEPTH STEP
 CREA.                 16/2/2017 12:26:34 p. m.
#CREATED USING IP VERSION 4.2.2015.61 BY PANESSOR ON 16/2/2017 12:26:34 p. m.
~WELL INFORMATION
#MNEM.UNIT       DATA                          DESCRIPTION MNEMONIC
#---------      ---------------------------   --------------------------
 STRT    .FT        2850.0000                 : START DEPTH
 STOP    .FT        5750.0000                 : STOP DEPTH
 STEP    .FT        0.5000                    : STEP VALUE
 NULL    .      -999.0000                     : NULL VALUE
 DATE    .      16/2/2017                     : LAS file Creation Date
 WELL  .      AGUACHICA-2                                   : Well Name
 COMP  .      INTERNATIONAL PETROLEUM COMPANY COLOMBIA LTDA : Company
 FLD   .      WILDCAT                                       : Field
 STATE .      CESAR                                         : State
 COUNT .      COLOMBIA                                      : Country
 API   .      AGUA0002                                      : API Number
 UWI   .      100000000367                                  : Unique Well Identifier (UWI)
 LOC   .      GAUSS ORIGIN BOGOTA                           : Location
 LATI  .      8.3363348055                                  : Latitude/Northing
 LONG  .      -73.7086179998                                : Longitude/Easting
 RWS   .      -999                                          : Def_Rw
 WST   .      -999                                          : Def_Rwt
 PROV  .                                                    : Province
 SRVC  .      SCH                                           : Contractor
~CURVE INFORMATION
#MNEM                 UNIT       API CODE     Description
#----------     --------------- ----------  --------------
 DEPTH         .FT                        : 
 CALI_IR       .IN                        : Caliper
 RD_IR         .OHMM                      : Formation Resitivity AM64"
 RM_IR         .OHMM                      : Resistivity AM16"
 SPC_IR        .MV                        : Spontaneous Potential
 BS_IR         .inch                      : Bit Size
 COND_IR       .mmohs                     : Conductivity
 PHIE_IR       .Dec                       : Effective Porosity
 SW_IR         .Dec                       : Water Saturation
 BVW_IR        .Dec                       : Bulk Volume water (Phie x SW)
 VWCL_IR       .Dec                       : Volume wet Clay
 VSILT_IR      .Dec                       : Volume Silt
 LATds_IR      .OHMM                      : Lateral AO18'8" Depth Shift
 ResFlag_IR    .                          : Net Reservoir
 PayFlag_IR    .                          : Net Pay
 K_PHI_IR      .                          : K/PHI RATIO
 Perm_IR       .md                        : Calculated Permeability
 ResFlagRT_IR  .                          : Net Reservoir Rock Type
 MUD_WEIGHT_IR .PPG                       : MUD_WEIGHT
 PayFlagRT_IR  .                          : Pay Flag Rock Type
 Rock_Type_IR  .microns                   : Pore Throat Size - Rock Types
 BADHOLE_IR    .FLAG                      : Bad Hole Indicator
 Temp_IR       .F                         : Formation Temperature
~P Interactive Petrophysics parameters
#Name        Value                 Description
#----- --------------------------  -----------
#Logging Run 
 RUN  .     1            : Run Number
 DATE .     13-MAR-1953  : Date                      | RUN[0]
 DFT  .     /            : Type of Fluid in Hole     | RUN[1]
~A  DEPTH  CALI_IR    RD_IR     RM_IR     SPC_IR    BS_IR    COND_IR   PHIE_IR    SW_IR     BVW_IR   VWCL_IR   VSILT_IR  LATds_IR ResFlag_~ PayFlag_~  K_PHI_IR  Perm_IR  ResFlagR~ MUD_WEIG~ PayFlagR~ Rock_Typ~ BADHOLE_~  Temp_IR  
# ...
3095.0000 -999.0000   41.8580   38.4140  -15.0778 -999.0000   23.8903    0.0014    1.0000    0.0014    0.8685    0.1220   34.2409    0.0000    0.0000    0.0000    0.0000    0.0000   14.0000    0.0000    0.0000 -999.0000  116.8511 
3095.5000 -999.0000   41.3580   38.0400  -15.0033 -999.0000   24.1791    0.0013    1.0000    0.0013    0.8709    0.1202   35.1480    0.0000    0.0000    0.0000    0.0000    0.0000   14.0000    0.0000    0.0000 -999.0000  116.8564 
3096.0000 -999.0000   40.8290   37.3610  -14.9288 -999.0000   24.4924    0.0013    1.0000    0.0013    0.8733    0.1183   36.3848    0.0000    0.0000    0.0000    0.0000    0.0000   14.0000    0.0000    0.0000 -999.0000  116.8617 
3096.5000 -999.0000   40.4310   36.4140  -14.8553 -999.0000   24.7335    0.0012    1.0000    0.0012    0.8756    0.1164   37.9003    0.0000    0.0000    0.0000    0.0000    0.0000   14.0000    0.0000    0.0000 -999.0000  116.8670 
3097.0000 -999.0000   40.0980   35.7610  -14.7808 -999.0000   24.9389    0.0011    1.0000    0.0011    0.8780    0.1145   39.4159    0.0000    0.0000    0.0000    0.0000    0.0000   14.0000    0.0000    0.0000 -999.0000  116.8723 
3097.5000 -999.0000   39.8290   35.3730  -14.7063 -999.0000   25.1073    0.0011    1.0000    0.0011    0.8804    0.1125   40.9317    0.0000    0.0000    0.0000    0.0000    0.0000   14.0000    0.0000    0.0000 -999.0000  116.8776 
3098.0000 -999.0000   39.6270   35.2720  -14.6318 -999.0000   25.2353    0.0010    1.0000    0.0010    0.8828    0.1105   42.4478    0.0000    0.0000    0.0000    0.0000    0.0000   14.0000    0.0000    0.0000 -999.0000  116.8829 
3098.5000 -999.0000   39.4250   35.3570  -14.6203 -999.0000   25.3646    0.0010    1.0000    0.0010    0.8832    0.1102   43.9632    0.0000    0.0000    0.0000    0.0000    0.0000   14.0000    0.0000    0.0000 -999.0000  116.8882 
3099.0000 -999.0000   39.2240   35.4400  -14.7448 -999.0000   25.4946    0.0011    1.0000    0.0011    0.8792    0.1135   45.4420    0.0000    0.0000    0.0000    0.0000    0.0000   14.0000    0.0000    0.0000 -999.0000  116.8935 
3099.5000 -999.0000   38.8500   35.3020  -15.0092 -999.0000   25.7400    0.0014    1.0000    0.0014    0.8707    0.1203   46.6927    0.0000    0.0000    0.0000    0.0000    0.0000   14.0000    0.0000    0.0000 -999.0000  116.8988 
3100.0000 -999.0000   38.4800   35.0700  -15.4317 -999.0000   25.9875    0.0019    1.0000    0.0019    0.8570    0.1305   47.4766    0.0000    0.0000    0.0000    0.0000    0.0000   14.0000    0.0000    0.0000 -999.0000  116.9041 
3100.5000 -999.0000   38.3240   34.7650  -15.8552 -999.0000   26.0933    0.0026    1.0000    0.0026    0.8434    0.1396   48.2610    0.0000    0.0000    0.0000    0.0000    0.0000   14.0000    0.0000    0.0001 -999.0000  116.9094 
3101.0000 -999.0000   38.0300   34.7170  -16.2547 -999.0000   26.2950    0.0034    1.0000    0.0034    0.8305    0.1470   48.8016    0.0000    0.0000    0.0000    0.0000    0.0000   14.0000    0.0000    0.0001 -999.0000  116.9147 
3101.5000 -999.0000   37.4930   35.0210  -16.4162 -999.0000   26.6716    0.0038    1.0000    0.0038    0.8253    0.1496   49.0844    0.0000    0.0000    0.0000    0.0000    0.0000   14.0000    0.0000    0.0001 -999.0000  116.9200 
3102.0000 -999.0000   36.9010   35.1250  -16.5777 -999.0000   27.0995    0.0042    1.0000    0.0042    0.8201    0.1519   49.1367    0.0000    0.0000    0.0000    0.0000    0.0000   14.0000    0.0000    0.0002 -999.0000  116.9254 
3102.5000 -999.0000   36.2590   34.8850  -16.7382 -999.0000   27.5794    0.0047    1.0000    0.0047    0.8149    0.1540   49.1889    0.0000    0.0000    0.0000    0.0000    0.0000   14.0000    0.0000    0.0002 -999.0000  116.9307 
3103.0000 -999.0000   35.5850   34.1110  -16.7777 -999.0000   28.1017    0.0048    1.0000    0.0048    0.8136    0.1545   49.1949    0.0000    0.0000    0.0000    0.0000    0.0000   14.0000    0.0000    0.0002 -999.0000  116.9360 
3103.5000 -999.0000   34.7260   33.2730  -16.6662 -999.0000   28.7969    0.0044    1.0000    0.0044    0.8172    0.1531   49.1061    0.0000    0.0000    0.0000    0.0000    0.0000   14.0000    0.0000    0.0002 -999.0000  116.9413 
3104.0000 -999.0000   34.4420   32.4340  -16.2447 -999.0000   29.0343    0.0034    1.0000    0.0034    0.8308    0.1468   48.7461    0.0000    0.0000    0.0000    0.0000    0.0000   14.0000    0.0000    0.0001 -999.0000  116.9466 
3104.5000 -999.0000   34.1020   31.5960  -15.8232 -999.0000   29.3238    0.0025    1.0000    0.0025    0.8444    0.1389   48.3660    0.0000    0.0000    0.0000    0.0000    0.0000   14.0000    0.0000    0.0001 -999.0000  116.9519 
3105.0000 -999.0000   34.0590   30.3600  -15.4017 -999.0000   29.3608    0.0018    1.0000    0.0018    0.8580    0.1298   47.9858    0.0000    0.0000    0.0000    0.0000    0.0000   14.0000    0.0000    0.0000 -999.0000  116.9572 
3105.5000 -999.0000   34.3920   29.0920  -14.9802 -999.0000   29.0765    0.0013    1.0000    0.0013    0.8716    0.1196   47.6057    0.0000    0.0000    0.0000    0.0000    0.0000   14.0000    0.0000    0.0000 -999.0000  116.9625 
3106.0000 -999.0000   34.9430   27.8270  -14.5587 -999.0000   28.6180    0.0009    1.0000    0.0009    0.8852    0.1086   47.1366    0.0000    0.0000    0.0000    0.0000    0.0000   14.0000    0.0000    0.0000 -999.0000  116.9678 
3106.5000 -999.0000   35.9670   26.7300  -14.1371 -999.0000   27.8033    0.0007    1.0000    0.0007    0.8988    0.0969   46.6171    0.0000    0.0000    0.0000    0.0000    0.0000   14.0000    0.0000    0.0000 -999.0000  116.9731 
3107.0000 -999.0000   36.9920   26.8400  -13.7426 -999.0000   27.0329    0.0005    1.0000    0.0005    0.9115    0.0855   46.0609    0.0000    0.0000    0.0000    0.0000    0.0000   14.0000    0.0000    0.0000 -999.0000  116.9784 
3107.5000 -999.0000   37.9220   28.0140  -13.7361 -999.0000   26.3699    0.0004    1.0000    0.0004    0.9117    0.0853   45.5042    0.0000    0.0000    0.0000    0.0000    0.0000   14.0000    0.0000    0.0000 -999.0000  116.9837 
3108.0000 -999.0000   38.2160   30.1820  -13.7296 -999.0000   26.1671    0.0004    1.0000    0.0004    0.9119    0.0851   44.9305    0.0000    0.0000    0.0000    0.0000    0.0000   14.0000    0.0000    0.0000 -999.0000  116.9890 
3108.5000 -999.0000   37.9200   33.1120  -13.7411 -999.0000   26.3713    0.0005    1.0000    0.0005    0.9116    0.0854   44.3287    0.0000    0.0000    0.0000    0.0000    0.0000   14.0000    0.0000    0.0000 -999.0000  116.9943 
3109.0000 -999.0000   37.3320   36.0410  -14.0076 -999.0000   26.7867    0.0006    1.0000    0.0006    0.9030    0.0932   43.6487    0.0000    0.0000    0.0000    0.0000    0.0000   14.0000    0.0000    0.0000 -999.0000  116.9996 
3109.5000 -999.0000   36.7790   38.4080  -14.4881 -999.0000   27.1894    0.0009    1.0000    0.0009    0.8875    0.1066   42.9692    0.0000    0.0000    0.0000    0.0000    0.0000   14.0000    0.0000    0.0000 -999.0000  117.0050 
3110.0000 -999.0000   36.5500   39.5670  -14.9686 -999.0000   27.3598    0.0013    1.0000    0.0013    0.8720    0.1193   42.2100    0.0000    0.0000    0.0000    0.0000    0.0000   14.0000    0.0000    0.0000 -999.0000  117.0103 
3110.5000 -999.0000   36.6100   39.8310  -15.2911 -999.0000   27.3149    0.0017    1.0000    0.0017    0.8616    0.1272   41.4259    0.0000    0.0000    0.0000    0.0000    0.0000   14.0000    0.0000    0.0000 -999.0000  117.0156 
3111.0000 -999.0000   37.6030   39.4930  -15.5166 -999.0000   26.5936    0.0020    1.0000    0.0020    0.8543    0.1324   41.0410    0.0000    0.0000    0.0000    0.0000    0.0000   14.0000    0.0000    0.0000 -999.0000  117.0209 
3111.5000 -999.0000   38.6790   38.3110  -15.6201 -999.0000   25.8538    0.0022    1.0000    0.0022    0.8510    0.1347   41.0410    0.0000    0.0000    0.0000    0.0000    0.0000   14.0000    0.0000    0.0000 -999.0000  117.0262 
3112.0000 -999.0000   39.1420   37.0330  -15.6136 -999.0000   25.5480    0.0021    1.0000    0.0021    0.8512    0.1345   41.0410    0.0000    0.0000    0.0000    0.0000    0.0000   14.0000    0.0000    0.0000 -999.0000  117.0315 
