~VERSION INFORMATION
 VERS.                 2.0:   CWLS LOG ASCII STANDARD - VERSION 2.0
 WRAP.                  NO:   SINGLE LINE PER DEPTH STEP
 CREA.                 16/2/2017 12:26:34 p. m.
#CREATED USING IP VERSION 4.2.2015.61 BY PANESSOR ON 16/2/2017 12:26:34 p. m.
~WELL INFORMATION
#MNEM.UNIT       DATA                          DESCRIPTION MNEMONIC
#---------      ---------------------------   --------------------------
 STRT    .FT        2850.0000                 : START DEPTH
 STOP    .FT        5750.0000                 : STOP DEPTH
 STEP    .FT        0.5000                    : STEP VALUE
 NULL    .      -999.0000                     : NULL VALUE
 DATE    .      16/2/2017                     : LAS file Creation Date
 WELL  .      AGUACHICA-2                                   : Well Name
 COMP  .      INTERNATIONAL PETROLEUM COMPANY COLOMBIA LTDA : Company
 FLD   .      WILDCAT                                       : Field
 STATE .      CESAR                                         : State
 COUNT .      COLOMBIA                                      : Country
 API   .      AGUA0002                                      : API Number
 UWI   .      100000000367                                  : Unique Well Identifier (UWI)
 LOC   .      GAUSS ORIGIN BOGOTA                           : Location
 LATI  .      8.3363348055                                  : Latitude/Northing
 LONG  .      -73.7086179998                                : Longitude/Easting
 RWS   .      -999                                          : Def_Rw
 WST   .      -999                                          : Def_Rwt
 PROV  .                                                    : Province
 SRVC  .      SCH                                           : Contractor
~CURVE INFORMATION
#MNEM                 UNIT       API CODE     Description
#----------     --------------- ----------  --------------
 DEPTH         .FT                        : 
 CALI_IR       .IN                        : Caliper
 RD_IR         .OHMM                      : Formation Resitivity AM64"
 RM_IR         .OHMM                      : Resistivity AM16"
 SPC_IR        .MV                        : Spontaneous Potential
 BS_IR         .inch                      : Bit Size
 COND_IR       .mmohs                     : Conductivity
 PHIE_IR       .Dec                       : Effective Porosity
 SW_IR         .Dec                       : Water Saturation
 BVW_IR        .Dec                       : Bulk Volume water (Phie x SW)
 VWCL_IR       .Dec                       : Volume wet Clay
 VSILT_IR      .Dec                       : Volume Silt
 LATds_IR      .OHMM                      : Lateral AO18'8" Depth Shift
 ResFlag_IR    .                          : Net Reservoir
 PayFlag_IR    .                          : Net Pay
 K_PHI_IR      .                          : K/PHI RATIO
 Perm_IR       .md                        : Calculated Permeability
 ResFlagRT_IR  .                          : Net Reservoir Rock Type
 MUD_WEIGHT_IR .PPG                       : MUD_WEIGHT
 PayFlagRT_IR  .                          : Pay Flag Rock Type
 Rock_Type_IR  .microns                   : Pore Throat Size - Rock Types
 BADHOLE_IR    .FLAG                      : Bad Hole Indicator
 Temp_IR       .F                         : Formation Temperature
~P Interactive Petrophysics parameters
#Name        Value                 Description
#----- --------------------------  -----------
#Logging Run 
 RUN  .     1            : Run Number
 DATE .     13-MAR-1953  : Date                      | RUN[0]
 DFT  .     /            : Type of Fluid in Hole     | RUN[1]
~A  DEPTH  CALI_IR    RD_IR     RM_IR     SPC_IR    BS_IR    COND_IR   PHIE_IR    SW_IR     BVW_IR   VWCL_IR   VSILT_IR  LATds_IR ResFlag_~ PayFlag_~  K_PHI_IR  Perm_IR  ResFlagR~ MUD_WEIG~ PayFlagR~ Rock_Typ~ BADHOLE_~  Temp_IR  
# ...
4792.5000 -999.0000    4.9650    6.2360  -12.9144 -999.0000  201.4099    0.0003    1.0000    0.0003    0.9468    0.0520    6.0713    0.0000    0.0000    0.0000    0.0000    0.0000   14.0000    0.0000    0.0000 -999.0000  134.8687 
4793.0000 -999.0000    4.8760    6.1050  -12.8704 -999.0000  205.0861    0.0003    1.0000    0.0003    0.9480    0.0508    5.7989    0.0000    0.0000    0.0000    0.0000    0.0000   14.0000    0.0000    0.0000 -999.0000  134.8740 
4793.5000 -999.0000    4.7860    5.9390  -12.7114 -999.0000  208.9428    0.0003    1.0000    0.0003    0.9525    0.0466    5.5687    0.0000    0.0000    0.0000    0.0000    0.0000   14.0000    0.0000    0.0000 -999.0000  134.8793 
4794.0000 -999.0000    4.6860    5.8180  -12.5044 -999.0000  213.4016    0.0002    1.0000    0.0002    0.9582    0.0411    5.4437    0.0000    0.0000    0.0000    0.0000    0.0000   14.0000    0.0000    0.0000 -999.0000  134.8846 
4794.5000 -999.0000    4.5750    5.7010  -12.2984 -999.0000  218.5792    0.0002    1.0000    0.0002    0.9639    0.0355    5.3309    0.0000    0.0000    0.0000    0.0000    0.0000   14.0000    0.0000    0.0000 -999.0000  134.8899 
4795.0000 -999.0000    4.4630    5.6480  -12.0914 -999.0000  224.0645    0.0001    1.0000    0.0001    0.9697    0.0299    5.2086    0.0000    0.0000    0.0000    0.0000    0.0000   14.0000    0.0000    0.0000 -999.0000  134.8952 
4795.5000 -999.0000    4.3670    5.5950  -11.8854 -999.0000  228.9901    0.0001    1.0000    0.0001    0.9754    0.0243    5.1284    0.0000    0.0000    0.0000    0.0000    0.0000   14.0000    0.0000    0.0000 -999.0000  134.9006 
4796.0000 -999.0000    4.2720    5.5410  -11.7534 -999.0000  234.0824    0.0001    1.0000    0.0001    0.9791    0.0206    5.0681    0.0000    0.0000    0.0000    0.0000    0.0000   14.0000    0.0000    0.0000 -999.0000  134.9059 
4796.5000 -999.0000    4.1770    5.4880  -11.7174 -999.0000  239.4063    0.0001    1.0000    0.0001    0.9801    0.0196    5.0480    0.0000    0.0000    0.0000    0.0000    0.0000   14.0000    0.0000    0.0000 -999.0000  134.9112 
4797.0000 -999.0000    4.0910    5.4390  -11.6804 -999.0000  244.4390    0.0001    1.0000    0.0001    0.9811    0.0186    5.0480    0.0000    0.0000    0.0000    0.0000    0.0000   14.0000    0.0000    0.0000 -999.0000  134.9165 
4797.5000 -999.0000    4.0220    5.4250  -11.6484 -999.0000  248.6325    0.0001    1.0000    0.0001    0.9820    0.0177    5.0423    0.0000    0.0000    0.0000    0.0000    0.0000   14.0000    0.0000    0.0000 -999.0000  134.9218 
4798.0000 -999.0000    3.9760    5.3930  -11.7154 -999.0000  251.5090    0.0001    1.0000    0.0001    0.9801    0.0195    4.9755    0.0000    0.0000    0.0000    0.0000    0.0000   14.0000    0.0000    0.0000 -999.0000  134.9271 
4798.5000 -999.0000    3.9600    5.3440  -12.1984 -999.0000  252.5253    0.0001    1.0000    0.0001    0.9667    0.0328    4.8519    0.0000    0.0000    0.0000    0.0000    0.0000   14.0000    0.0000    0.0000 -999.0000  134.9324 
4799.0000 -999.0000    3.9450    5.4050  -12.4214 -999.0000  253.4854    0.0002    1.0000    0.0002    0.9605    0.0388    4.6860    0.0000    0.0000    0.0000    0.0000    0.0000   14.0000    0.0000    0.0000 -999.0000  134.9377 
4799.5000 -999.0000    3.9450    5.4990  -12.4964 -999.0000  253.4854    0.0002    1.0000    0.0002    0.9584    0.0408    4.5788    0.0000    0.0000    0.0000    0.0000    0.0000   14.0000    0.0000    0.0000 -999.0000  134.9430 
4800.0000 -999.0000    3.9850    5.5250  -12.5714 -999.0000  250.9410    0.0002    1.0000    0.0002    0.9564    0.0429    4.5043    0.0000    0.0000    0.0000    0.0000    0.0000   14.0000    0.0000    0.0000 -999.0000  134.9483 
4800.5000 -999.0000    4.0280    5.4770  -12.5744 -999.0000  248.2622    0.0002    1.0000    0.0002    0.9563    0.0429    4.3986    0.0000    0.0000    0.0000    0.0000    0.0000   14.0000    0.0000    0.0000 -999.0000  134.9536 
4801.0000 -999.0000    4.0910    5.3860  -12.4704 -999.0000  244.4390    0.0002    1.0000    0.0002    0.9592    0.0401    4.2335    0.0000    0.0000    0.0000    0.0000    0.0000   14.0000    0.0000    0.0000 -999.0000  134.9589 
4801.5000 -999.0000    4.1340    5.2960  -12.3354 -999.0000  241.8965    0.0002    1.0000    0.0002    0.9629    0.0365    4.0320    0.0000    0.0000    0.0000    0.0000    0.0000   14.0000    0.0000    0.0000 -999.0000  134.9642 
4802.0000 -999.0000    4.1590    5.2960  -11.8954 -999.0000  240.4424    0.0001    1.0000    0.0001    0.9751    0.0245    3.8371    0.0000    0.0000    0.0000    0.0000    0.0000   14.0000    0.0000    0.0000 -999.0000  134.9695 
4802.5000 -999.0000    4.1350    5.2960  -11.6104 -999.0000  241.8380    0.0001    1.0000    0.0001    0.9830    0.0166    3.7440    0.0000    0.0000    0.0000    0.0000    0.0000   14.0000    0.0000    0.0000 -999.0000  134.9749 
4803.0000 -999.0000    4.1110    5.2960  -11.5234 -999.0000  243.2498    0.0001    1.0000    0.0001    0.9855    0.0142    3.7141    0.0000    0.0000    0.0000    0.0000    0.0000   14.0000    0.0000    0.0000 -999.0000  134.9802 
4803.5000 -999.0000    4.0870    5.2960  -11.4364 -999.0000  244.6783    0.0001    1.0000    0.0001    0.9879    0.0118    3.7007    0.0000    0.0000    0.0000    0.0000    0.0000   14.0000    0.0000    0.0000 -999.0000  134.9855 
4804.0000 -999.0000    4.0650    5.2960  -11.3494 -999.0000  246.0025    0.0001    1.0000    0.0001    0.9903    0.0094    3.7280    0.0000    0.0000    0.0000    0.0000    0.0000   14.0000    0.0000    0.0000 -999.0000  134.9908 
4804.5000 -999.0000    4.0600    5.3230  -11.3304 -999.0000  246.3054    0.0001    1.0000    0.0001    0.9908    0.0088    3.7553    0.0000    0.0000    0.0000    0.0000    0.0000   14.0000    0.0000    0.0000 -999.0000  134.9961 
4805.0000 -999.0000    4.0550    5.3600  -11.5024 -999.0000  246.6091    0.0001    1.0000    0.0001    0.9860    0.0136    3.7856    0.0000    0.0000    0.0000    0.0000    0.0000   14.0000    0.0000    0.0000 -999.0000  135.0014 
4805.5000 -999.0000    4.0500    5.3760  -11.6744 -999.0000  246.9136    0.0001    1.0000    0.0001    0.9813    0.0184    3.8197    0.0000    0.0000    0.0000    0.0000    0.0000   14.0000    0.0000    0.0000 -999.0000  135.0067 
4806.0000 -999.0000    4.0450    5.2470  -11.8454 -999.0000  247.2188    0.0001    1.0000    0.0001    0.9765    0.0231    3.8703    0.0000    0.0000    0.0000    0.0000    0.0000   14.0000    0.0000    0.0000 -999.0000  135.0120 
4806.5000 -999.0000    4.0340    5.2570  -12.0174 -999.0000  247.8929    0.0001    1.0000    0.0001    0.9717    0.0279    3.9232    0.0000    0.0000    0.0000    0.0000    0.0000   14.0000    0.0000    0.0000 -999.0000  135.0173 
4807.0000 -999.0000    4.0090    5.2990  -12.1884 -999.0000  249.4388    0.0001    1.0000    0.0001    0.9670    0.0325    3.9768    0.0000    0.0000    0.0000    0.0000    0.0000   14.0000    0.0000    0.0000 -999.0000  135.0226 
4807.5000 -999.0000    3.9830    5.3010  -12.3604 -999.0000  251.0670    0.0002    1.0000    0.0002    0.9622    0.0372    4.0407    0.0000    0.0000    0.0000    0.0000    0.0000   14.0000    0.0000    0.0000 -999.0000  135.0279 
4808.0000 -999.0000    4.0010    5.2650  -12.5314 -999.0000  249.9375    0.0002    1.0000    0.0002    0.9575    0.0418    4.1360    0.0000    0.0000    0.0000    0.0000    0.0000   14.0000    0.0000    0.0000 -999.0000  135.0332 
4808.5000 -999.0000    4.0770    5.2290  -12.7034 -999.0000  245.2784    0.0003    1.0000    0.0003    0.9527    0.0464    4.3073    0.0000    0.0000    0.0000    0.0000    0.0000   14.0000    0.0000    0.0000 -999.0000  135.0385 
4809.0000 -999.0000    4.1530    5.1940  -12.7124 -999.0000  240.7898    0.0003    1.0000    0.0003    0.9524    0.0466    4.4180    0.0000    0.0000    0.0000    0.0000    0.0000   14.0000    0.0000    0.0000 -999.0000  135.0439 
4809.5000 -999.0000    4.2390    5.2360  -12.6804 -999.0000  235.9047    0.0003    1.0000    0.0003    0.9533    0.0458    4.4832    0.0000    0.0000    0.0000    0.0000    0.0000   14.0000    0.0000    0.0000 -999.0000  135.0492 
