~VERSION INFORMATION
 VERS.                 2.0:   CWLS LOG ASCII STANDARD - VERSION 2.0
 WRAP.                  NO:   SINGLE LINE PER DEPTH STEP
 CREA.                 16/2/2017 12:26:34 p. m.
#CREATED USING IP VERSION 4.2.2015.61 BY PANESSOR ON 16/2/2017 12:26:34 p. m.
~WELL INFORMATION
#MNEM.UNIT       DATA                          DESCRIPTION MNEMONIC
#---------      ---------------------------   --------------------------
 STRT    .FT        2850.0000                 : START DEPTH
 STOP    .FT        5750.0000                 : STOP DEPTH
 STEP    .FT        0.5000                    : STEP VALUE
 NULL    .      -999.0000                     : NULL VALUE
 DATE    .      16/2/2017                     : LAS file Creation Date
 WELL  .      AGUACHICA-2                                   : Well Name
 COMP  .      INTERNATIONAL PETROLEUM COMPANY COLOMBIA LTDA : Company
 FLD   .      WILDCAT                                       : Field
 STATE .      CESAR                                         : State
 COUNT .      COLOMBIA                                      : Country
 API   .      AGUA0002                                      : API Number
 UWI   .      100000000367                                  : Unique Well Identifier (UWI)
 LOC   .      GAUSS ORIGIN BOGOTA                           : Location
 LATI  .      8.3363348055                                  : Latitude/Northing
 LONG  .      -73.7086179998                                : Longitude/Easting
 RWS   .      -999                                          : Def_Rw
 WST   .      -999                                          : Def_Rwt
 PROV  .                                                    : Province
 SRVC  .      SCH                                           : Contractor
~CURVE INFORMATION
#MNEM                 UNIT       API CODE     Description
#----------     --------------- ----------  --------------
 DEPTH         .FT                        : 
 CALI_IR       .IN                        : Caliper
 RD_IR         .OHMM                      : Formation Resitivity AM64"
 RM_IR         .OHMM                      : Resistivity AM16"
 SPC_IR        .MV                        : Spontaneous Potential
 BS_IR         .inch                      : Bit Size
 COND_IR       .mmohs                     : Conductivity
 PHIE_IR       .Dec                       : Effective Porosity
 SW_IR         .Dec                       : Water Saturation
 BVW_IR        .Dec                       : Bulk Volume water (Phie x SW)
 VWCL_IR       .Dec                       : Volume wet Clay
 VSILT_IR      .Dec                       : Volume Silt
 LATds_IR      .OHMM                      : Lateral AO18'8" Depth Shift
 ResFlag_IR    .                          : Net Reservoir
 PayFlag_IR    .                          : Net Pay
 K_PHI_IR      .                          : K/PHI RATIO
 Perm_IR       .md                        : Calculated Permeability
 ResFlagRT_IR  .                          : Net Reservoir Rock Type
 MUD_WEIGHT_IR .PPG                       : MUD_WEIGHT
 PayFlagRT_IR  .                          : Pay Flag Rock Type
 Rock_Type_IR  .microns                   : Pore Throat Size - Rock Types
 BADHOLE_IR    .FLAG                      : Bad Hole Indicator
 Temp_IR       .F                         : Formation Temperature
~P Interactive Petrophysics parameters
#Name        Value                 Description
#----- --------------------------  -----------
#Logging Run 
 RUN  .     1            : Run Number
 DATE .     13-MAR-1953  : Date                      | RUN[0]
 DFT  .     /            : Type of Fluid in Hole     | RUN[1]
~A  DEPTH  CALI_IR    RD_IR     RM_IR     SPC_IR    BS_IR    COND_IR   PHIE_IR    SW_IR     BVW_IR   VWCL_IR   VSILT_IR  LATds_IR ResFlag_~ PayFlag_~  K_PHI_IR  Perm_IR  ResFlagR~ MUD_WEIG~ PayFlagR~ Rock_Typ~ BADHOLE_~  Temp_IR  
# ...
3287.5000 -999.0000    4.5460    7.6480  -12.7919 -999.0000  219.9736    0.0002    1.0000    0.0002    0.9422    0.0567   10.3128    0.0000    0.0000    0.0000    0.0000    0.0000   14.0000    0.0000    0.0000 -999.0000  118.8943 
3288.0000 -999.0000    6.5860    7.6000  -11.6132 -999.0000  151.8372    0.0001    1.0000    0.0001    0.9802    0.0191   15.3393    0.0000    0.0000    0.0000    0.0000    0.0000   14.0000    0.0000    0.0000 -999.0000  118.8996 
3288.5000 -999.0000    9.3020    7.7440  -11.5496 -999.0000  107.5038    0.0001    1.0000    0.0001    0.9823    0.0171   17.5031    0.0000    0.0000    0.0000    0.0000    0.0000   14.0000    0.0000    0.0000 -999.0000  118.9049 
3289.0000 -999.0000   11.5780    8.4180  -12.5150 -999.0000   86.3707    0.0001    1.0000    0.0001    0.9511    0.0481   18.0775    0.0000    0.0000    0.0000    0.0000    0.0000   14.0000    0.0000    0.0000 -999.0000  118.9102 
3289.5000 -999.0000   13.0700    9.3600  -13.4604 -999.0000   76.5111    0.0003    1.0000    0.0003    0.9206    0.0771   17.4773    0.0000    0.0000    0.0000    0.0000    0.0000   14.0000    0.0000    0.0000 -999.0000  118.9155 
3290.0000 -999.0000   12.6330   10.3020  -14.4058 -999.0000   79.1578    0.0008    1.0000    0.0008    0.8901    0.1044   17.2992    0.0000    0.0000    0.0000    0.0000    0.0000   14.0000    0.0000    0.0000 -999.0000  118.9208 
3290.5000 -999.0000   12.0050   11.2440  -15.1922 -999.0000   83.2986    0.0016    1.0000    0.0016    0.8648    0.1248   17.3824    0.0000    0.0000    0.0000    0.0000    0.0000   14.0000    0.0000    0.0000 -999.0000  118.9261 
3291.0000 -999.0000   11.6060   12.1860  -15.8196 -999.0000   86.1623    0.0025    1.0000    0.0025    0.8445    0.1389   14.4773    0.0000    0.0000    0.0000    0.0000    0.0000   14.0000    0.0000    0.0001 -999.0000  118.9314 
3291.5000 -999.0000   11.4180   13.1480  -15.9740 -999.0000   87.5810    0.0028    1.0000    0.0028    0.8395    0.1419   13.1506    0.0000    0.0000    0.0000    0.0000    0.0000   14.0000    0.0000    0.0001 -999.0000  118.9368 
3292.0000 -999.0000   11.2090   13.3630  -15.9343 -999.0000   89.2140    0.0027    1.0000    0.0027    0.8408    0.1411   12.5748    0.0000    0.0000    0.0000    0.0000    0.0000   14.0000    0.0000    0.0001 -999.0000  118.9421 
3292.5000 -999.0000   11.0000   13.4620  -15.8947 -999.0000   90.9091    0.0026    1.0000    0.0026    0.8421    0.1404   12.1678    0.0000    0.0000    0.0000    0.0000    0.0000   14.0000    0.0000    0.0001 -999.0000  118.9474 
3293.0000 -999.0000   11.3030   13.2720  -15.8551 -999.0000   88.4721    0.0026    1.0000    0.0026    0.8434    0.1396   11.9850    0.0000    0.0000    0.0000    0.0000    0.0000   14.0000    0.0000    0.0001 -999.0000  118.9527 
3293.5000 -999.0000   11.6690   13.1570  -15.8155 -999.0000   85.6972    0.0025    1.0000    0.0025    0.8447    0.1388   11.9850    0.0000    0.0000    0.0000    0.0000    0.0000   14.0000    0.0000    0.0001 -999.0000  118.9580 
3294.0000 -999.0000   12.0350   13.0020  -15.7759 -999.0000   83.0910    0.0024    1.0000    0.0024    0.8459    0.1380   12.3209    0.0000    0.0000    0.0000    0.0000    0.0000   14.0000    0.0000    0.0001 -999.0000  118.9633 
3294.5000 -999.0000   12.4000   12.8480  -16.0073 -999.0000   80.6452    0.0028    1.0000    0.0028    0.8385    0.1425   12.7126    0.0000    0.0000    0.0000    0.0000    0.0000   14.0000    0.0000    0.0001 -999.0000  118.9686 
3295.0000 -999.0000   12.4250   12.6930  -16.5677 -999.0000   80.4829    0.0042    1.0000    0.0042    0.8204    0.1518   13.1871    0.0000    0.0000    0.0000    0.0000    0.0000   14.0000    0.0000    0.0002 -999.0000  118.9739 
3295.5000 -999.0000   12.4150   12.5390  -16.8380 -999.0000   80.5477    0.0050    1.0000    0.0050    0.8117    0.1552   13.7057    0.0000    0.0000    0.0000    0.0000    0.0000   14.0000    0.0000    0.0003 -999.0000  118.9792 
3296.0000 -999.0000   12.3950   12.3850  -16.9844 -999.0000   80.6777    0.0055    1.0000    0.0055    0.8070    0.1567   13.7774    0.0000    0.0000    0.0000    0.0000    0.0000   14.0000    0.0000    0.0003 -999.0000  118.9845 
3296.5000 -999.0000   12.3750   12.2300  -16.8028 -999.0000   80.8081    0.0049    1.0000    0.0049    0.8128    0.1548   13.8490    0.0000    0.0000    0.0000    0.0000    0.0000   14.0000    0.0000    0.0003 -999.0000  118.9898 
3297.0000 -999.0000   12.3550   12.0760  -16.6202 -999.0000   80.9389    0.0043    1.0000    0.0043    0.8187    0.1525   13.9201    0.0000    0.0000    0.0000    0.0000    0.0000   14.0000    0.0000    0.0002 -999.0000  118.9951 
3297.5000 -999.0000   12.3350   11.9210  -16.3436 -999.0000   81.0701    0.0036    1.0000    0.0036    0.8276    0.1484   13.9913    0.0000    0.0000    0.0000    0.0000    0.0000   14.0000    0.0000    0.0001 -999.0000  119.0004 
3298.0000 -999.0000   12.3150   11.7670  -15.6750 -999.0000   81.2018    0.0022    1.0000    0.0022    0.8492    0.1358   14.0630    0.0000    0.0000    0.0000    0.0000    0.0000   14.0000    0.0000    0.0000 -999.0000  119.0057 
3298.5000 -999.0000   12.2950   11.8460  -15.0074 -999.0000   81.3339    0.0014    1.0000    0.0014    0.8707    0.1203   14.1347    0.0000    0.0000    0.0000    0.0000    0.0000   14.0000    0.0000    0.0000 -999.0000  119.0110 
3299.0000 -999.0000   12.2760   11.8460  -14.3388 -999.0000   81.4598    0.0008    1.0000    0.0008    0.8923    0.1025   14.0982    0.0000    0.0000    0.0000    0.0000    0.0000   14.0000    0.0000    0.0000 -999.0000  119.0164 
3299.5000 -999.0000   12.2560   12.0870  -13.6711 -999.0000   81.5927    0.0004    1.0000    0.0004    0.9138    0.0834   14.0227    0.0000    0.0000    0.0000    0.0000    0.0000   14.0000    0.0000    0.0000 -999.0000  119.0217 
3300.0000 -999.0000   12.2360   12.2320  -13.2575 -999.0000   81.7261    0.0003    1.0000    0.0003    0.9272    0.0710   13.9333    0.0000    0.0000    0.0000    0.0000    0.0000   14.0000    0.0000    0.0000 -999.0000  119.0270 
3300.5000 -999.0000   12.2160   12.5210  -13.0799 -999.0000   81.8599    0.0002    1.0000    0.0002    0.9329    0.0656   13.8437    0.0000    0.0000    0.0000    0.0000    0.0000   14.0000    0.0000    0.0000 -999.0000  119.0323 
3301.0000 -999.0000   12.1960   12.6620  -13.3263 -999.0000   81.9941    0.0003    1.0000    0.0003    0.9250    0.0731   13.7536    0.0000    0.0000    0.0000    0.0000    0.0000   14.0000    0.0000    0.0000 -999.0000  119.0376 
3301.5000 -999.0000   12.1830   12.8340  -13.9187 -999.0000   82.0816    0.0005    1.0000    0.0005    0.9058    0.0906   13.6641    0.0000    0.0000    0.0000    0.0000    0.0000   14.0000    0.0000    0.0000 -999.0000  119.0429 
3302.0000 -999.0000   12.1830   13.0110  -14.4801 -999.0000   82.0816    0.0009    1.0000    0.0009    0.8877    0.1064   13.5748    0.0000    0.0000    0.0000    0.0000    0.0000   14.0000    0.0000    0.0000 -999.0000  119.0482 
3302.5000 -999.0000   12.1830   13.1920  -14.6805 -999.0000   82.0816    0.0010    1.0000    0.0010    0.8813    0.1118   13.5239    0.0000    0.0000    0.0000    0.0000    0.0000   14.0000    0.0000    0.0000 -999.0000  119.0535 
3303.0000 -999.0000   12.1830   13.3310  -14.8819 -999.0000   82.0816    0.0012    1.0000    0.0012    0.8748    0.1171   13.5984    0.0000    0.0000    0.0000    0.0000    0.0000   14.0000    0.0000    0.0000 -999.0000  119.0588 
3303.5000 -999.0000   12.2070   13.3120  -14.9582 -999.0000   81.9202    0.0013    1.0000    0.0013    0.8723    0.1190   13.9335    0.0000    0.0000    0.0000    0.0000    0.0000   14.0000    0.0000    0.0000 -999.0000  119.0641 
3304.0000 -999.0000   12.2840   13.0670  -14.8676 -999.0000   81.4067    0.0012    1.0000    0.0012    0.8752    0.1167   14.2684    0.0000    0.0000    0.0000    0.0000    0.0000   14.0000    0.0000    0.0000 -999.0000  119.0694 
3304.5000 -999.0000   12.3610   12.8110  -14.7140 -999.0000   80.8996    0.0011    1.0000    0.0011    0.8802    0.1127   14.6034    0.0000    0.0000    0.0000    0.0000    0.0000   14.0000    0.0000    0.0000 -999.0000  119.0747 
