~VERSION INFORMATION
 VERS.                 2.0:   CWLS LOG ASCII STANDARD - VERSION 2.0
 WRAP.                  NO:   SINGLE LINE PER DEPTH STEP
 CREA.                 16/2/2017 12:26:34 p. m.
#CREATED USING IP VERSION 4.2.2015.61 BY PANESSOR ON 16/2/2017 12:26:34 p. m.
~WELL INFORMATION
#MNEM.UNIT       DATA                          DESCRIPTION MNEMONIC
#---------      ---------------------------   --------------------------
 STRT    .FT        2850.0000                 : START DEPTH
 STOP    .FT        5750.0000                 : STOP DEPTH
 STEP    .FT        0.5000                    : STEP VALUE
 NULL    .      -999.0000                     : NULL VALUE
 DATE    .      16/2/2017                     : LAS file Creation Date
 WELL  .      AGUACHICA-2                                   : Well Name
 COMP  .      INTERNATIONAL PETROLEUM COMPANY COLOMBIA LTDA : Company
 FLD   .      WILDCAT                                       : Field
 STATE .      CESAR                                         : State
 COUNT .      COLOMBIA                                      : Country
 API   .      AGUA0002                                      : API Number
 UWI   .      100000000367                                  : Unique Well Identifier (UWI)
 LOC   .      GAUSS ORIGIN BOGOTA                           : Location
 LATI  .      8.3363348055                                  : Latitude/Northing
 LONG  .      -73.7086179998                                : Longitude/Easting
 RWS   .      -999                                          : Def_Rw
 WST   .      -999                                          : Def_Rwt
 PROV  .                                                    : Province
 SRVC  .      SCH                                           : Contractor
~CURVE INFORMATION
#MNEM                 UNIT       API CODE     Description
#----------     --------------- ----------  --------------
 DEPTH         .FT                        : 
 CALI_IR       .IN                        : Caliper
 RD_IR         .OHMM                      : Formation Resitivity AM64"
 RM_IR         .OHMM                      : Resistivity AM16"
 SPC_IR        .MV                        : Spontaneous Potential
 BS_IR         .inch                      : Bit Size
 COND_IR       .mmohs                     : Conductivity
 PHIE_IR       .Dec                       : Effective Porosity
 SW_IR         .Dec                       : Water Saturation
 BVW_IR        .Dec                       : Bulk Volume water (Phie x SW)
 VWCL_IR       .Dec                       : Volume wet Clay
 VSILT_IR      .Dec                       : Volume Silt
 LATds_IR      .OHMM                      : Lateral AO18'8" Depth Shift
 ResFlag_IR    .                          : Net Reservoir
 PayFlag_IR    .                          : Net Pay
 K_PHI_IR      .                          : K/PHI RATIO
 Perm_IR       .md                        : Calculated Permeability
 ResFlagRT_IR  .                          : Net Reservoir Rock Type
 MUD_WEIGHT_IR .PPG                       : MUD_WEIGHT
 PayFlagRT_IR  .                          : Pay Flag Rock Type
 Rock_Type_IR  .microns                   : Pore Throat Size - Rock Types
 BADHOLE_IR    .FLAG                      : Bad Hole Indicator
 Temp_IR       .F                         : Formation Temperature
~P Interactive Petrophysics parameters
#Name        Value                 Description
#----- --------------------------  -----------
#Logging Run 
 RUN  .     1            : Run Number
 DATE .     13-MAR-1953  : Date                      | RUN[0]
 DFT  .     /            : Type of Fluid in Hole     | RUN[1]
~A  DEPTH  CALI_IR    RD_IR     RM_IR     SPC_IR    BS_IR    COND_IR   PHIE_IR    SW_IR     BVW_IR   VWCL_IR   VSILT_IR  LATds_IR ResFlag_~ PayFlag_~  K_PHI_IR  Perm_IR  ResFlagR~ MUD_WEIG~ PayFlagR~ Rock_Typ~ BADHOLE_~  Temp_IR  
# ...
3655.0000 -999.0000   93.4920   56.6950  -19.8456 -999.0000   10.6961    0.0250    1.0000    0.0250    0.7147    0.1187  118.2357    0.0000    0.0000    0.0082    0.0002    0.0000   14.0000    0.0000    0.0092 -999.0000  122.7950 
3655.5000 -999.0000   95.2890   58.9140  -19.8718 -999.0000   10.4944    0.0253    1.0000    0.0253    0.7138    0.1176  122.6649    0.0000    0.0000    0.0085    0.0002    0.0000   14.0000    0.0000    0.0094 -999.0000  122.8003 
3656.0000 -999.0000   97.1050   61.7640  -19.8951 -999.0000   10.2981    0.0255    1.0000    0.0255    0.7131    0.1166  125.8756    0.0000    0.0000    0.0089    0.0002    0.0000   14.0000    0.0000    0.0096 -999.0000  122.8056 
3656.5000 -999.0000   99.9590   66.3560  -20.0573 -999.0000   10.0041    0.0274    1.0000    0.0274    0.7078    0.1096  126.1229    0.0000    0.0000    0.0116    0.0003    0.0000   14.0000    0.0000    0.0112 -999.0000  122.8109 
3657.0000 -999.0000  102.8440   72.2150  -20.5316 -999.0000    9.7235    0.0332    1.0000    0.0332    0.6925    0.0861  124.8874    0.0000    0.0000    0.0240    0.0008    0.0000   14.0000    0.0000    0.0171 -999.0000  122.8163 
3657.5000 -999.0000  107.7720   78.0750  -21.0059 -999.0000    9.2788    0.0369    1.0000    0.0369    0.6772    0.0765  122.8470    0.0000    0.0000    0.0360    0.0013    0.0000   14.0000    0.0000    0.0215 -999.0000  122.8216 
3658.0000 -999.0000  113.6210   85.4100  -21.4811 -999.0000    8.8012    0.0387    1.0000    0.0387    0.6619    0.0801  121.0575    0.0000    0.0000    0.0430    0.0017    0.0000   14.0000    0.0000    0.0238 -999.0000  122.8269 
3658.5000 -999.0000  120.5760   94.1570  -21.9554 -999.0000    8.2935    0.0405    1.0000    0.0405    0.6466    0.0837  120.7311    0.0000    0.0000    0.0509    0.0021    0.0000   14.0000    0.0000    0.0263 -999.0000  122.8322 
3659.0000 -999.0000  128.9190  102.0550  -22.2406 -999.0000    7.7568    0.0415    1.0000    0.0415    0.6374    0.0859  123.7915    0.0000    0.0000    0.0561    0.0023    0.0000   14.0000    0.0000    0.0278 -999.0000  122.8375 
3659.5000 -999.0000  138.9560  109.5200  -22.5069 -999.0000    7.1965    0.0425    1.0000    0.0425    0.6288    0.0879  127.7893    0.0000    0.0000    0.0613    0.0026    0.0000   14.0000    0.0000    0.0293 -999.0000  122.8428 
3660.0000 -999.0000  154.0460  116.9850  -22.9292 -999.0000    6.4916    0.0440    1.0000    0.0440    0.6152    0.0912  133.6220    0.0000    0.0000    0.0703    0.0031    0.0000   14.0000    0.0000    0.0317 -999.0000  122.8481 
3660.5000 -999.0000  166.8710  122.5690  -23.6004 -999.0000    5.9927    0.0465    1.0000    0.0465    0.5935    0.0963  140.0511    0.0000    0.0000    0.0865    0.0040    0.0000   14.0000    0.0000    0.0357 -999.0000  122.8534 
3661.0000 -999.0000  179.5370  127.4280  -24.4187 -999.0000    5.5699    0.0495    1.0000    0.0495    0.5671    0.1026  146.4790    0.0000    0.0000    0.1099    0.0054    0.0000   14.0000    0.0000    0.0410 -999.0000  122.8587 
3661.5000 -999.0000  192.4610  131.8460  -25.6019 -999.0000    5.1959    0.0539    0.8997    0.0485    0.5290    0.1116  152.9057    0.0000    0.0000    0.1684    0.0091    0.0000   14.0000    0.0000    0.0523 -999.0000  122.8640 
3662.0000 -999.0000  206.3030  134.3550  -26.7852 -999.0000    4.8472    0.0583    0.8039    0.0469    0.4908    0.1206  157.9129    0.0000    0.0000    0.2535    0.0148    0.0000   14.0000    0.0000    0.0661 -999.0000  122.8693 
3662.5000 -999.0000  213.5100  134.9970  -28.0025 -999.0000    4.6836    0.0628    0.7336    0.0461    0.4515    0.1299  160.4219    0.0000    0.0000    0.3683    0.0231    0.0000   14.0000    0.0000    0.0819 -999.0000  122.8746 
3663.0000 -999.0000  213.5100  133.6550  -28.6657 -999.0000    4.6836    0.0652    0.7060    0.0461    0.4301    0.1350  160.4805    0.0000    0.0000    0.4426    0.0289    0.0000   14.0000    0.0000    0.0910 -999.0000  122.8799 
3663.5000 -999.0000  213.5100  130.1120  -29.1530 -999.0000    4.6836    0.0670    0.6871    0.0461    0.4144    0.1387  158.2015    0.0000    0.0000    0.5044    0.0338    0.0000   14.0000    0.0000    0.0981 -999.0000  122.8852 
3664.0000 -999.0000  212.7860  124.6630  -29.3752 -999.0000    4.6996    0.0678    0.6799    0.0461    0.4073    0.1404  154.9482    0.0000    0.0000    0.5338    0.0362    0.0000   14.0000    0.0000    0.1014 -999.0000  122.8905 
3664.5000 -999.0000  208.6850  118.9380  -29.3485 -999.0000    4.7919    0.0677    0.6875    0.0466    0.4081    0.1402  151.8522    0.0000    0.0000    0.5250    0.0356    0.0000   14.0000    0.0000    0.1004 -999.0000  122.8959 
3665.0000 -999.0000  208.6850  113.2140  -28.8338 -999.0000    4.7919    0.0658    0.7074    0.0466    0.4247    0.1363  150.2769    0.0000    0.0000    0.4580    0.0302    0.0000   14.0000    0.0000    0.0928 -999.0000  122.9012 
3665.5000 -999.0000  199.9500  107.9710  -27.9830 -999.0000    5.0013    0.0627    0.7588    0.0476    0.4522    0.1298  150.4055    0.0000    0.0000    0.3545    0.0222    0.0000   14.0000    0.0000    0.0802 -999.0000  122.9065 
3666.0000 -999.0000  186.3390  105.1310  -27.1333 -999.0000    5.3666    0.0596    0.8274    0.0493    0.4796    0.1233  150.3097    0.0000    0.0000    0.2675    0.0159    0.0000   14.0000    0.0000    0.0682 -999.0000  122.9118 
3666.5000 -999.0000  179.1310  103.5590  -26.2835 -999.0000    5.5825    0.0564    0.8908    0.0503    0.5070    0.1168  148.1022    0.0000    0.0000    0.2023    0.0114    0.0000   14.0000    0.0000    0.0581 -999.0000  122.9171 
3667.0000 -999.0000  170.4460  102.7820  -25.6258 -999.0000    5.8670    0.0540    0.9543    0.0515    0.5282    0.1118  144.3088    0.0000    0.0000    0.1598    0.0086    0.0000   14.0000    0.0000    0.0508 -999.0000  122.9224 
3667.5000 -999.0000  163.8120  102.2030  -25.2241 -999.0000    6.1046    0.0525    1.0000    0.0525    0.5412    0.1087  140.4461    0.0000    0.0000    0.1372    0.0072    0.0000   14.0000    0.0000    0.0465 -999.0000  122.9277 
3668.0000 -999.0000  159.1730  100.4440  -24.9433 -999.0000    6.2825    0.0515    1.0000    0.0515    0.5502    0.1066  137.4875    0.0000    0.0000    0.1272    0.0065    0.0000   14.0000    0.0000    0.0445 -999.0000  122.9330 
3668.5000 -999.0000  157.0050   98.6160  -24.5636 -999.0000    6.3692    0.0501    1.0000    0.0501    0.5625    0.1037  135.7735    0.0000    0.0000    0.1145    0.0057    0.0000   14.0000    0.0000    0.0419 -999.0000  122.9383 
3669.0000 -999.0000  157.2380   95.4680  -23.9048 -999.0000    6.3598    0.0476    1.0000    0.0476    0.5837    0.0986  137.6626    0.0000    0.0000    0.0948    0.0045    0.0000   14.0000    0.0000    0.0376 -999.0000  122.9436 
3669.5000 -999.0000  158.3230   92.5010  -23.2451 -999.0000    6.3162    0.0452    1.0000    0.0452    0.6050    0.0936  146.6539    0.0000    0.0000    0.0776    0.0035    0.0000   14.0000    0.0000    0.0335 -999.0000  122.9489 
3670.0000 -999.0000  159.3880   91.4990  -22.5863 -999.0000    6.2740    0.0428    1.0000    0.0428    0.6262    0.0886  159.0586    0.0000    0.0000    0.0629    0.0027    0.0000   14.0000    0.0000    0.0297 -999.0000  122.9542 
3670.5000 -999.0000  160.0480   91.5150  -21.9266 -999.0000    6.2481    0.0403    1.0000    0.0403    0.6475    0.0835  168.2558    0.0000    0.0000    0.0503    0.0020    0.0000   14.0000    0.0000    0.0261 -999.0000  122.9595 
3671.0000 -999.0000  159.1070   92.5210  -21.3679 -999.0000    6.2851    0.0383    1.0000    0.0383    0.6656    0.0792  175.2101    0.0000    0.0000    0.0412    0.0016    0.0000   14.0000    0.0000    0.0233 -999.0000  122.9649 
3671.5000 -999.0000  155.7060   94.8800  -21.0101 -999.0000    6.4224    0.0370    1.0000    0.0370    0.6771    0.0765  180.7494    0.0000    0.0000    0.0361    0.0013    0.0000   14.0000    0.0000    0.0216 -999.0000  122.9702 
3672.0000 -999.0000  152.4510   97.2130  -20.6904 -999.0000    6.5595    0.0353    1.0000    0.0353    0.6874    0.0773  186.4409    0.0000    0.0000    0.0303    0.0011    0.0000   14.0000    0.0000    0.0195 -999.0000  122.9755 
