~VERSION INFORMATION
 VERS.                 2.0:   CWLS LOG ASCII STANDARD - VERSION 2.0
 WRAP.                  NO:   SINGLE LINE PER DEPTH STEP
 CREA.                 16/2/2017 12:26:34 p. m.
#CREATED USING IP VERSION 4.2.2015.61 BY PANESSOR ON 16/2/2017 12:26:34 p. m.
~WELL INFORMATION
#MNEM.UNIT       DATA                          DESCRIPTION MNEMONIC
#---------      ---------------------------   --------------------------
 STRT    .FT        2850.0000                 : START DEPTH
 STOP    .FT        5750.0000                 : STOP DEPTH
 STEP    .FT        0.5000                    : STEP VALUE
 NULL    .      -999.0000                     : NULL VALUE
 DATE    .      16/2/2017                     : LAS file Creation Date
 WELL  .      AGUACHICA-2                                   : Well Name
 COMP  .      INTERNATIONAL PETROLEUM COMPANY COLOMBIA LTDA : Company
 FLD   .      WILDCAT                                       : Field
 STATE .      CESAR                                         : State
 COUNT .      COLOMBIA                                      : Country
 API   .      AGUA0002                                      : API Number
 UWI   .      100000000367                                  : Unique Well Identifier (UWI)
 LOC   .      GAUSS ORIGIN BOGOTA                           : Location
 LATI  .      8.3363348055                                  : Latitude/Northing
 LONG  .      -73.7086179998                                : Longitude/Easting
 RWS   .      -999                                          : Def_Rw
 WST   .      -999                                          : Def_Rwt
 PROV  .                                                    : Province
 SRVC  .      SCH                                           : Contractor
~CURVE INFORMATION
#MNEM                 UNIT       API CODE     Description
#----------     --------------- ----------  --------------
 DEPTH         .FT                        : 
 CALI_IR       .IN                        : Caliper
 RD_IR         .OHMM                      : Formation Resitivity AM64"
 RM_IR         .OHMM                      : Resistivity AM16"
 SPC_IR        .MV                        : Spontaneous Potential
 BS_IR         .inch                      : Bit Size
 COND_IR       .mmohs                     : Conductivity
 PHIE_IR       .Dec                       : Effective Porosity
 SW_IR         .Dec                       : Water Saturation
 BVW_IR        .Dec                       : Bulk Volume water (Phie x SW)
 VWCL_IR       .Dec                       : Volume wet Clay
 VSILT_IR      .Dec                       : Volume Silt
 LATds_IR      .OHMM                      : Lateral AO18'8" Depth Shift
 ResFlag_IR    .                          : Net Reservoir
 PayFlag_IR    .                          : Net Pay
 K_PHI_IR      .                          : K/PHI RATIO
 Perm_IR       .md                        : Calculated Permeability
 ResFlagRT_IR  .                          : Net Reservoir Rock Type
 MUD_WEIGHT_IR .PPG                       : MUD_WEIGHT
 PayFlagRT_IR  .                          : Pay Flag Rock Type
 Rock_Type_IR  .microns                   : Pore Throat Size - Rock Types
 BADHOLE_IR    .FLAG                      : Bad Hole Indicator
 Temp_IR       .F                         : Formation Temperature
~P Interactive Petrophysics parameters
#Name        Value                 Description
#----- --------------------------  -----------
#Logging Run 
 RUN  .     1            : Run Number
 DATE .     13-MAR-1953  : Date                      | RUN[0]
 DFT  .     /            : Type of Fluid in Hole     | RUN[1]
~A  DEPTH  CALI_IR    RD_IR     RM_IR     SPC_IR    BS_IR    COND_IR   PHIE_IR    SW_IR     BVW_IR   VWCL_IR   VSILT_IR  LATds_IR ResFlag_~ PayFlag_~  K_PHI_IR  Perm_IR  ResFlagR~ MUD_WEIG~ PayFlagR~ Rock_Typ~ BADHOLE_~  Temp_IR  
# ...
4040.0000 -999.0000  124.4400   81.3020  -18.8861 -999.0000    8.0360    0.0159    1.0000    0.0159    0.7456    0.1481   70.8488    0.0000    0.0000    0.0015    0.0000    0.0000   14.0000    0.0000    0.0069 -999.0000  126.8815 
4040.5000 -999.0000  121.7160   78.7800  -18.1336 -999.0000    8.2158    0.0107    1.0000    0.0107    0.7699    0.1586   68.2818    0.0000    0.0000    0.0003    0.0000    0.0000   14.0000    0.0000    0.0032 -999.0000  126.8868 
4041.0000 -999.0000  118.4800   77.0520  -17.3800 -999.0000    8.4402    0.0070    1.0000    0.0070    0.7942    0.1594   66.7768    0.0000    0.0000    0.0001    0.0000    0.0000   14.0000    0.0000    0.0014 -999.0000  126.8921 
4041.5000 -999.0000  115.1020   75.8020  -16.7844 -999.0000    8.6879    0.0048    1.0000    0.0048    0.8134    0.1546   65.5132    0.0000    0.0000    0.0000    0.0000    0.0000   14.0000    0.0000    0.0007 -999.0000  126.8974 
4042.0000 -999.0000  110.8100   74.5520  -16.7298 -999.0000    9.0245    0.0046    1.0000    0.0046    0.8152    0.1539   64.3470    0.0000    0.0000    0.0000    0.0000    0.0000   14.0000    0.0000    0.0006 -999.0000  126.9027 
4042.5000 -999.0000  105.6690   72.7990  -16.9432 -999.0000    9.4635    0.0053    1.0000    0.0053    0.8083    0.1563   62.9357    0.0000    0.0000    0.0000    0.0000    0.0000   14.0000    0.0000    0.0008 -999.0000  126.9080 
4043.0000 -999.0000   98.4820   70.5670  -17.1566 -999.0000   10.1541    0.0061    1.0000    0.0061    0.8014    0.1581   61.4414    0.0000    0.0000    0.0000    0.0000    0.0000   14.0000    0.0000    0.0010 -999.0000  126.9133 
4043.5000 -999.0000   90.7370   68.3350  -17.3690 -999.0000   11.0209    0.0069    1.0000    0.0069    0.7945    0.1594   60.2830    0.0000    0.0000    0.0001    0.0000    0.0000   14.0000    0.0000    0.0013 -999.0000  126.9187 
4044.0000 -999.0000   83.5170   65.8360  -17.3914 -999.0000   11.9736    0.0070    1.0000    0.0070    0.7938    0.1595   59.2180    0.0000    0.0000    0.0001    0.0000    0.0000   14.0000    0.0000    0.0014 -999.0000  126.9240 
4044.5000 -999.0000   76.9450   62.2710  -17.3158 -999.0000   12.9963    0.0067    1.0000    0.0067    0.7963    0.1591   58.1911    0.0000    0.0000    0.0001    0.0000    0.0000   14.0000    0.0000    0.0013 -999.0000  126.9293 
4045.0000 -999.0000   71.2550   57.9010  -16.8972 -999.0000   14.0341    0.0052    1.0000    0.0052    0.8098    0.1558   57.1727    0.0000    0.0000    0.0000    0.0000    0.0000   14.0000    0.0000    0.0008 -999.0000  126.9346 
4045.5000 -999.0000   66.2500   53.5310  -16.3916 -999.0000   15.0943    0.0037    1.0000    0.0037    0.8261    0.1492   56.7497    0.0000    0.0000    0.0000    0.0000    0.0000   14.0000    0.0000    0.0004 -999.0000  126.9399 
4046.0000 -999.0000   63.3810   49.1610  -15.7750 -999.0000   15.7776    0.0024    1.0000    0.0024    0.8460    0.1379   56.4302    0.0000    0.0000    0.0000    0.0000    0.0000   14.0000    0.0000    0.0002 -999.0000  126.9452 
4046.5000 -999.0000   61.5880   44.7900  -15.1585 -999.0000   16.2369    0.0015    1.0000    0.0015    0.8659    0.1240   57.1088    0.0000    0.0000    0.0000    0.0000    0.0000   14.0000    0.0000    0.0001 -999.0000  126.9505 
4047.0000 -999.0000   61.2920   40.7170  -14.1059 -999.0000   16.3153    0.0006    1.0000    0.0006    0.8998    0.0960   57.9150    0.0000    0.0000    0.0000    0.0000    0.0000   14.0000    0.0000    0.0000 -999.0000  126.9558 
4047.5000 -999.0000   61.1680   39.0940  -12.8523 -999.0000   16.3484    0.0002    1.0000    0.0002    0.9402    0.0586   59.3471    0.0000    0.0000    0.0000    0.0000    0.0000   14.0000    0.0000    0.0000 -999.0000  126.9611 
4048.0000 -999.0000   61.4510   38.8220  -11.9877 -999.0000   16.2731    0.0001    1.0000    0.0001    0.9681    0.0312   60.8322    0.0000    0.0000    0.0000    0.0000    0.0000   14.0000    0.0000    0.0000 -999.0000  126.9664 
4048.5000 -999.0000   61.5580   39.7100  -11.4131 -999.0000   16.2448    0.0001    1.0000    0.0001    0.9867    0.0127   65.4266    0.0000    0.0000    0.0000    0.0000    0.0000   14.0000    0.0000    0.0000 -999.0000  126.9717 
4049.0000 -999.0000   61.5370   41.4120  -10.9085 -999.0000   16.2504    0.0001    1.0000    0.0001    1.0000    0.0000   70.1607    0.0000    0.0000    0.0000    0.0000    0.0000   14.0000    0.0000    0.0000 -999.0000  126.9770 
4049.5000 -999.0000   62.1750   44.9310  -10.7969 -999.0000   16.0836    0.0001    1.0000    0.0001    1.0000    0.0000   75.4323    0.0000    0.0000    0.0000    0.0000    0.0000   14.0000    0.0000    0.0000 -999.0000  126.9823 
4050.0000 -999.0000   63.8240   48.4500  -11.2294 -999.0000   15.6681    0.0001    1.0000    0.0001    0.9968    0.0025   80.7083    0.0000    0.0000    0.0000    0.0000    0.0000   14.0000    0.0000    0.0000 -999.0000  126.9876 
4050.5000 -999.0000   67.0400   52.3110  -11.7172 -999.0000   14.9165    0.0001    1.0000    0.0001    0.9900    0.0093   85.9844    0.0000    0.0000    0.0000    0.0000    0.0000   14.0000    0.0000    0.0000 -999.0000  126.9930 
4051.0000 -999.0000   70.9780   56.6730  -12.2040 -999.0000   14.0889    0.0001    1.0000    0.0001    0.9833    0.0161   91.2604    0.0000    0.0000    0.0000    0.0000    0.0000   14.0000    0.0000    0.0000 -999.0000  126.9983 
4051.5000 -999.0000   77.6410   60.9170  -12.9728 -999.0000   12.8798    0.0001    1.0000    0.0001    0.9726    0.0267   96.5365    0.0000    0.0000    0.0000    0.0000    0.0000   14.0000    0.0000    0.0000 -999.0000  127.0036 
4052.0000 -999.0000   84.8120   68.3210  -13.9676 -999.0000   11.7908    0.0001    1.0000    0.0001    0.9588    0.0405  101.8126    0.0000    0.0000    0.0000    0.0000    0.0000   14.0000    0.0000    0.0000 -999.0000  127.0089 
4052.5000 -999.0000   92.4930   76.9000  -14.8334 -999.0000   10.8116    0.0001    1.0000    0.0001    0.9468    0.0523  106.9746    0.0000    0.0000    0.0000    0.0000    0.0000   14.0000    0.0000    0.0000 -999.0000  127.0142 
4053.0000 -999.0000  100.5790   86.3110  -15.6702 -999.0000    9.9424    0.0002    1.0000    0.0002    0.9351    0.0634  112.1348    0.0000    0.0000    0.0000    0.0000    0.0000   14.0000    0.0000    0.0000 -999.0000  127.0195 
4053.5000 -999.0000  109.0590   95.7230  -16.5080 -999.0000    9.1693    0.0003    1.0000    0.0003    0.9235    0.0744  116.3074    0.0000    0.0000    0.0000    0.0000    0.0000   14.0000    0.0000    0.0000 -999.0000  127.0248 
4054.0000 -999.0000  117.9370  105.1350  -17.5088 -999.0000    8.4791    0.0005    1.0000    0.0005    0.9096    0.0872  120.4618    0.0000    0.0000    0.0000    0.0000    0.0000   14.0000    0.0000    0.0000 -999.0000  127.0301 
4054.5000 -999.0000  129.0050  114.5460  -18.6426 -999.0000    7.7516    0.0007    1.0000    0.0007    0.8939    0.1012  124.5287    0.0000    0.0000    0.0000    0.0000    0.0000   14.0000    0.0000    0.0000 -999.0000  127.0354 
4055.0000 -999.0000  141.5720  121.4160  -19.7764 -999.0000    7.0635    0.0011    1.0000    0.0011    0.8781    0.1144  128.5937    0.0000    0.0000    0.0000    0.0000    0.0000   14.0000    0.0000    0.0000 -999.0000  127.0407 
4055.5000 -999.0000  153.8000  126.4550  -20.9102 -999.0000    6.5020    0.0017    1.0000    0.0017    0.8624    0.1266  132.6587    0.0000    0.0000    0.0000    0.0000    0.0000   14.0000    0.0000    0.0001 -999.0000  127.0460 
4056.0000 -999.0000  171.2790  129.4130  -22.0440 -999.0000    5.8384    0.0024    1.0000    0.0024    0.8466    0.1375  136.7238    0.0000    0.0000    0.0000    0.0000    0.0000   14.0000    0.0000    0.0002 -999.0000  127.0513 
4056.5000 -999.0000  187.4320  131.0990  -23.1778 -999.0000    5.3353    0.0034    1.0000    0.0034    0.8309    0.1468  140.6457    0.0000    0.0000    0.0000    0.0000    0.0000   14.0000    0.0000    0.0003 -999.0000  127.0566 
4057.0000 -999.0000  206.2730  130.8810  -24.0516 -999.0000    4.8479    0.0043    1.0000    0.0043    0.8187    0.1525  144.5639    0.0000    0.0000    0.0000    0.0000    0.0000   14.0000    0.0000    0.0005 -999.0000  127.0620 
