~VERSION INFORMATION 
 VERS. 2.0: CWLS LOG ASCII STANDARD -VERSION 2.0 
 WRAP.  No: SINGLE LINE PER DEPTH STEP
~WELL INFORMATION BLOCK 
#MNEM.UNIT			     DATA			   DESCRIPTION OF MNEMONIC
#----------------------------------------------------------------------
 STRT.ft                  975.0                                             : Start Depth
 STOP.ft                  6243.9                                            : Stop  Depth
 STEP.ft                  0.3                                               : Step  Depth
 NULL.                    -999.25                                           : Null value
 COMP.                    Lewis Energy Colombia                             : Company Name
 WELL.                    Caramelo 5                                        : Well Name
 PATH.                                                                      : Path Name
 FLD.                     Caramelo                                          : Field Name
 LOC.                     Caramelo                                          : Location
 PROV.                    Unused                                            : Province
 SRVC.                    BAKER HUGHES INTEQ                                : Service Company Name
 Date.                    23/11/2017-22:12:37 E. South America Daylight Time: System Date
 UWI.                                                                       : Unique Well ID
 TIMEZONE.Hrs             -2                                                : Time zone difference from GMT 
~CURVE INFORMATION
#MNEM.UNIT                 CURVE INFORMATION
#
#----------------------------------------------------------------------
DEPTH.ft                                     :   0 Depth Hole
RPCHM.ohm.m                                  :   1 Resistivity Phase - Corrected - 2MHz
GRAFM.API                                    :   2 Gamma Ray - Apparent Filtered
GRIM.unitless                                :   3 Gamma Ray Data Point Indicator
RPCLM.ohm.m                                  :   4 Resistivity Phase - Corrected - 400kHz
RPHIM.unitless                               :   5 Resistivity Phase - Data Point Indicator - 2MHz
TCDM.degF                                    :   6 Downhole Temperature
ROP_AVG.ft/hr                                :   7 Rate of Penetration
TVD.ft                                       :   8 True Vertical Depth
#----------------------------------------------------------------------
~O
Disclaimer
Any opinion and / or recommendation expressed orally or written herein, has been prepared
carefully and may be used if the user so elects, however, no representative or warranty is
made by ourselves or our agents as to the correctness or completeness, and no liability is
assumed for any damages resulting from use of the same.  Baker Hughes's liabilities and obligations
shall be governed by Baker Hughes's Standard Terms and Conditions.
Creator
Export
#----------------------------------------------------------------------
#
	# Curve name cross reference:  XREF 'LAS Name' 'XTF Short Name' 'XTF Structured Name'
#
XREF DEPTH DEPTH DEPTH
XREF RPCHM RPCHM CRES.RPCHM
XREF GRAFM GRAFM FGAM.GRAFM
XREF GRIM GRIM GAM.GRIM
XREF RPCLM RPCLM CRES.RPCLM
XREF RPHIM RPHIM CRES.RPHIM
XREF TCDM TCDM GEN.TCDM
XREF ROP_AVG ROPAVG DRILLD.ROP_AVG
XREF TVD TVD DRILLD.TVD
~A
# ...
  4803.0              10.016          147.3              1                9.945            2            -999.25            149.5           4299.57 
  4803.3               9.994          146.7              1                9.916            3            -999.25            156.2           4299.69 
  4803.6               9.944          147.5              1                9.836            2            -999.25            162.9           4299.81 
  4803.9               9.894          146.1              1                9.756            1            -999.25            179.0           4300.04 
  4804.2               9.759          143.9              1                9.799            1            -999.25            190.8           4300.16 
  4804.5               9.734          144.9              1                9.777            1            -999.25            202.5           4300.28 
  4804.8               9.708          145.7              1                9.756            1            -999.25            194.5           4300.40 
  4805.1               9.693          145.6              1                9.727            1            -999.25            186.4           4300.52 
  4805.4               9.678          146.2              2                9.699            1            -999.25            187.4           4300.76 
  4805.7               9.628          143.8              2                9.670            1            -999.25            188.3           4300.88 
  4806.0               9.577          140.0              2                9.642            1            -999.25            189.3           4301.00 
  4806.3               9.563          141.1              1                9.580            1            -999.25            191.0           4301.12 
  4806.6               9.548          147.2              1                9.517            1            -999.25            192.8           4301.23 
  4806.9               9.508          149.8              1                9.559            1            -999.25            199.1           4301.47 
  4807.2               9.535          146.1              1                9.504            1            -999.25            203.4           4301.59 
  4807.5               9.561          145.2              1                9.449            1            -999.25            207.7           4301.71 
  4807.8               9.587          143.9              1                9.395            1            -999.25            202.0           4301.83 
  4808.1               9.523          142.9              1                9.382            1            -999.25            196.4           4301.95 
  4808.4               9.459          142.0              1                9.368            1            -999.25            205.7           4302.19 
  4808.7               9.484          141.3              1                9.322            2            -999.25            207.4           4302.31 
  4809.0               9.508          144.6              1                9.275            2            -999.25            209.2           4302.42 
  4809.3               9.445          148.0              1                9.308            1            -999.25            195.5           4302.54 
  4809.6               9.381          146.9              1                9.341            1            -999.25            181.8           4302.66 
  4809.9               9.249          145.1              1                9.256            1            -999.25            212.8           4302.90 
  4810.2               9.117          146.0              1                9.171            1            -999.25            220.2           4303.02 
  4810.5               8.913          146.5              1                9.089            1            -999.25            227.7           4303.14 
  4810.8               8.708          147.0              2                9.006            1            -999.25            223.5           4303.26 
  4811.1               8.622          147.3              2                8.920            1            -999.25            219.4           4303.38 
  4811.4               8.535          149.5              1                8.834            1            -999.25            234.3           4303.61 
  4811.7               8.423          150.2              1                8.752            1            -999.25            224.9           4303.73 
  4812.0               8.311          149.0              1                8.670            1            -999.25            215.4           4303.85 
  4812.3               8.005          148.0              1                8.578            1            -999.25            218.8           4303.97 
  4812.6               7.699          148.2              1                8.486            1            -999.25            222.1           4304.09 
  4812.9               7.420          149.6              1                8.396            1            -999.25            278.4           4304.33 
  4813.2               7.440          148.0              1                8.452            1            -999.25            272.0           4304.45 
  4813.5               7.400          146.0              1                8.497            1            -999.25            265.6           4304.57 
  4813.8               7.389          145.5              1                8.503            2              150.5            253.2           4304.69 
  4814.1               7.377          145.0              1                8.508            2            -999.25            240.9           4304.80 
  4814.4               7.322          145.2              1                8.497            2            -999.25            184.0           4305.04 
  4814.7               7.267          146.4              1                8.486            1            -999.25            191.1           4305.16 
  4815.0               7.212          150.9              1                8.474            1            -999.25            198.3           4305.28 
  4815.3               7.165          154.3              1                8.497            1            -999.25            185.8           4305.40 
  4815.6               7.118          153.1              1                8.520            1            -999.25            173.3           4305.52 
  4815.9               7.421          151.2              1                8.744            1            -999.25            165.5           4305.76 
  4816.2               7.724          147.8              1                8.969            1            -999.25            170.0           4305.88 
  4816.5               8.666          144.2              1                9.490            1            -999.25            174.6           4305.99 
  4816.8              12.213          136.7              2               11.882            1            -999.25            176.9           4306.11 
  4817.1              11.639          137.5              1               11.627            1            -999.25            179.3           4306.23 
  4817.4              11.859          137.3              1               11.807            1            -999.25            203.8           4306.47 
  4817.7              12.078          134.2              1               11.987            1            -999.25            198.0           4306.59 
  4818.0              12.551          131.3              1               12.069            1            -999.25            192.1           4306.71 
  4818.3              12.917          132.6              1               12.132            1            -999.25            157.9           4306.83 
  4818.6              13.284          137.9              1               12.195            1            -999.25            123.7           4306.95 
  4818.9              13.667          140.9              1               12.766            1            -999.25            124.2           4307.18 
  4819.2              13.645          138.9              1               12.801            1            -999.25             98.4           4307.30 
