~VERSION INFORMATION 
 VERS. 2.0: CWLS LOG ASCII STANDARD -VERSION 2.0 
 WRAP.  No: SINGLE LINE PER DEPTH STEP
~WELL INFORMATION BLOCK 
#MNEM.UNIT			     DATA			   DESCRIPTION OF MNEMONIC
#----------------------------------------------------------------------
 STRT.ft                  975.0                                             : Start Depth
 STOP.ft                  6243.9                                            : Stop  Depth
 STEP.ft                  0.3                                               : Step  Depth
 NULL.                    -999.25                                           : Null value
 COMP.                    Lewis Energy Colombia                             : Company Name
 WELL.                    Caramelo 5                                        : Well Name
 PATH.                                                                      : Path Name
 FLD.                     Caramelo                                          : Field Name
 LOC.                     Caramelo                                          : Location
 PROV.                    Unused                                            : Province
 SRVC.                    BAKER HUGHES INTEQ                                : Service Company Name
 Date.                    23/11/2017-22:12:37 E. South America Daylight Time: System Date
 UWI.                                                                       : Unique Well ID
 TIMEZONE.Hrs             -2                                                : Time zone difference from GMT 
~CURVE INFORMATION
#MNEM.UNIT                 CURVE INFORMATION
#
#----------------------------------------------------------------------
DEPTH.ft                                     :   0 Depth Hole
RPCHM.ohm.m                                  :   1 Resistivity Phase - Corrected - 2MHz
GRAFM.API                                    :   2 Gamma Ray - Apparent Filtered
GRIM.unitless                                :   3 Gamma Ray Data Point Indicator
RPCLM.ohm.m                                  :   4 Resistivity Phase - Corrected - 400kHz
RPHIM.unitless                               :   5 Resistivity Phase - Data Point Indicator - 2MHz
TCDM.degF                                    :   6 Downhole Temperature
ROP_AVG.ft/hr                                :   7 Rate of Penetration
TVD.ft                                       :   8 True Vertical Depth
#----------------------------------------------------------------------
~O
Disclaimer
Any opinion and / or recommendation expressed orally or written herein, has been prepared
carefully and may be used if the user so elects, however, no representative or warranty is
made by ourselves or our agents as to the correctness or completeness, and no liability is
assumed for any damages resulting from use of the same.  Baker Hughes's liabilities and obligations
shall be governed by Baker Hughes's Standard Terms and Conditions.
Creator
Export
#----------------------------------------------------------------------
#
	# Curve name cross reference:  XREF 'LAS Name' 'XTF Short Name' 'XTF Structured Name'
#
XREF DEPTH DEPTH DEPTH
XREF RPCHM RPCHM CRES.RPCHM
XREF GRAFM GRAFM FGAM.GRAFM
XREF GRIM GRIM GAM.GRIM
XREF RPCLM RPCLM CRES.RPCLM
XREF RPHIM RPHIM CRES.RPHIM
XREF TCDM TCDM GEN.TCDM
XREF ROP_AVG ROPAVG DRILLD.ROP_AVG
XREF TVD TVD DRILLD.TVD
~A
# ...
  5496.0              53.216          142.8              1               54.825            2              155.2            162.8           4635.90 
  5496.3              49.702          140.8              1               54.505            1              155.1            154.8           4636.03 
  5496.6              49.998          138.6              1               51.201            1              155.1            146.7           4636.15 
  5496.9              55.358          136.1              1               54.505            1              155.0            169.5           4636.40 
  5497.2              55.536          134.5              1               59.333            1              154.9            168.1           4636.52 
  5497.5              52.619          133.9              2               59.333            1              154.8            166.8           4636.65 
  5497.8              49.702          130.4              2               59.333            1              154.8             86.9           4636.77 
  5498.1              51.998          126.4              1               54.189            1              154.8              7.0           4636.90 
  5498.4              58.327          110.8              1               56.142            1              154.8             15.9           4637.15 
  5498.7              55.181           92.9              1               50.640            1              154.7             18.7           4637.27 
  5499.0              53.871           81.0              1               53.732            1              154.7             21.4           4637.40 
  5499.3              52.560           73.6              1               56.823            1              154.7             20.1           4637.52 
  5499.6              53.382           73.3              1               56.823            2              154.7             18.9           4637.65 
  5499.9              55.423           78.5              1               57.892            2              154.7             20.7           4637.90 
  5500.2              57.465           90.8              1               58.962            1              154.6             26.5           4638.02 
  5500.5              62.015          105.2              2               61.656            1              154.6             32.3           4638.15 
  5500.8              59.313          115.8              3               65.479            1              154.6             41.2           4638.27 
  5501.1              57.654          124.1              1               69.776            1              154.6             50.1           4638.39 
  5501.4              57.214          129.0              1               64.097            1              154.5             19.4           4638.64 
  5501.7              56.774          130.6              1               58.418            1              154.5             22.0           4638.77 
  5502.0              56.425          132.3              1               56.461            1              154.4             24.7           4638.89 
  5502.3              56.075          134.8              1               54.505            1              154.4             39.3           4639.02 
  5502.6              54.226          136.4              1               60.089            1              154.4             53.8           4639.14 
  5502.9              53.971          140.2              1               64.432            1              154.4              0.0           4639.39 
  5503.2              53.716          143.7              1               68.776            1              154.4             26.7           4639.52 
  5503.5              56.166          143.2              1               62.469            2              154.3             53.5           4639.64 
  5503.8              52.641          143.9              1               57.169            1              154.3             44.0           4639.76 
  5504.1              57.750          146.1              1               64.592            1              154.3             34.5           4639.89 
  5504.4              56.624          141.2              2               55.808            1              154.3             42.3           4640.14 
  5504.7              54.192          137.2              1               56.841            1              154.3             47.9           4640.26 
  5505.0              51.760          142.4              1               57.874            1              154.3             53.5           4640.39 
  5505.3              52.723          144.9              1               56.823            1              154.3             53.6           4640.51 
  5505.6              53.970          145.4              1               58.962            1              154.3             53.8           4640.64 
  5505.9              53.184          145.4              1               56.418            1              154.3             62.0           4640.89 
  5506.2              52.398          144.0              1               53.875            1              154.2             60.9           4641.01 
  5506.5              51.213          146.3              1               61.257            1              154.2             59.8           4641.13 
  5506.8              53.885          145.9              1               62.883            1              154.2             59.7           4641.26 
  5507.1              55.804          141.8              1               64.156            2              154.2             59.6           4641.38 
  5507.4              51.058          145.6              1               53.565            1              154.2             64.2           4641.63 
  5507.7              50.791          145.0              1               56.263            1              154.2             64.4           4641.76 
  5508.0              50.523          146.5              1               58.962            1              154.2             64.7           4641.88 
  5508.3              52.546          146.9              2               59.912            1              154.2             67.7           4642.01 
  5508.6              54.570          145.5              1               60.863            1              154.2             70.6           4642.13 
  5508.9              51.524          146.8              1               57.519            1              154.2             80.4           4642.38 
  5509.2              56.166          146.1              1               64.592            1              154.2             75.5           4642.50 
  5509.5              52.886          148.7              1               65.479            1              154.2             70.5           4642.63 
  5509.8              53.428          150.1              1               64.818            1              154.2             65.5           4642.75 
  5510.1              53.970          151.0              1               64.156            1              154.2             60.4           4642.88 
  5510.4              52.641          151.5              1               57.874            1              154.2             55.9           4643.13 
  5510.7              56.624          149.0              1               56.823            1              154.2             56.2           4643.25 
  5511.0              50.904          152.9              1               58.232            2              154.2             56.6           4643.38 
  5511.3              51.681          156.5              1               56.823            1              154.2             60.0           4643.50 
  5511.6              53.924          160.3              1               61.377            1              154.1             63.3           4643.63 
  5511.9              56.166          155.2              2               65.932            1              154.1             51.2           4643.87 
  5512.2              53.216          156.1              1               65.932            1              154.1             54.7           4644.00 
