~VERSION INFORMATION 
 VERS. 2.0: CWLS LOG ASCII STANDARD -VERSION 2.0 
 WRAP.  No: SINGLE LINE PER DEPTH STEP
~WELL INFORMATION BLOCK 
#MNEM.UNIT			     DATA			   DESCRIPTION OF MNEMONIC
#----------------------------------------------------------------------
 STRT.ft                  975.0                                             : Start Depth
 STOP.ft                  6243.9                                            : Stop  Depth
 STEP.ft                  0.3                                               : Step  Depth
 NULL.                    -999.25                                           : Null value
 COMP.                    Lewis Energy Colombia                             : Company Name
 WELL.                    Caramelo 5                                        : Well Name
 PATH.                                                                      : Path Name
 FLD.                     Caramelo                                          : Field Name
 LOC.                     Caramelo                                          : Location
 PROV.                    Unused                                            : Province
 SRVC.                    BAKER HUGHES INTEQ                                : Service Company Name
 Date.                    23/11/2017-22:12:37 E. South America Daylight Time: System Date
 UWI.                                                                       : Unique Well ID
 TIMEZONE.Hrs             -2                                                : Time zone difference from GMT 
~CURVE INFORMATION
#MNEM.UNIT                 CURVE INFORMATION
#
#----------------------------------------------------------------------
DEPTH.ft                                     :   0 Depth Hole
RPCHM.ohm.m                                  :   1 Resistivity Phase - Corrected - 2MHz
GRAFM.API                                    :   2 Gamma Ray - Apparent Filtered
GRIM.unitless                                :   3 Gamma Ray Data Point Indicator
RPCLM.ohm.m                                  :   4 Resistivity Phase - Corrected - 400kHz
RPHIM.unitless                               :   5 Resistivity Phase - Data Point Indicator - 2MHz
TCDM.degF                                    :   6 Downhole Temperature
ROP_AVG.ft/hr                                :   7 Rate of Penetration
TVD.ft                                       :   8 True Vertical Depth
#----------------------------------------------------------------------
~O
Disclaimer
Any opinion and / or recommendation expressed orally or written herein, has been prepared
carefully and may be used if the user so elects, however, no representative or warranty is
made by ourselves or our agents as to the correctness or completeness, and no liability is
assumed for any damages resulting from use of the same.  Baker Hughes's liabilities and obligations
shall be governed by Baker Hughes's Standard Terms and Conditions.
Creator
Export
#----------------------------------------------------------------------
#
	# Curve name cross reference:  XREF 'LAS Name' 'XTF Short Name' 'XTF Structured Name'
#
XREF DEPTH DEPTH DEPTH
XREF RPCHM RPCHM CRES.RPCHM
XREF GRAFM GRAFM FGAM.GRAFM
XREF GRIM GRIM GAM.GRIM
XREF RPCLM RPCLM CRES.RPCLM
XREF RPHIM RPHIM CRES.RPHIM
XREF TCDM TCDM GEN.TCDM
XREF ROP_AVG ROPAVG DRILLD.ROP_AVG
XREF TVD TVD DRILLD.TVD
~A
# ...
  3763.5               4.179          136.9              2                4.240            1            -999.25            174.2           3637.20 
  3763.8               4.179          139.3              1                4.222            1            -999.25            151.9           3637.40 
  3764.1               4.165          142.0              1                4.229            1            -999.25            129.6           3637.60 
  3764.4               4.146          142.5              1                4.211            1            -999.25             67.9           3637.90 
  3764.7               4.139          141.7              1                4.204            1            -999.25             74.7           3638.19 
  3765.0               4.113          145.3              1                4.194            4            -999.25             81.4           3638.39 
  3765.3               4.110          145.6              1                4.175            1            -999.25            118.0           3638.59 
  3765.6               4.091          147.4              2                4.173            1            -999.25            154.5           3638.79 
  3765.9               4.094          147.5              1                4.153            1            -999.25            183.6           3639.09 
  3766.2               4.075          143.7              1                4.149            1            -999.25            181.2           3639.39 
  3766.5               4.070          141.7              1                4.139            1            -999.25            178.7           3639.58 
  3766.8               4.070          144.6              1                4.146            1            -999.25            176.6           3639.78 
  3767.1               4.028          142.3              1                4.119            1            -999.25            174.4           3639.98 
  3767.4               4.034          143.9              2                4.112            2              140.3            172.8           3640.28 
  3767.7               4.066          146.2              1                4.119            1              140.3            175.7           3640.58 
  3768.0               4.142          149.5              1                4.156            1              140.5            178.5           3640.78 
  3768.3               4.169          149.0              1                4.163            1            -999.25            184.4           3640.97 
  3768.6               4.132          149.4              1                4.139            1            -999.25            190.3           3641.17 
  3768.9               4.091          151.4              1                4.109            1            -999.25            181.7           3641.47 
  3769.2               4.094          148.0              1                4.105            1            -999.25            157.7           3641.77 
  3769.5               4.074          147.6              1                4.094            1            -999.25            133.7           3641.97 
  3769.8               4.014          149.8              1                4.043            2            -999.25            116.3           3642.17 
  3770.1               3.970          149.8              2                4.018            1            -999.25             98.9           3642.36 
  3770.4               3.932          149.7              1                3.998            1            -999.25            194.6           3642.66 
  3770.7               3.932          148.9              1                3.994            1            -999.25            198.4           3642.96 
  3771.0               3.947          146.6              1                3.994            1            -999.25            202.2           3643.16 
  3771.3               3.959          146.6              1                4.001            1            -999.25            191.9           3643.36 
  3771.6               3.965          149.2              1                3.990            2            -999.25            181.6           3643.55 
  3771.9               3.964          150.8              1                3.988            1            -999.25            194.5           3643.85 
  3772.2               3.952          148.8              1                3.978            1            -999.25            192.1           3644.15 
  3772.5               3.931          148.1              1                3.966            1            -999.25            189.8           3644.35 
  3772.8               3.911          148.3              2                3.963            1            -999.25            198.3           3644.55 
  3773.1               3.895          146.7              1                3.934            1            -999.25            206.8           3644.74 
  3773.4               3.884          144.6              1                3.917            1            -999.25            208.1           3645.04 
  3773.7               3.877          146.0              1                3.910            1              140.6            163.7           3645.34 
  3774.0               3.914          144.9              1                3.928            1              140.6            119.2           3645.54 
  3774.3               3.934          147.8              1                3.941            2              140.6             97.7           3645.74 
  3774.6               3.964          148.1              2                3.934            1              140.6             76.2           3645.94 
  3774.9               3.989          147.8              1                3.941            1              140.6             38.2           3646.24 
  3775.2               4.010          148.5              1                3.953            1              140.6             41.4           3646.53 
  3775.5               4.007          149.4              1                3.939            1              140.6             44.6           3646.73 
  3775.8               3.927          153.1              1                3.894            1              140.6             51.0           3646.93 
  3776.1               3.909          154.3              1                3.885            1              140.6             57.4           3647.12 
  3776.4               3.894          151.9              1                3.873            2              140.6             54.2           3647.42 
  3776.7               3.899          152.0              1                3.861            1              140.7             46.7           3647.72 
  3777.0               3.878          152.9              2                3.864            1              140.7             39.3           3647.92 
  3777.3               3.897          155.8              1                3.859            1              140.7             40.5           3648.12 
  3777.6               3.892          157.2              1                3.852            1              140.7             41.8           3648.31 
  3777.9               3.872          157.5              1                3.825            1              140.7             38.3           3648.61 
  3778.2               3.800          155.3              1                3.812            1              140.7             40.9           3648.91 
  3778.5               3.793          154.8              1                3.793            1              140.7             43.5           3649.11 
  3778.8               3.828          154.3              1                3.804            2              140.7             45.6           3649.31 
  3779.1               3.825          156.5              1                3.810            1              140.7             47.7           3649.50 
  3779.4               3.826          156.3              2                3.810            1              140.7             51.2           3649.80 
  3779.7               3.827          153.1              1                3.810            1              140.7             44.4           3650.10 
