~VERSION INFORMATION 
 VERS. 2.0: CWLS LOG ASCII STANDARD -VERSION 2.0 
 WRAP.  No: SINGLE LINE PER DEPTH STEP
~WELL INFORMATION BLOCK 
#MNEM.UNIT			     DATA			   DESCRIPTION OF MNEMONIC
#----------------------------------------------------------------------
 STRT.ft                  975.0                                             : Start Depth
 STOP.ft                  6243.9                                            : Stop  Depth
 STEP.ft                  0.3                                               : Step  Depth
 NULL.                    -999.25                                           : Null value
 COMP.                    Lewis Energy Colombia                             : Company Name
 WELL.                    Caramelo 5                                        : Well Name
 PATH.                                                                      : Path Name
 FLD.                     Caramelo                                          : Field Name
 LOC.                     Caramelo                                          : Location
 PROV.                    Unused                                            : Province
 SRVC.                    BAKER HUGHES INTEQ                                : Service Company Name
 Date.                    23/11/2017-22:12:37 E. South America Daylight Time: System Date
 UWI.                                                                       : Unique Well ID
 TIMEZONE.Hrs             -2                                                : Time zone difference from GMT 
~CURVE INFORMATION
#MNEM.UNIT                 CURVE INFORMATION
#
#----------------------------------------------------------------------
DEPTH.ft                                     :   0 Depth Hole
RPCHM.ohm.m                                  :   1 Resistivity Phase - Corrected - 2MHz
GRAFM.API                                    :   2 Gamma Ray - Apparent Filtered
GRIM.unitless                                :   3 Gamma Ray Data Point Indicator
RPCLM.ohm.m                                  :   4 Resistivity Phase - Corrected - 400kHz
RPHIM.unitless                               :   5 Resistivity Phase - Data Point Indicator - 2MHz
TCDM.degF                                    :   6 Downhole Temperature
ROP_AVG.ft/hr                                :   7 Rate of Penetration
TVD.ft                                       :   8 True Vertical Depth
#----------------------------------------------------------------------
~O
Disclaimer
Any opinion and / or recommendation expressed orally or written herein, has been prepared
carefully and may be used if the user so elects, however, no representative or warranty is
made by ourselves or our agents as to the correctness or completeness, and no liability is
assumed for any damages resulting from use of the same.  Baker Hughes's liabilities and obligations
shall be governed by Baker Hughes's Standard Terms and Conditions.
Creator
Export
#----------------------------------------------------------------------
#
	# Curve name cross reference:  XREF 'LAS Name' 'XTF Short Name' 'XTF Structured Name'
#
XREF DEPTH DEPTH DEPTH
XREF RPCHM RPCHM CRES.RPCHM
XREF GRAFM GRAFM FGAM.GRAFM
XREF GRIM GRIM GAM.GRIM
XREF RPCLM RPCLM CRES.RPCLM
XREF RPHIM RPHIM CRES.RPHIM
XREF TCDM TCDM GEN.TCDM
XREF ROP_AVG ROPAVG DRILLD.ROP_AVG
XREF TVD TVD DRILLD.TVD
~A
# ...
  1668.0               7.250           49.6              2                7.458            2            -999.25            213.3           1664.48 
  1668.3               7.543           49.0              1                7.669            1            -999.25            213.1           1664.78 
  1668.6               7.836           47.8              1                7.880            1            -999.25            212.9           1665.08 
  1668.9               8.229           46.9              1                8.063            1            -999.25            221.9           1665.38 
  1669.2               8.623           44.1              1                8.246            1            -999.25            231.0           1665.67 
  1669.5               9.017           43.9              1                8.430            1            -999.25            260.5           1665.97 
  1669.8               9.180           43.2              1                8.608            1            -999.25            276.8           1666.27 
  1670.1               9.343           42.4              1                8.786            1            -999.25            293.1           1666.57 
  1670.4               9.063           42.8              1                8.663            1            -999.25            306.8           1666.87 
  1670.7               8.782           46.5              1                8.541            1            -999.25            320.5           1667.16 
  1671.0               8.502           47.0              1                8.418            1            -999.25            313.8           1667.46 
  1671.3               7.785           49.7              1                7.902            1            -999.25            316.9           1667.76 
  1671.6               7.068           57.7              1                7.386            1            -999.25            319.9           1668.06 
  1671.9               6.829           61.4              1                7.304            1            -999.25            325.2           1668.36 
  1672.2               6.589           64.2              1                7.222            1            -999.25            330.5           1668.64 
  1672.5               6.350           65.1              1                7.140            1            -999.25            314.8           1668.94 
  1672.8               6.332           65.0              1                6.960            1            -999.25            308.6           1669.24 
  1673.1               6.314           64.6              1                6.780            1            -999.25            302.4           1669.54 
  1673.4               6.334           64.2              1                6.719            1            -999.25            281.8           1669.84 
  1673.7               6.353           62.2              1                6.657            1            -999.25            261.3           1670.13 
  1674.0               6.373           61.4              1                6.596            1            -999.25            286.4           1670.43 
  1674.3               6.423           61.2              1                6.600            1            -999.25            301.7           1670.73 
  1674.6               6.473           60.5              1                6.604            1            -999.25            317.0           1671.03 
  1674.9               6.525           60.2              1                6.606            1            -999.25            319.2           1671.33 
  1675.2               6.578           61.0              1                6.609            2            -999.25            321.3           1671.61 
  1675.5               6.630           61.4              2                6.611            2            -999.25            299.4           1671.91 
  1675.8               6.489           61.8              2                6.469            2            -999.25            289.5           1672.21 
  1676.1               6.347           63.7              1                6.328            1              130.8            279.6           1672.51 
  1676.4               6.206           65.3              1                6.186            1            -999.25            279.5           1672.81 
  1676.7               5.797           65.7              1                5.932            1            -999.25            279.5           1673.10 
  1677.0               5.388           65.9              1                5.677            1            -999.25            226.7           1673.40 
  1677.3               5.293           66.0              1                5.644            1            -999.25            189.9           1673.70 
  1677.6               5.197           68.1              1                5.612            1            -999.25            153.1           1674.00 
  1677.9               5.101           69.8              1                5.579            1            -999.25            145.2           1674.30 
  1678.2               5.076           68.7              1                5.511            1            -999.25            137.3           1674.58 
  1678.5               5.051           68.0              1                5.444            1            -999.25            121.2           1674.88 
  1678.8               5.025           68.4              1                5.376            1            -999.25            121.4           1675.18 
  1679.1               4.976           70.7              1                5.334            1            -999.25            121.7           1675.48 
  1679.4               4.927           72.5              1                5.292            1            -999.25            128.1           1675.78 
  1679.7               4.951           71.4              1                5.310            1            -999.25            134.5           1676.07 
  1680.0               4.975           70.4              1                5.328            1            -999.25            133.0           1676.37 
  1680.3               5.010           70.5              1                5.362            1            -999.25            140.2           1676.67 
  1680.6               5.045           73.6              1                5.396            1            -999.25            147.4           1676.97 
  1680.9               5.080           76.6              1                5.430            1            -999.25            155.7           1677.27 
  1681.2               5.120           73.6              1                5.499            1            -999.25            164.1           1677.55 
  1681.5               5.159           70.1              1                5.568            1            -999.25            168.3           1677.85 
  1681.8               5.202           69.6              1                5.574            1            -999.25            170.3           1678.15 
  1682.1               5.244           69.1              1                5.579            1            -999.25            172.4           1678.45 
  1682.4               5.279           67.9              1                5.608            1            -999.25            171.8           1678.75 
  1682.7               5.314           68.1              1                5.637            2            -999.25            171.3           1679.04 
  1683.0               5.349           68.7              2                5.665            2            -999.25            164.1           1679.34 
  1683.3               5.397           69.1              2                5.725            2            -999.25            160.7           1679.64 
  1683.6               5.446           67.9              2                5.784            1              131.1            157.4           1679.94 
  1683.9               5.428           65.6              1                5.820            1            -999.25            168.5           1680.24 
  1684.2               5.410           65.1              1                5.857            1            -999.25            179.5           1680.52 
