~VERSION INFORMATION 
 VERS. 2.0: CWLS LOG ASCII STANDARD -VERSION 2.0 
 WRAP.  No: SINGLE LINE PER DEPTH STEP
~WELL INFORMATION BLOCK 
#MNEM.UNIT			     DATA			   DESCRIPTION OF MNEMONIC
#----------------------------------------------------------------------
 STRT.ft                  975.0                                             : Start Depth
 STOP.ft                  6243.9                                            : Stop  Depth
 STEP.ft                  0.3                                               : Step  Depth
 NULL.                    -999.25                                           : Null value
 COMP.                    Lewis Energy Colombia                             : Company Name
 WELL.                    Caramelo 5                                        : Well Name
 PATH.                                                                      : Path Name
 FLD.                     Caramelo                                          : Field Name
 LOC.                     Caramelo                                          : Location
 PROV.                    Unused                                            : Province
 SRVC.                    BAKER HUGHES INTEQ                                : Service Company Name
 Date.                    23/11/2017-22:12:37 E. South America Daylight Time: System Date
 UWI.                                                                       : Unique Well ID
 TIMEZONE.Hrs             -2                                                : Time zone difference from GMT 
~CURVE INFORMATION
#MNEM.UNIT                 CURVE INFORMATION
#
#----------------------------------------------------------------------
DEPTH.ft                                     :   0 Depth Hole
RPCHM.ohm.m                                  :   1 Resistivity Phase - Corrected - 2MHz
GRAFM.API                                    :   2 Gamma Ray - Apparent Filtered
GRIM.unitless                                :   3 Gamma Ray Data Point Indicator
RPCLM.ohm.m                                  :   4 Resistivity Phase - Corrected - 400kHz
RPHIM.unitless                               :   5 Resistivity Phase - Data Point Indicator - 2MHz
TCDM.degF                                    :   6 Downhole Temperature
ROP_AVG.ft/hr                                :   7 Rate of Penetration
TVD.ft                                       :   8 True Vertical Depth
#----------------------------------------------------------------------
~O
Disclaimer
Any opinion and / or recommendation expressed orally or written herein, has been prepared
carefully and may be used if the user so elects, however, no representative or warranty is
made by ourselves or our agents as to the correctness or completeness, and no liability is
assumed for any damages resulting from use of the same.  Baker Hughes's liabilities and obligations
shall be governed by Baker Hughes's Standard Terms and Conditions.
Creator
Export
#----------------------------------------------------------------------
#
	# Curve name cross reference:  XREF 'LAS Name' 'XTF Short Name' 'XTF Structured Name'
#
XREF DEPTH DEPTH DEPTH
XREF RPCHM RPCHM CRES.RPCHM
XREF GRAFM GRAFM FGAM.GRAFM
XREF GRIM GRIM GAM.GRIM
XREF RPCLM RPCLM CRES.RPCLM
XREF RPHIM RPHIM CRES.RPHIM
XREF TCDM TCDM GEN.TCDM
XREF ROP_AVG ROPAVG DRILLD.ROP_AVG
XREF TVD TVD DRILLD.TVD
~A
# ...
  2361.0               6.104           60.0              1                6.416            1            -999.25            338.4           2340.98 
  2361.3               6.133           59.9              1                6.438            1            -999.25            343.2           2341.28 
  2361.6               6.161           60.1              2                6.459            1            -999.25            348.1           2341.52 
  2361.9               6.188           60.4              2                6.465            1            -999.25            364.5           2341.82 
  2362.2               6.215           61.6              2                6.470            1            -999.25            377.3           2342.12 
  2362.5               6.242           63.0              1                6.476            1            -999.25            390.1           2342.42 
  2362.8               6.268           63.5              1                6.481            1            -999.25            385.1           2342.72 
  2363.1               6.245           63.6              1                6.454            1            -999.25            380.1           2342.96 
  2363.4               6.221           63.4              1                6.427            1            -999.25            378.7           2343.26 
  2363.7               6.197           63.0              1                6.399            1            -999.25            366.9           2343.56 
  2364.0               6.173           62.9              1                6.372            1            -999.25            355.1           2343.86 
  2364.3               6.149           62.9              1                6.345            1            -999.25            351.0           2344.16 
  2364.6               6.140           62.2              1                6.305            1            -999.25            347.0           2344.41 
  2364.9               6.131           59.1              1                6.265            1            -999.25            344.6           2344.71 
  2365.2               6.122           56.9              1                6.226            1            -999.25            348.8           2345.01 
  2365.5               6.113           56.5              1                6.186            1            -999.25            353.1           2345.31 
  2365.8               5.996           56.9              1                6.072            1            -999.25            352.7           2345.61 
  2366.1               5.879           57.9              1                5.958            1            -999.25            352.3           2345.85 
  2366.4               5.762           60.1              1                5.844            1            -999.25            357.3           2346.15 
  2366.7               5.645           60.7              1                5.730            1            -999.25            348.0           2346.45 
  2367.0               5.366           61.3              1                5.569            1            -999.25            338.8           2346.75 
  2367.3               5.088           63.6              1                5.407            1            -999.25            331.1           2347.05 
  2367.6               4.810           65.8              1                5.246            1            -999.25            323.4           2347.29 
  2367.9               4.750           68.1              1                5.216            1            -999.25            290.2           2347.59 
  2368.2               4.690           68.8              1                5.187            1            -999.25            297.3           2347.89 
  2368.5               4.630           69.2              1                5.158            1            -999.25            304.3           2348.19 
  2368.8               4.791           70.1              1                5.272            1            -999.25            320.5           2348.49 
  2369.1               4.952           71.0              1                5.387            1            -999.25            336.6           2348.73 
  2369.4               5.170           71.4              1                5.397            1            -999.25            332.3           2349.03 
  2369.7               5.337           71.6              1                5.562            1            -999.25            331.7           2349.33 
  2370.0               5.375           72.5              1                5.599            1            -999.25            331.2           2349.63 
  2370.3               5.412           72.8              1                5.636            1            -999.25            320.6           2349.93 
  2370.6               5.451           72.7              1                5.674            1            -999.25            310.0           2350.18 
  2370.9               5.490           70.4              1                5.712            1            -999.25            307.3           2350.48 
  2371.2               5.571           67.1              1                5.724            2            -999.25            309.0           2350.78 
  2371.5               5.572           66.1              1                5.695            1            -999.25            310.7           2351.08 
  2371.8               5.574           65.0              1                5.665            1            -999.25            307.3           2351.38 
  2372.1               5.512           62.9              1                5.660            1            -999.25            304.0           2351.62 
  2372.4               5.450           61.1              1                5.654            1            -999.25            298.2           2351.92 
  2372.7               5.371           60.5              2                5.683            1            -999.25            297.6           2352.22 
  2373.0               5.375           61.2              1                5.686            1            -999.25            297.0           2352.52 
  2373.3               5.379           63.9              1                5.689            1            -999.25            298.8           2352.82 
  2373.6               5.396           65.3              1                5.695            1            -999.25            300.6           2353.06 
  2373.9               5.414           67.5              1                5.701            1            -999.25            288.0           2353.36 
  2374.2               5.459           69.6              1                5.716            1            -999.25            296.2           2353.66 
  2374.5               5.504           67.3              1                5.732            1            -999.25            304.4           2353.96 
  2374.8               5.549           65.8              1                5.748            1            -999.25            309.2           2354.26 
  2375.1               5.580           69.7              1                5.751            1            -999.25            314.0           2354.50 
  2375.4               5.611           71.3              1                5.754            1            -999.25            340.9           2354.80 
  2375.7               5.559           70.4              1                5.690            1            -999.25            336.4           2355.10 
  2376.0               5.507           72.6              1                5.626            1            -999.25            331.9           2355.40 
  2376.3               5.456           74.3              1                5.562            1            -999.25            327.0           2355.70 
  2376.6               5.349           76.0              1                5.461            1            -999.25            322.1           2355.95 
  2376.9               5.242           77.8              1                5.360            1            -999.25            314.0           2356.25 
  2377.2               5.209           77.4              2                5.334            1            -999.25            311.4           2356.55 
