~VERSION INFORMATION 
 VERS. 2.0: CWLS LOG ASCII STANDARD -VERSION 2.0 
 WRAP.  No: SINGLE LINE PER DEPTH STEP
~WELL INFORMATION BLOCK 
#MNEM.UNIT			     DATA			   DESCRIPTION OF MNEMONIC
#----------------------------------------------------------------------
 STRT.ft                  975.0                                             : Start Depth
 STOP.ft                  6243.9                                            : Stop  Depth
 STEP.ft                  0.3                                               : Step  Depth
 NULL.                    -999.25                                           : Null value
 COMP.                    Lewis Energy Colombia                             : Company Name
 WELL.                    Caramelo 5                                        : Well Name
 PATH.                                                                      : Path Name
 FLD.                     Caramelo                                          : Field Name
 LOC.                     Caramelo                                          : Location
 PROV.                    Unused                                            : Province
 SRVC.                    BAKER HUGHES INTEQ                                : Service Company Name
 Date.                    23/11/2017-22:12:37 E. South America Daylight Time: System Date
 UWI.                                                                       : Unique Well ID
 TIMEZONE.Hrs             -2                                                : Time zone difference from GMT 
~CURVE INFORMATION
#MNEM.UNIT                 CURVE INFORMATION
#
#----------------------------------------------------------------------
DEPTH.ft                                     :   0 Depth Hole
RPCHM.ohm.m                                  :   1 Resistivity Phase - Corrected - 2MHz
GRAFM.API                                    :   2 Gamma Ray - Apparent Filtered
GRIM.unitless                                :   3 Gamma Ray Data Point Indicator
RPCLM.ohm.m                                  :   4 Resistivity Phase - Corrected - 400kHz
RPHIM.unitless                               :   5 Resistivity Phase - Data Point Indicator - 2MHz
TCDM.degF                                    :   6 Downhole Temperature
ROP_AVG.ft/hr                                :   7 Rate of Penetration
TVD.ft                                       :   8 True Vertical Depth
#----------------------------------------------------------------------
~O
Disclaimer
Any opinion and / or recommendation expressed orally or written herein, has been prepared
carefully and may be used if the user so elects, however, no representative or warranty is
made by ourselves or our agents as to the correctness or completeness, and no liability is
assumed for any damages resulting from use of the same.  Baker Hughes's liabilities and obligations
shall be governed by Baker Hughes's Standard Terms and Conditions.
Creator
Export
#----------------------------------------------------------------------
#
	# Curve name cross reference:  XREF 'LAS Name' 'XTF Short Name' 'XTF Structured Name'
#
XREF DEPTH DEPTH DEPTH
XREF RPCHM RPCHM CRES.RPCHM
XREF GRAFM GRAFM FGAM.GRAFM
XREF GRIM GRIM GAM.GRIM
XREF RPCLM RPCLM CRES.RPCLM
XREF RPHIM RPHIM CRES.RPHIM
XREF TCDM TCDM GEN.TCDM
XREF ROP_AVG ROPAVG DRILLD.ROP_AVG
XREF TVD TVD DRILLD.TVD
~A
# ...
  6189.0             389.941           34.9              1              782.968            1              156.1             53.9           4977.47 
  6189.3             390.038           33.5              1              803.490            1              156.1             55.9           4977.60 
  6189.6             383.496           31.9              1              807.817            1              156.2             57.9           4977.72 
  6189.9             382.899           30.2              2              802.307            1              156.2             53.4           4977.97 
  6190.2             395.866           30.2              1              800.945            1              156.2             53.5           4978.09 
  6190.5             409.610           31.6              1              813.295            1              156.2             53.6           4978.21 
  6190.8             415.687           32.8              1              829.832            1              156.3             53.5           4978.34 
  6191.1             413.930           33.8              1              840.875            2              156.3             53.4           4978.46 
  6191.4             414.886           38.6              1              856.078            1              156.3             51.8           4978.71 
  6191.7             419.063           46.7              1              836.389            1              156.3             51.5           4978.83 
  6192.0             412.984           52.0              1              736.269            1              156.3             51.3           4978.95 
  6192.3             386.309           58.4              1              694.987            1              156.4             49.5           4979.08 
  6192.6             366.818           57.3              2              679.872            1              156.4             47.7           4979.20 
  6192.9             359.423           53.6              1              676.164            1              156.4             51.5           4979.45 
  6193.2             365.028           49.8              1              675.890            1              156.4             51.5           4979.57 
  6193.5             371.897           50.0              1              699.541            2              156.5             51.6           4979.70 
  6193.8             368.734           47.3              1              751.052            1              156.5             51.0           4979.82 
  6194.1             371.830           46.2              1              787.646            1              156.5             50.5           4979.94 
  6194.4             385.084           49.2              1              773.028            1              156.5             56.1           4980.19 
  6194.7             383.014           52.6              1              716.165            1              156.5             60.4           4980.31 
  6195.0             360.687           57.7              1              651.230            1              156.6             64.7           4980.44 
  6195.3             340.109           63.8              1              593.401            2            -999.25             72.4           4980.56 
  6195.6             329.569           63.9              3              557.333            1            -999.25             80.1           4980.68 
  6195.9             335.543           61.6              1              524.603            1            -999.25             79.1           4980.93 
  6196.2             354.117           57.6              1              540.440            1            -999.25             81.0           4981.06 
  6196.5             364.293           53.0              1              593.889            1            -999.25             83.0           4981.18 
  6196.8             366.775           48.1              1              653.157            1            -999.25             78.9           4981.30 
  6197.1             368.951           43.6              1              730.533            2            -999.25             74.8           4981.43 
  6197.4             368.008           39.5              1              783.770            1            -999.25             66.8           4981.67 
  6197.7             366.225           39.9              2              780.291            1            -999.25             65.4           4981.80 
  6198.0             359.844           42.1              1              712.456            1            -999.25             64.0           4981.92 
  6198.3             358.333           44.4              1              710.615            1            -999.25             65.3           4982.04 
  6198.6             363.450           48.5              1              761.145            1            -999.25             66.6           4982.17 
  6198.9             373.306           54.3              1              850.905            1            -999.25             80.5           4982.41 
  6199.2             382.753           60.2              1              893.267            3            -999.25             88.4           4982.54 
  6199.5             377.454           63.1              2              855.533            1            -999.25             96.3           4982.66 
  6199.8             349.264           66.1              1              730.697            1            -999.25             92.8           4982.79 
  6200.1             327.164           67.7              1              653.714            1            -999.25             89.2           4982.91 
  6200.4             312.293           68.6              1              605.391            1              156.8             83.0           4983.16 
  6200.7             295.373           65.1              1              546.513            1            -999.25             76.9           4983.28 
  6201.0             280.326           64.0              1              480.277            1            -999.25             70.9           4983.40 
  6201.3             279.732           62.6              1              465.806            2            -999.25             65.1           4983.53 
  6201.6             284.743           62.1              2              470.249            1            -999.25             59.4           4983.65 
  6201.9             286.451           59.5              1              479.948            1            -999.25             60.1           4983.90 
  6202.2             285.861           59.3              1              487.789            1            -999.25             67.5           4984.02 
  6202.5             285.271           58.9              1              495.631            1            -999.25             74.8           4984.15 
  6202.8             -999.25           58.0              1              -999.25       -999.25           -999.25             87.4           4984.27 
  6203.1             -999.25           56.6              1              -999.25       -999.25           -999.25             99.9           4984.39 
  6203.4             -999.25           55.8              2              -999.25       -999.25           -999.25             97.3           4984.64 
  6203.7             -999.25           54.2              1              -999.25       -999.25           -999.25            103.1           4984.76 
  6204.0             -999.25           52.1              1              -999.25       -999.25           -999.25            109.0           4984.89 
  6204.3             -999.25           48.4              1              -999.25       -999.25           -999.25            107.3           4985.01 
  6204.6             -999.25           43.8              1              -999.25       -999.25           -999.25            105.5           4985.13 
  6204.9             -999.25           39.7              1              -999.25       -999.25           -999.25            117.5           4985.38 
  6205.2             -999.25           35.8              1              -999.25       -999.25           -999.25            106.4           4985.51 
