~VERSION INFORMATION 
 VERS. 2.0: CWLS LOG ASCII STANDARD -VERSION 2.0 
 WRAP.  No: SINGLE LINE PER DEPTH STEP
~WELL INFORMATION BLOCK 
#MNEM.UNIT			     DATA			   DESCRIPTION OF MNEMONIC
#----------------------------------------------------------------------
 STRT.ft                  975.0                                             : Start Depth
 STOP.ft                  6243.9                                            : Stop  Depth
 STEP.ft                  0.3                                               : Step  Depth
 NULL.                    -999.25                                           : Null value
 COMP.                    Lewis Energy Colombia                             : Company Name
 WELL.                    Caramelo 5                                        : Well Name
 PATH.                                                                      : Path Name
 FLD.                     Caramelo                                          : Field Name
 LOC.                     Caramelo                                          : Location
 PROV.                    Unused                                            : Province
 SRVC.                    BAKER HUGHES INTEQ                                : Service Company Name
 Date.                    23/11/2017-22:12:37 E. South America Daylight Time: System Date
 UWI.                                                                       : Unique Well ID
 TIMEZONE.Hrs             -2                                                : Time zone difference from GMT 
~CURVE INFORMATION
#MNEM.UNIT                 CURVE INFORMATION
#
#----------------------------------------------------------------------
DEPTH.ft                                     :   0 Depth Hole
RPCHM.ohm.m                                  :   1 Resistivity Phase - Corrected - 2MHz
GRAFM.API                                    :   2 Gamma Ray - Apparent Filtered
GRIM.unitless                                :   3 Gamma Ray Data Point Indicator
RPCLM.ohm.m                                  :   4 Resistivity Phase - Corrected - 400kHz
RPHIM.unitless                               :   5 Resistivity Phase - Data Point Indicator - 2MHz
TCDM.degF                                    :   6 Downhole Temperature
ROP_AVG.ft/hr                                :   7 Rate of Penetration
TVD.ft                                       :   8 True Vertical Depth
#----------------------------------------------------------------------
~O
Disclaimer
Any opinion and / or recommendation expressed orally or written herein, has been prepared
carefully and may be used if the user so elects, however, no representative or warranty is
made by ourselves or our agents as to the correctness or completeness, and no liability is
assumed for any damages resulting from use of the same.  Baker Hughes's liabilities and obligations
shall be governed by Baker Hughes's Standard Terms and Conditions.
Creator
Export
#----------------------------------------------------------------------
#
	# Curve name cross reference:  XREF 'LAS Name' 'XTF Short Name' 'XTF Structured Name'
#
XREF DEPTH DEPTH DEPTH
XREF RPCHM RPCHM CRES.RPCHM
XREF GRAFM GRAFM FGAM.GRAFM
XREF GRIM GRIM GAM.GRIM
XREF RPCLM RPCLM CRES.RPCLM
XREF RPHIM RPHIM CRES.RPHIM
XREF TCDM TCDM GEN.TCDM
XREF ROP_AVG ROPAVG DRILLD.ROP_AVG
XREF TVD TVD DRILLD.TVD
~A
# ...
  1321.5              10.270           46.6              1               10.578            1            -999.25            342.7           1320.07 
  1321.8              10.244           46.9              1               10.539            1            -999.25            348.1           1320.37 
  1322.1              10.219           47.1              1               10.501            1            -999.25            353.5           1320.67 
  1322.4              10.193           46.4              1               10.463            1            -999.25            348.8           1320.97 
  1322.7               9.841           45.5              1               10.210            2            -999.25            344.2           1321.27 
  1323.0               9.871           46.3              1               10.234            2            -999.25            339.5           1321.57 
  1323.3               9.902           47.9              1               10.258            2            -999.25            334.9           1321.87 
  1323.6               9.933           48.7              1               10.282            2            -999.25            330.2           1322.17 
  1323.9               9.963           50.1              1               10.307            2            -999.25            280.2           1322.47 
  1324.2               9.994           51.4              1               10.331            2            -999.25            230.3           1322.76 
  1324.5              10.025           53.6              1               10.355            2            -999.25            230.5           1323.06 
  1324.8              10.055           54.6              1               10.379            2            -999.25            230.6           1323.36 
  1325.1              10.086           57.3              1               10.403            1            -999.25            230.8           1323.66 
  1325.4              10.117           62.8              1               10.428            1            -999.25            230.9           1323.96 
  1325.7              10.147           62.4              1               10.452            1            -999.25            231.0           1324.26 
  1326.0              10.178           61.5              1               10.476            1            -999.25            231.2           1324.56 
  1326.3              10.209           61.1              1               10.500            1            -999.25            222.8           1324.86 
  1326.6              10.239           60.1              1               10.524            1            -999.25            214.5           1325.16 
  1326.9              10.164           60.0              1               10.467            1            -999.25            206.1           1325.46 
  1327.2              10.089           59.9              1               10.409            1            -999.25            197.8           1325.76 
  1327.5              10.014           59.8              1               10.351            1            -999.25            189.4           1326.06 
  1327.8               8.917           59.7              1                9.441            1            -999.25            189.4           1326.36 
  1328.1               7.819           59.6              1                8.531            1            -999.25            189.4           1326.66 
  1328.4               6.722           59.5              1                7.622            1            -999.25            268.4           1326.96 
  1328.7               6.281           59.4              2                7.145            1            -999.25            347.3           1327.24 
  1329.0               6.154           59.3              2                7.069            1            -999.25            414.1           1327.54 
  1329.3               6.123           59.3              2                7.102            2            -999.25            399.2           1327.84 
  1329.6               6.133           59.2              2                7.114            2            -999.25            384.3           1328.14 
  1329.9               6.144           59.1              2                7.125            1            -999.25            376.7           1328.44 
  1330.2               6.154           59.0              2                7.136            1            -999.25            369.1           1328.73 
  1330.5               6.217           58.9              2                7.202            1            -999.25            362.3           1329.03 
  1330.8               6.280           58.8              2                7.267            1            -999.25            337.1           1329.33 
  1331.1               6.343           59.1              2                7.332            1            -999.25            311.9           1329.63 
  1331.4               6.406           59.8              1                7.397            1              129.5            298.5           1329.93 
  1331.7               6.469           60.3              1                7.462            1            -999.25            285.1           1330.23 
  1332.0               6.531           60.7              1                7.528            1            -999.25            302.3           1330.53 
  1332.3               6.627           61.8              1                7.567            1            -999.25            307.3           1330.83 
  1332.6               6.723           62.6              1                7.607            1            -999.25            312.3           1331.13 
  1332.9               6.819           62.1              1                7.647            1            -999.25            325.1           1331.43 
  1333.2               6.914           58.2              1                7.686            1            -999.25            338.0           1331.72 
  1333.5               7.010           58.4              1                7.726            1            -999.25            338.0           1332.02 
  1333.8               7.106           59.0              1                7.765            1            -999.25            338.0           1332.32 
  1334.1               7.202           59.3              1                7.805            1            -999.25            338.0           1332.62 
  1334.4               7.297           59.0              1                7.845            1            -999.25            335.4           1332.92 
  1334.7               9.547           58.7              1                9.442            1            -999.25            332.9           1333.22 
  1335.0               9.628           57.8              1                9.446            1            -999.25            330.4           1333.52 
  1335.3               9.708           56.9              1                9.451            1            -999.25            327.8           1333.82 
  1335.6               9.789           57.5              1                9.455            1            -999.25            325.3           1334.12 
  1335.9               9.689           58.1              1                9.381            1            -999.25            352.4           1334.42 
  1336.2               9.588           58.7              1                9.307            1            -999.25            379.5           1334.72 
  1336.5               9.488           59.3              1                9.234            1            -999.25            406.5           1335.02 
  1336.8               9.388           59.9              1                9.160            1            -999.25            298.8           1335.32 
  1337.1               9.287           60.5              1                9.086            1            -999.25            191.0           1335.62 
  1337.4               9.187           61.1              1                9.012            1            -999.25            126.5           1335.92 
  1337.7               9.072           61.7              1                8.933            1            -999.25             61.9           1336.20 
