~VERSION INFORMATION 
 VERS. 2.0: CWLS LOG ASCII STANDARD -VERSION 2.0 
 WRAP.  No: SINGLE LINE PER DEPTH STEP
~WELL INFORMATION BLOCK 
#MNEM.UNIT			     DATA			   DESCRIPTION OF MNEMONIC
#----------------------------------------------------------------------
 STRT.ft                  975.0                                             : Start Depth
 STOP.ft                  6243.9                                            : Stop  Depth
 STEP.ft                  0.3                                               : Step  Depth
 NULL.                    -999.25                                           : Null value
 COMP.                    Lewis Energy Colombia                             : Company Name
 WELL.                    Caramelo 5                                        : Well Name
 PATH.                                                                      : Path Name
 FLD.                     Caramelo                                          : Field Name
 LOC.                     Caramelo                                          : Location
 PROV.                    Unused                                            : Province
 SRVC.                    BAKER HUGHES INTEQ                                : Service Company Name
 Date.                    23/11/2017-22:12:37 E. South America Daylight Time: System Date
 UWI.                                                                       : Unique Well ID
 TIMEZONE.Hrs             -2                                                : Time zone difference from GMT 
~CURVE INFORMATION
#MNEM.UNIT                 CURVE INFORMATION
#
#----------------------------------------------------------------------
DEPTH.ft                                     :   0 Depth Hole
RPCHM.ohm.m                                  :   1 Resistivity Phase - Corrected - 2MHz
GRAFM.API                                    :   2 Gamma Ray - Apparent Filtered
GRIM.unitless                                :   3 Gamma Ray Data Point Indicator
RPCLM.ohm.m                                  :   4 Resistivity Phase - Corrected - 400kHz
RPHIM.unitless                               :   5 Resistivity Phase - Data Point Indicator - 2MHz
TCDM.degF                                    :   6 Downhole Temperature
ROP_AVG.ft/hr                                :   7 Rate of Penetration
TVD.ft                                       :   8 True Vertical Depth
#----------------------------------------------------------------------
~O
Disclaimer
Any opinion and / or recommendation expressed orally or written herein, has been prepared
carefully and may be used if the user so elects, however, no representative or warranty is
made by ourselves or our agents as to the correctness or completeness, and no liability is
assumed for any damages resulting from use of the same.  Baker Hughes's liabilities and obligations
shall be governed by Baker Hughes's Standard Terms and Conditions.
Creator
Export
#----------------------------------------------------------------------
#
	# Curve name cross reference:  XREF 'LAS Name' 'XTF Short Name' 'XTF Structured Name'
#
XREF DEPTH DEPTH DEPTH
XREF RPCHM RPCHM CRES.RPCHM
XREF GRAFM GRAFM FGAM.GRAFM
XREF GRIM GRIM GAM.GRIM
XREF RPCLM RPCLM CRES.RPCLM
XREF RPHIM RPHIM CRES.RPHIM
XREF TCDM TCDM GEN.TCDM
XREF ROP_AVG ROPAVG DRILLD.ROP_AVG
XREF TVD TVD DRILLD.TVD
~A
# ...
  2707.5              92.283           70.1              2              110.601            1            -999.25             78.4           2674.45 
  2707.8              88.708           76.1              2              115.668            1            -999.25             79.5           2674.75 
  2708.1              87.909           84.0              2              115.014            1            -999.25             80.7           2675.00 
  2708.4              87.110           92.4              1              114.360            1            -999.25             86.3           2675.30 
  2708.7              78.998           96.9              1              118.373            1            -999.25            101.2           2675.60 
  2709.0              85.316           99.2              1              121.265            1            -999.25            116.2           2675.90 
  2709.3              91.634          105.5              1              124.158            2            -999.25            132.5           2676.20 
  2709.6              90.684          110.2              1              113.422            2            -999.25            148.7           2676.46 
  2709.9              89.734          114.0              1              102.686            1            -999.25            166.9           2676.76 
  2710.2              83.475          123.9              1              105.455            1            -999.25            168.7           2677.06 
  2710.5              77.216          123.3              1              108.224            1            -999.25            170.4           2677.36 
  2710.8              78.190          127.0              1              102.004            1            -999.25            164.5           2677.66 
  2711.1              79.163          131.8              1               95.784            1            -999.25            158.6           2677.91 
  2711.4              78.590          134.5              3               94.002            1            -999.25            159.4           2678.21 
  2711.7              78.017          129.6              1               92.221            1            -999.25            163.0           2678.51 
  2712.0              79.349          118.5              1               95.426            1            -999.25            166.6           2678.81 
  2712.3              80.682          107.2              1               98.631            1            -999.25            165.6           2679.11 
  2712.6              82.557           96.1              1              107.149            1            -999.25            164.6           2679.36 
  2712.9              84.432           84.6              1              115.668            1              142.2            170.1           2679.66 
  2713.2              79.072           81.7              1              104.378            1            -999.25            175.2           2679.96 
  2713.5              73.712           92.8              1               93.089            1            -999.25            180.4           2680.26 
  2713.8              71.993          104.6              1               88.903            1            -999.25            177.6           2680.56 
  2714.1              68.762          112.7              1               89.307            1            -999.25            174.9           2680.82 
  2714.4              65.532          127.6              1               89.711            1            -999.25            135.1           2681.12 
  2714.7              62.573          125.3              1               83.669            1            -999.25            128.4           2681.42 
  2715.0              59.614          123.0              1               77.627            2            -999.25            121.7           2681.72 
  2715.3              59.019          107.4              1               75.015            2            -999.25            139.4           2682.02 
  2715.6              58.425           90.3              1               72.403            1            -999.25            157.0           2682.27 
  2715.9              58.620           67.7              1               71.329            1            -999.25            188.4           2682.57 
  2716.2              57.761           44.6              1               69.807            1            -999.25            184.9           2682.87 
  2716.5              56.902           41.0              1               68.286            1            -999.25            181.4           2683.17 
  2716.8              53.133           35.4              2               62.469            1            -999.25            166.7           2683.47 
  2717.1              47.101           48.6              2               59.333            1            -999.25            152.1           2683.73 
  2717.4              44.058           74.1              1               59.709            1            -999.25            107.6           2684.03 
  2717.7              32.409           92.8              1               41.810            1            -999.25             85.6           2684.33 
  2718.0              27.285           96.6              1               35.178            1            -999.25             63.6           2684.63 
  2718.3              23.151           97.0              1               32.301            1            -999.25             67.5           2684.93 
  2718.6              24.632          100.2              1               35.037            2            -999.25             71.4           2685.18 
  2718.9              26.511          103.0              1               37.763            1            -999.25            110.5           2685.48 
  2719.2              28.391           96.6              1               40.489            1            -999.25            115.3           2685.78 
  2719.5              33.640           97.0              1               44.244            1            -999.25            120.0           2686.08 
  2719.8              38.890          104.1              1               48.000            1            -999.25            129.3           2686.38 
  2720.1              36.920          111.2              1               48.910            1            -999.25            138.6           2686.63 
  2720.4              34.951          122.5              1               49.820            1            -999.25            166.0           2686.93 
  2720.7              31.744          122.5              1               40.489            1              142.4            120.4           2687.23 
  2721.0              33.802          109.2              1               42.489            1            -999.25             74.7           2687.53 
  2721.3              35.860          100.2              2               44.489            1            -999.25             74.4           2687.83 
  2721.6              35.797           96.0              1               44.166            1            -999.25             74.1           2688.09 
  2721.9              35.733           99.3              1               43.843            1            -999.25            114.7           2688.39 
  2722.2              35.302           99.2              1               42.634            1            -999.25            134.8           2688.69 
  2722.5              34.870          101.1              1               41.424            1            -999.25            154.8           2688.99 
  2722.8              32.951           96.6              1               41.045            1            -999.25            172.1           2689.29 
  2723.1              28.766           89.6              1               38.230            1            -999.25            189.4           2689.54 
  2723.4              28.051           84.5              1               35.178            2            -999.25            157.8           2689.84 
  2723.7              26.863           80.8              1               33.815            1            -999.25            136.3           2690.14 
