~VERSION INFORMATION 
 VERS. 2.0: CWLS LOG ASCII STANDARD -VERSION 2.0 
 WRAP.  No: SINGLE LINE PER DEPTH STEP
~WELL INFORMATION BLOCK 
#MNEM.UNIT			     DATA			   DESCRIPTION OF MNEMONIC
#----------------------------------------------------------------------
 STRT.ft                  975.0                                             : Start Depth
 STOP.ft                  6243.9                                            : Stop  Depth
 STEP.ft                  0.3                                               : Step  Depth
 NULL.                    -999.25                                           : Null value
 COMP.                    Lewis Energy Colombia                             : Company Name
 WELL.                    Caramelo 5                                        : Well Name
 PATH.                                                                      : Path Name
 FLD.                     Caramelo                                          : Field Name
 LOC.                     Caramelo                                          : Location
 PROV.                    Unused                                            : Province
 SRVC.                    BAKER HUGHES INTEQ                                : Service Company Name
 Date.                    23/11/2017-22:12:37 E. South America Daylight Time: System Date
 UWI.                                                                       : Unique Well ID
 TIMEZONE.Hrs             -2                                                : Time zone difference from GMT 
~CURVE INFORMATION
#MNEM.UNIT                 CURVE INFORMATION
#
#----------------------------------------------------------------------
DEPTH.ft                                     :   0 Depth Hole
RPCHM.ohm.m                                  :   1 Resistivity Phase - Corrected - 2MHz
GRAFM.API                                    :   2 Gamma Ray - Apparent Filtered
GRIM.unitless                                :   3 Gamma Ray Data Point Indicator
RPCLM.ohm.m                                  :   4 Resistivity Phase - Corrected - 400kHz
RPHIM.unitless                               :   5 Resistivity Phase - Data Point Indicator - 2MHz
TCDM.degF                                    :   6 Downhole Temperature
ROP_AVG.ft/hr                                :   7 Rate of Penetration
TVD.ft                                       :   8 True Vertical Depth
#----------------------------------------------------------------------
~O
Disclaimer
Any opinion and / or recommendation expressed orally or written herein, has been prepared
carefully and may be used if the user so elects, however, no representative or warranty is
made by ourselves or our agents as to the correctness or completeness, and no liability is
assumed for any damages resulting from use of the same.  Baker Hughes's liabilities and obligations
shall be governed by Baker Hughes's Standard Terms and Conditions.
Creator
Export
#----------------------------------------------------------------------
#
	# Curve name cross reference:  XREF 'LAS Name' 'XTF Short Name' 'XTF Structured Name'
#
XREF DEPTH DEPTH DEPTH
XREF RPCHM RPCHM CRES.RPCHM
XREF GRAFM GRAFM FGAM.GRAFM
XREF GRIM GRIM GAM.GRIM
XREF RPCLM RPCLM CRES.RPCLM
XREF RPHIM RPHIM CRES.RPHIM
XREF TCDM TCDM GEN.TCDM
XREF ROP_AVG ROPAVG DRILLD.ROP_AVG
XREF TVD TVD DRILLD.TVD
~A
  975.0           60501.172           34.3         -999.25              27.804            2            -999.25          -999.25           -999.25 
  975.3           60501.172           35.2              1               16.695            1            -999.25          -999.25           -999.25 
  975.6           60501.172           36.4              1               18.071            1            -999.25          -999.25           -999.25 
  975.9           60501.172           37.9              1               18.029            1            -999.25          -999.25           -999.25 
  976.2           60501.172           39.6              1               17.723            1            -999.25          -999.25           -999.25 
  976.5           60501.172           38.3              1               17.417            1            -999.25          -999.25           -999.25 
  976.8           60501.172           36.4              1               20.968            1            -999.25          -999.25           -999.25 
  977.1           60501.172           35.8              1               21.165            1            -999.25          -999.25           -999.25 
  977.4           60501.172           36.6              1               21.361            1            -999.25          -999.25           -999.25 
  977.7           60501.172           37.8              1               21.997            1            -999.25          -999.25           -999.25 
  978.0           60501.172           38.5              1               22.633            1            -999.25          -999.25           -999.25 
  978.3           60501.172           36.9              2               23.270            1            -999.25          -999.25           -999.25 
  978.6           60501.172           35.9              3               19.645            1            -999.25          -999.25           -999.25 
  978.9           60501.172           35.6              1               16.021            1            -999.25          -999.25           -999.25 
  979.2           60501.172           34.1              1               18.070            2            -999.25          -999.25           -999.25 
  979.5           60501.172           32.5              1               20.118            2            -999.25          -999.25           -999.25 
  979.8           60501.172           31.3              1               22.285            2              114.2          -999.25           -999.25 
  980.1           60501.172           30.2              1               24.452            1            -999.25          -999.25           -999.25 
  980.4           60501.172           29.3              1               25.082            1            -999.25          -999.25           -999.25 
  980.7           60501.172           32.9              1               25.712            1            -999.25          -999.25           -999.25 
  981.0           60501.172           31.5              1               26.342            1            -999.25          -999.25           -999.25 
  981.3           60501.172           29.3              1               36.092            1            -999.25          -999.25           -999.25 
  981.6           60501.172           28.9              1               40.214            1            -999.25          -999.25           -999.25 
  981.9           60501.172           28.4              2               44.337            1            -999.25          -999.25           -999.25 
  982.2           60501.172           28.3              2               31.628            1            -999.25          -999.25           -999.25 
  982.5           60501.172           29.5              2               28.654            1            -999.25          -999.25           -999.25 
  982.8           60501.172           30.5              1               27.403            1            -999.25          -999.25           -999.25 
  983.1           60501.172           30.3              1               26.153            1            -999.25          -999.25           -999.25 
  983.4           60501.172           30.1              1               40.545            1            -999.25          -999.25           -999.25 
  983.7           60501.172           30.5              1               34.094            1            -999.25          -999.25           -999.25 
  984.0           60501.172           30.5              1               27.643            1            -999.25          -999.25           -999.25 
  984.3           60501.172           29.6              1               21.191            1            -999.25          -999.25           -999.25 
  984.6           60501.172           28.9              1               27.136            1            -999.25          -999.25           -999.25 
  984.9           60501.172           26.6              1               33.082            1            -999.25          -999.25           -999.25 
  985.2           60501.172           21.9              1               26.350            2            -999.25          -999.25           -999.25 
  985.5           60501.172           21.2              1               19.617            2              114.6          -999.25           -999.25 
  985.8           60501.172           20.9              1               19.733            2              114.6          -999.25           -999.25 
  986.1           60501.172           22.0              1               19.849            1              114.7          -999.25           -999.25 
  986.4           60501.172           23.2              1               19.965            1              114.7          -999.25           -999.25 
  986.7           60501.172           24.0              1               22.857            1              114.8          -999.25           -999.25 
  987.0           60501.172           25.1              2               25.748            1              114.8          -999.25           -999.25 
  987.3           60501.172           28.4              1               22.214            1              114.9          -999.25           -999.25 
  987.6           60501.172           30.9              1               18.681            1              114.9          -999.25           -999.25 
  987.9           60501.172           29.8              1               18.802            1              114.9          -999.25           -999.25 
  988.2           60501.172           29.4              1               18.924            1              115.0          -999.25           -999.25 
  988.5           60501.172           28.1              1               19.046            1              115.0          -999.25           -999.25 
  988.8           60501.172           26.8              1               18.835            1              115.1          -999.25           -999.25 
  989.1           60501.172           27.4              1               18.625            1              115.1          -999.25           -999.25 
  989.4           60501.172           30.4              1               18.415            1            -999.25          -999.25           -999.25 
  989.7           30643.646           30.4              1               18.264            1            -999.25          -999.25           -999.25 
  990.0             786.121           29.3              1               18.114            1            -999.25          -999.25           -999.25 
  990.3             496.330           28.9              1               14.963            1            -999.25          -999.25           -999.25 
  990.6             206.538           26.9              1               11.813            1            -999.25          -999.25           -999.25 
  990.9             436.195           24.2              1               12.956            1            -999.25          -999.25           -999.25 
  991.2             665.852           25.3              1               14.100            1            -999.25          -999.25           -999.25 
