~VERSION INFORMATION 
 VERS. 2.0: CWLS LOG ASCII STANDARD -VERSION 2.0 
 WRAP.  No: SINGLE LINE PER DEPTH STEP
~WELL INFORMATION BLOCK 
#MNEM.UNIT			     DATA			   DESCRIPTION OF MNEMONIC
#----------------------------------------------------------------------
 STRT.ft                  975.0                                             : Start Depth
 STOP.ft                  6243.9                                            : Stop  Depth
 STEP.ft                  0.3                                               : Step  Depth
 NULL.                    -999.25                                           : Null value
 COMP.                    Lewis Energy Colombia                             : Company Name
 WELL.                    Caramelo 5                                        : Well Name
 PATH.                                                                      : Path Name
 FLD.                     Caramelo                                          : Field Name
 LOC.                     Caramelo                                          : Location
 PROV.                    Unused                                            : Province
 SRVC.                    BAKER HUGHES INTEQ                                : Service Company Name
 Date.                    23/11/2017-22:12:37 E. South America Daylight Time: System Date
 UWI.                                                                       : Unique Well ID
 TIMEZONE.Hrs             -2                                                : Time zone difference from GMT 
~CURVE INFORMATION
#MNEM.UNIT                 CURVE INFORMATION
#
#----------------------------------------------------------------------
DEPTH.ft                                     :   0 Depth Hole
RPCHM.ohm.m                                  :   1 Resistivity Phase - Corrected - 2MHz
GRAFM.API                                    :   2 Gamma Ray - Apparent Filtered
GRIM.unitless                                :   3 Gamma Ray Data Point Indicator
RPCLM.ohm.m                                  :   4 Resistivity Phase - Corrected - 400kHz
RPHIM.unitless                               :   5 Resistivity Phase - Data Point Indicator - 2MHz
TCDM.degF                                    :   6 Downhole Temperature
ROP_AVG.ft/hr                                :   7 Rate of Penetration
TVD.ft                                       :   8 True Vertical Depth
#----------------------------------------------------------------------
~O
Disclaimer
Any opinion and / or recommendation expressed orally or written herein, has been prepared
carefully and may be used if the user so elects, however, no representative or warranty is
made by ourselves or our agents as to the correctness or completeness, and no liability is
assumed for any damages resulting from use of the same.  Baker Hughes's liabilities and obligations
shall be governed by Baker Hughes's Standard Terms and Conditions.
Creator
Export
#----------------------------------------------------------------------
#
	# Curve name cross reference:  XREF 'LAS Name' 'XTF Short Name' 'XTF Structured Name'
#
XREF DEPTH DEPTH DEPTH
XREF RPCHM RPCHM CRES.RPCHM
XREF GRAFM GRAFM FGAM.GRAFM
XREF GRIM GRIM GAM.GRIM
XREF RPCLM RPCLM CRES.RPCLM
XREF RPHIM RPHIM CRES.RPHIM
XREF TCDM TCDM GEN.TCDM
XREF ROP_AVG ROPAVG DRILLD.ROP_AVG
XREF TVD TVD DRILLD.TVD
~A
# ...
  4110.0               9.264          115.5              1                8.573            1              141.9             52.0           3896.96 
  4110.3               8.856          117.4              2                8.430            1              142.0             41.5           3897.14 
  4110.6               8.708          121.8              1                8.297            1            -999.25             30.9           3897.31 
  4110.9               8.550          126.1              1                8.265            1            -999.25             24.6           3897.61 
  4111.2               8.392          128.2              1                8.232            1            -999.25             28.1           3897.82 
  4111.5               8.275          129.0              1                8.157            1            -999.25             31.5           3898.00 
  4111.8               8.159          128.6              1                8.082            2            -999.25             69.7           3898.17 
  4112.1               8.042          128.4              1                8.006            2            -999.25            107.9           3898.34 
  4112.4               7.622          134.5              1                7.722            1            -999.25            180.8           3898.64 
  4112.7               7.391          135.5              1                7.440            1            -999.25            193.7           3898.86 
  4113.0               7.184          134.4              1                7.377            1            -999.25            206.6           3899.03 
  4113.3               7.203          135.2              1                7.377            1            -999.25            195.0           3899.20 
  4113.6               6.965          135.7              1                7.314            1            -999.25            183.5           3899.37 
  4113.9               6.908          136.5              1                7.149            1            -999.25            185.8           3899.67 
  4114.2               7.028          137.7              1                7.191            1            -999.25            185.8           3899.89 
  4114.5               7.025          138.9              1                7.166            1            -999.25            185.8           3900.06 
  4114.8               6.623          139.8              1                6.930            1            -999.25            178.2           3900.23 
  4115.1               6.326          141.2              2                6.718            1            -999.25            170.7           3900.40 
  4115.4               6.127          143.1              2                6.546            1            -999.25            182.7           3900.70 
  4115.7               5.935          145.2              2                6.434            2            -999.25            175.5           3900.92 
  4116.0               5.827          145.1              1                6.352            1            -999.25            168.3           3901.09 
  4116.3               5.769          146.0              1                6.268            1            -999.25            174.2           3901.26 
  4116.6               5.759          146.8              1                6.234            1            -999.25            180.1           3901.44 
  4116.9               5.811          144.0              1                6.241            1            -999.25            178.0           3901.74 
  4117.2               5.800          141.8              1                6.206            1            -999.25            175.4           3901.95 
  4117.5               5.715          142.2              1                6.173            2            -999.25            172.8           3902.12 
  4117.8               5.657          141.1              1                6.096            1            -999.25            173.3           3902.29 
  4118.1               5.666          139.9              1                6.080            1            -999.25            173.9           3902.46 
  4118.4               5.740          138.3              2                6.109            1            -999.25            173.9           3902.76 
  4118.7               5.833          134.4              1                6.139            1            -999.25            173.7           3902.98 
  4119.0               5.776          131.6              1                6.099            1            -999.25            173.6           3903.15 
  4119.3               5.736          128.7              1                6.044            2            -999.25            161.4           3903.32 
  4119.6               5.863          125.3              1                6.112            1            -999.25            149.2           3903.49 
  4119.9               6.026          127.2              2                6.169            1            -999.25            169.7           3903.79 
  4120.2               5.884          129.7              1                6.089            1            -999.25            166.7           3904.01 
  4120.5               5.838          127.5              1                6.021            1            -999.25            163.6           3904.18 
  4120.8               5.873          128.8              1                6.031            1              142.3            186.7           3904.35 
  4121.1               5.906          134.6              1                6.027            2            -999.25            209.8           3904.52 
  4121.4               5.952          139.7              1                6.027            1            -999.25            142.7           3904.82 
  4121.7               6.036          139.8              2                6.086            1            -999.25            149.4           3905.04 
  4122.0               6.134          140.9              1                6.070            1            -999.25            156.1           3905.21 
  4122.3               6.285          140.4              1                6.126            1            -999.25            176.9           3905.38 
  4122.6               6.365          138.2              1                6.173            1            -999.25            197.7           3905.55 
  4122.9               6.420          137.2              1                6.166            1            -999.25            265.1           3905.85 
  4123.2               6.420          134.7              1                6.142            2            -999.25            263.1           3906.06 
  4123.5               6.301          132.4              2                6.060            1            -999.25            261.1           3906.23 
  4123.8               6.130          130.0              1                5.964            1            -999.25            224.4           3906.40 
  4124.1               6.164          127.1              1                5.935            1            -999.25            187.7           3906.57 
  4124.4               6.275          129.7              1                5.992            1            -999.25            217.0           3906.87 
  4124.7               6.144          136.7              1                5.916            2            -999.25            205.4           3907.09 
  4125.0               5.939          138.9              1                5.781            1            -999.25            193.8           3907.26 
  4125.3               5.890          135.7              1                5.724            1            -999.25            192.7           3907.43 
  4125.6               5.841          137.2              2                5.677            1            -999.25            191.7           3907.60 
  4125.9               5.753          142.9              1                5.593            1            -999.25            192.1           3907.90 
  4126.2               5.696          147.1              1                5.568            1            -999.25            190.3           3908.11 
