~VERSION INFORMATION 
 VERS. 2.0: CWLS LOG ASCII STANDARD -VERSION 2.0 
 WRAP.  No: SINGLE LINE PER DEPTH STEP
~WELL INFORMATION BLOCK 
#MNEM.UNIT			     DATA			   DESCRIPTION OF MNEMONIC
#----------------------------------------------------------------------
 STRT.ft                  975.0                                             : Start Depth
 STOP.ft                  6243.9                                            : Stop  Depth
 STEP.ft                  0.3                                               : Step  Depth
 NULL.                    -999.25                                           : Null value
 COMP.                    Lewis Energy Colombia                             : Company Name
 WELL.                    Caramelo 5                                        : Well Name
 PATH.                                                                      : Path Name
 FLD.                     Caramelo                                          : Field Name
 LOC.                     Caramelo                                          : Location
 PROV.                    Unused                                            : Province
 SRVC.                    BAKER HUGHES INTEQ                                : Service Company Name
 Date.                    23/11/2017-22:12:37 E. South America Daylight Time: System Date
 UWI.                                                                       : Unique Well ID
 TIMEZONE.Hrs             -2                                                : Time zone difference from GMT 
~CURVE INFORMATION
#MNEM.UNIT                 CURVE INFORMATION
#
#----------------------------------------------------------------------
DEPTH.ft                                     :   0 Depth Hole
RPCHM.ohm.m                                  :   1 Resistivity Phase - Corrected - 2MHz
GRAFM.API                                    :   2 Gamma Ray - Apparent Filtered
GRIM.unitless                                :   3 Gamma Ray Data Point Indicator
RPCLM.ohm.m                                  :   4 Resistivity Phase - Corrected - 400kHz
RPHIM.unitless                               :   5 Resistivity Phase - Data Point Indicator - 2MHz
TCDM.degF                                    :   6 Downhole Temperature
ROP_AVG.ft/hr                                :   7 Rate of Penetration
TVD.ft                                       :   8 True Vertical Depth
#----------------------------------------------------------------------
~O
Disclaimer
Any opinion and / or recommendation expressed orally or written herein, has been prepared
carefully and may be used if the user so elects, however, no representative or warranty is
made by ourselves or our agents as to the correctness or completeness, and no liability is
assumed for any damages resulting from use of the same.  Baker Hughes's liabilities and obligations
shall be governed by Baker Hughes's Standard Terms and Conditions.
Creator
Export
#----------------------------------------------------------------------
#
	# Curve name cross reference:  XREF 'LAS Name' 'XTF Short Name' 'XTF Structured Name'
#
XREF DEPTH DEPTH DEPTH
XREF RPCHM RPCHM CRES.RPCHM
XREF GRAFM GRAFM FGAM.GRAFM
XREF GRIM GRIM GAM.GRIM
XREF RPCLM RPCLM CRES.RPCLM
XREF RPHIM RPHIM CRES.RPHIM
XREF TCDM TCDM GEN.TCDM
XREF ROP_AVG ROPAVG DRILLD.ROP_AVG
XREF TVD TVD DRILLD.TVD
~A
# ...
  3400.5               6.516          130.7              1                6.664            1              142.5             51.0           3330.16 
  3400.8               6.446          132.7              1                6.828            1              142.5             57.0           3330.38 
  3401.1               6.347          133.6              1                6.852            1              142.5             63.0           3330.60 
  3401.4               6.315          131.0              1                6.804            1              142.5             66.4           3330.90 
  3401.7               6.283          131.7              2                6.757            1              142.5             66.8           3331.20 
  3402.0               6.206          130.8              1                6.718            1              142.5             67.2           3331.49 
  3402.3               6.052          127.7              1                6.615            2              142.5             67.3           3331.72 
  3402.6               5.924          124.2              1                6.551            1              142.5             67.4           3331.94 
  3402.9               5.924          121.3              1                6.566            1              142.5             68.5           3332.24 
  3403.2               5.980          123.8              1                6.596            1              142.5             66.9           3332.54 
  3403.5               5.992          124.5              1                6.596            1              142.5             65.3           3332.83 
  3403.8               5.968          119.7              1                6.604            1              142.5             65.8           3333.05 
  3404.1               5.938          117.8              1                6.619            1              142.5             66.3           3333.27 
  3404.4               5.911          117.3              1                6.596            1              142.5             67.0           3333.57 
  3404.7               5.906          118.1              1                6.619            1              142.5             68.3           3333.87 
  3405.0               5.895          119.0              1                6.641            2              142.5             69.6           3334.16 
  3405.3               5.982          118.6              2                6.687            1              142.5             69.6           3334.39 
  3405.6               6.091          115.9              1                6.796            1              142.4             69.6           3334.61 
  3405.9               6.137          116.2              1                6.852            1              142.4             67.5           3334.91 
  3406.2               6.301          113.2              1                6.989            1              142.4             66.9           3335.21 
  3406.5               6.565          113.0              1                7.166            1              142.4             66.3           3335.50 
  3406.8               6.745          113.1              1                7.341            1              142.4             71.2           3335.72 
  3407.1               6.897          113.0              1                7.373            2              142.4             76.1           3335.94 
  3407.4               7.047          111.2              1                7.495            1              142.4             72.9           3336.24 
  3407.7               7.232          109.8              1                7.650            1              142.4             71.3           3336.54 
  3408.0               7.437          106.4              2                7.771            1              142.4             69.6           3336.83 
  3408.3               7.661          100.0              1                7.940            1              142.4             64.3           3337.06 
  3408.6               8.070           90.3              1                8.126            1              142.4             59.0           3337.28 
  3408.9               8.760           74.9              1                8.441            1              142.4             46.1           3337.58 
  3409.2               9.643           62.3              1                8.986            1              142.4             42.1           3337.88 
  3409.5              10.107           60.9              1                9.236            2              142.4             38.0           3338.17 
  3409.8              10.080           65.4              1                9.275            1              142.4             40.5           3338.39 
  3410.1               9.979           75.7              1                9.210            1              142.3             43.1           3338.61 
  3410.4               9.362           92.4              2                8.858            1              142.3             52.5           3338.91 
  3410.7               8.544          110.1              1                8.531            1              142.3             58.9           3339.21 
  3411.0               7.916          118.7              1                8.254            1              142.3             65.4           3339.50 
  3411.3               7.498          122.7              1                8.043            1              142.3             64.7           3339.72 
  3411.6               7.457          125.2              1                8.032            1              142.3             64.1           3339.95 
  3411.9               7.382          125.0              1                7.966            2              142.3             58.5           3340.25 
  3412.2               7.171          124.0              1                7.845            1              142.3             67.8           3340.55 
  3412.5               7.071          126.8              2                7.790            1              142.3             77.2           3340.83 
  3412.8               7.059          125.6              1                7.751            1              142.3             71.0           3341.06 
  3413.1               7.019          124.2              1                7.761            1              142.3             64.7           3341.28 
  3413.4               7.058          126.6              1                7.698            1              142.3             68.6           3341.58 
  3413.7               7.115          126.2              1                7.790            1              142.3             73.0           3341.88 
  3414.0               7.077          124.0              1                7.703            1              142.2             77.4           3342.17 
  3414.3               6.806          121.3              1                7.574            2              142.2             55.8           3342.39 
  3414.6               6.711          120.0              1                7.504            1              142.2             34.2           3342.61 
  3414.9               6.791          118.7              1                7.514            1              142.2             55.1           3342.91 
  3415.2               6.992          115.9              4                7.570            1              142.2             59.3           3343.21 
  3415.5               7.105          112.2              1                7.761            1              142.2             63.5           3343.50 
  3415.8               7.662          109.2              1                8.027            1              142.1             51.0           3343.72 
  3416.1               7.756          106.2              1                8.074            1              142.0             38.5           3343.94 
  3416.4               7.397          107.8              1                7.880            1              142.0             17.8           3344.24 
  3416.7               7.158          115.1              1                7.655            2              141.9             24.3           3344.54 
