~VERSION INFORMATION 
 VERS. 2.0: CWLS LOG ASCII STANDARD -VERSION 2.0 
 WRAP.  No: SINGLE LINE PER DEPTH STEP
~WELL INFORMATION BLOCK 
#MNEM.UNIT			     DATA			   DESCRIPTION OF MNEMONIC
#----------------------------------------------------------------------
 STRT.ft                  975.0                                             : Start Depth
 STOP.ft                  6243.9                                            : Stop  Depth
 STEP.ft                  0.3                                               : Step  Depth
 NULL.                    -999.25                                           : Null value
 COMP.                    Lewis Energy Colombia                             : Company Name
 WELL.                    Caramelo 5                                        : Well Name
 PATH.                                                                      : Path Name
 FLD.                     Caramelo                                          : Field Name
 LOC.                     Caramelo                                          : Location
 PROV.                    Unused                                            : Province
 SRVC.                    BAKER HUGHES INTEQ                                : Service Company Name
 Date.                    23/11/2017-22:12:37 E. South America Daylight Time: System Date
 UWI.                                                                       : Unique Well ID
 TIMEZONE.Hrs             -2                                                : Time zone difference from GMT 
~CURVE INFORMATION
#MNEM.UNIT                 CURVE INFORMATION
#
#----------------------------------------------------------------------
DEPTH.ft                                     :   0 Depth Hole
RPCHM.ohm.m                                  :   1 Resistivity Phase - Corrected - 2MHz
GRAFM.API                                    :   2 Gamma Ray - Apparent Filtered
GRIM.unitless                                :   3 Gamma Ray Data Point Indicator
RPCLM.ohm.m                                  :   4 Resistivity Phase - Corrected - 400kHz
RPHIM.unitless                               :   5 Resistivity Phase - Data Point Indicator - 2MHz
TCDM.degF                                    :   6 Downhole Temperature
ROP_AVG.ft/hr                                :   7 Rate of Penetration
TVD.ft                                       :   8 True Vertical Depth
#----------------------------------------------------------------------
~O
Disclaimer
Any opinion and / or recommendation expressed orally or written herein, has been prepared
carefully and may be used if the user so elects, however, no representative or warranty is
made by ourselves or our agents as to the correctness or completeness, and no liability is
assumed for any damages resulting from use of the same.  Baker Hughes's liabilities and obligations
shall be governed by Baker Hughes's Standard Terms and Conditions.
Creator
Export
#----------------------------------------------------------------------
#
	# Curve name cross reference:  XREF 'LAS Name' 'XTF Short Name' 'XTF Structured Name'
#
XREF DEPTH DEPTH DEPTH
XREF RPCHM RPCHM CRES.RPCHM
XREF GRAFM GRAFM FGAM.GRAFM
XREF GRIM GRIM GAM.GRIM
XREF RPCLM RPCLM CRES.RPCLM
XREF RPHIM RPHIM CRES.RPHIM
XREF TCDM TCDM GEN.TCDM
XREF ROP_AVG ROPAVG DRILLD.ROP_AVG
XREF TVD TVD DRILLD.TVD
~A
# ...
  3054.0              43.170          134.8              2               58.351            1              140.7             66.1           3009.34 
  3054.3              40.660          136.3              1               53.502            1              140.7             58.3           3009.63 
  3054.6              39.401          139.5              1               54.280            1              140.7             50.6           3009.87 
  3054.9              38.991          149.4              1               59.245            1              140.7             55.0           3010.17 
  3055.2              39.877          154.1              1               60.710            2              140.7             53.0           3010.47 
  3055.5              40.146          148.1              1               55.455            1              140.7             51.0           3010.77 
  3055.8              41.848          145.7              1               56.620            1              140.7             54.5           3011.06 
  3056.1              42.864          144.6              1               59.751            1              140.8             58.0           3011.30 
  3056.4              43.880          152.7              1               62.883            1              140.8             51.4           3011.60 
  3056.7              42.855          156.3              1               56.798            1              140.8             54.9           3011.90 
  3057.0              43.806          153.5              1               57.477            1              140.8             58.3           3012.20 
  3057.3              45.061          147.7              2               59.849            1              140.8             61.7           3012.49 
  3057.6              44.561          143.4              1               61.579            1              140.8             65.2           3012.73 
  3057.9              44.061          140.4              1               63.310            1              140.8             68.2           3013.03 
  3058.2              41.971          135.3              1               59.133            1              140.8             64.7           3013.33 
  3058.5              42.363          134.4              1               61.385            1              140.8             61.3           3013.63 
  3058.8              43.279          130.5              1               61.366            2              140.9             62.9           3013.92 
  3059.1              44.195          127.5              2               61.348            2              140.9             64.6           3014.16 
  3059.4              44.158          129.1              1               60.014            1              140.9             66.1           3014.46 
  3059.7              46.163          133.2              1               64.197            1              140.9             64.3           3014.76 
  3060.0              46.089          143.7              1               65.425            1              140.9             62.5           3015.06 
  3060.3              46.016          155.2              1               66.654            1              140.9             59.1           3015.35 
  3060.6              42.198          162.4              1               51.414            1              140.9             55.7           3015.59 
  3060.9              43.953          164.4              1               54.156            1              140.9             48.6           3015.89 
  3061.2              47.517          159.0              1               59.289            1              140.9             53.7           3016.19 
  3061.5              48.401          152.3              1               57.292            1              141.0             58.7           3016.49 
  3061.8              48.144          141.4              1               57.031            1              141.0             61.9           3016.78 
  3062.1              48.553          131.6              1               59.701            1              141.0             65.1           3017.02 
  3062.4              48.962          112.4              1               62.371            2              141.0             61.1           3017.32 
  3062.7              53.312           93.7              1               74.615            1              141.0             61.9           3017.62 
  3063.0              56.299           86.1              2               82.385            1              141.0             62.7           3017.92 
  3063.3              58.765           80.7              1               89.024            1              141.0             57.0           3018.21 
  3063.6              61.232           79.6              1               95.664            1              141.0             51.3           3018.44 
  3063.9              61.669           84.4              1               89.325            1              141.1             54.5           3018.74 
  3064.2              61.696           94.1              1               87.554            1              141.1             64.1           3019.04 
  3064.5              61.723           97.8              1               85.783            1              141.1             73.7           3019.34 
  3064.8              59.250          100.4              1               73.159            1              141.1             67.2           3019.63 
  3065.1              57.863          102.4              1               72.417            1              141.1             60.7           3019.87 
  3065.4              60.111          106.6              1               85.500            1              141.1             55.4           3020.17 
  3065.7              65.535          110.1              2              105.757            1              141.1             50.8           3020.47 
  3066.0              70.860          112.2              1              115.694            2              141.1             46.3           3020.77 
  3066.3              74.967          115.2              1              116.880            1              141.2             44.5           3021.06 
  3066.6              72.326          120.8              1              105.135            1              141.2             42.7           3021.30 
  3066.9              70.224          122.2              1              102.163            1              141.2             36.2           3021.60 
  3067.2              68.123          125.3              1               99.191            1              141.2             36.8           3021.90 
  3067.5              68.484          130.0              1               87.352            1              141.2             37.4           3022.20 
  3067.8              69.020          140.0              1               88.652            1              141.3             37.1           3022.49 
  3068.1              69.556          145.9              1               89.953            1              141.3             36.7           3022.73 
  3068.4              73.410          148.8              1               93.684            1              141.3             36.2           3023.03 
  3068.7              77.538          143.1              1              107.595            1              141.3             34.3           3023.33 
  3069.0              79.782          142.1              1              114.497            1              141.3             32.5           3023.63 
  3069.3              82.252          149.0              2              118.890            1              141.3             35.6           3023.92 
  3069.6              83.148          156.4              1              133.921            2              141.4             38.7           3024.15 
  3069.9              81.239          165.3              1              126.846            2              141.4             39.5           3024.45 
  3070.2              79.330          166.2              1              119.770            1              141.4             41.4           3024.75 
