~VERSION INFORMATION 
 VERS. 2.0: CWLS LOG ASCII STANDARD -VERSION 2.0 
 WRAP.  No: SINGLE LINE PER DEPTH STEP
~WELL INFORMATION BLOCK 
#MNEM.UNIT			     DATA			   DESCRIPTION OF MNEMONIC
#----------------------------------------------------------------------
 STRT.ft                  975.0                                             : Start Depth
 STOP.ft                  6243.9                                            : Stop  Depth
 STEP.ft                  0.3                                               : Step  Depth
 NULL.                    -999.25                                           : Null value
 COMP.                    Lewis Energy Colombia                             : Company Name
 WELL.                    Caramelo 5                                        : Well Name
 PATH.                                                                      : Path Name
 FLD.                     Caramelo                                          : Field Name
 LOC.                     Caramelo                                          : Location
 PROV.                    Unused                                            : Province
 SRVC.                    BAKER HUGHES INTEQ                                : Service Company Name
 Date.                    23/11/2017-22:12:37 E. South America Daylight Time: System Date
 UWI.                                                                       : Unique Well ID
 TIMEZONE.Hrs             -2                                                : Time zone difference from GMT 
~CURVE INFORMATION
#MNEM.UNIT                 CURVE INFORMATION
#
#----------------------------------------------------------------------
DEPTH.ft                                     :   0 Depth Hole
RPCHM.ohm.m                                  :   1 Resistivity Phase - Corrected - 2MHz
GRAFM.API                                    :   2 Gamma Ray - Apparent Filtered
GRIM.unitless                                :   3 Gamma Ray Data Point Indicator
RPCLM.ohm.m                                  :   4 Resistivity Phase - Corrected - 400kHz
RPHIM.unitless                               :   5 Resistivity Phase - Data Point Indicator - 2MHz
TCDM.degF                                    :   6 Downhole Temperature
ROP_AVG.ft/hr                                :   7 Rate of Penetration
TVD.ft                                       :   8 True Vertical Depth
#----------------------------------------------------------------------
~O
Disclaimer
Any opinion and / or recommendation expressed orally or written herein, has been prepared
carefully and may be used if the user so elects, however, no representative or warranty is
made by ourselves or our agents as to the correctness or completeness, and no liability is
assumed for any damages resulting from use of the same.  Baker Hughes's liabilities and obligations
shall be governed by Baker Hughes's Standard Terms and Conditions.
Creator
Export
#----------------------------------------------------------------------
#
	# Curve name cross reference:  XREF 'LAS Name' 'XTF Short Name' 'XTF Structured Name'
#
XREF DEPTH DEPTH DEPTH
XREF RPCHM RPCHM CRES.RPCHM
XREF GRAFM GRAFM FGAM.GRAFM
XREF GRIM GRIM GAM.GRIM
XREF RPCLM RPCLM CRES.RPCLM
XREF RPHIM RPHIM CRES.RPHIM
XREF TCDM TCDM GEN.TCDM
XREF ROP_AVG ROPAVG DRILLD.ROP_AVG
XREF TVD TVD DRILLD.TVD
~A
# ...
  4456.5               8.449          140.6              2                7.458            1              149.2            149.2           4119.43 
  4456.8               8.461          138.1              1                7.431            1              149.2            158.4           4119.58 
  4457.1               8.471          138.9              1                7.381            1              149.2            167.6           4119.72 
  4457.4               8.414          139.1              1                7.350            1              149.2            162.4           4120.01 
  4457.7               8.361          136.5              1                7.288            1              149.1            164.3           4120.16 
  4458.0               8.307          135.8              2                7.235            2              149.1            166.1           4120.31 
  4458.3               8.248          135.2              1                7.192            1              149.1            177.2           4120.45 
  4458.6               8.217          134.8              1                7.183            1              149.1            188.3           4120.60 
  4458.9               8.244          136.6              1                7.196            1              149.1            192.9           4120.89 
  4459.2               8.238          138.8              1                7.145            1              149.1            204.4           4121.03 
  4459.5               8.209          138.2              1                7.132            1              149.0            215.9           4121.18 
  4459.8               7.947          140.7              1                6.981            2              149.0            209.0           4121.33 
  4460.1               7.675          143.1              2                6.892            1              149.0            202.1           4121.47 
  4460.4               7.663          142.9              1                6.876            1              149.0            195.1           4121.76 
  4460.7               7.689          140.9              1                6.884            1              148.9            203.4           4121.91 
  4461.0               7.594          142.3              1                6.836            1              148.9            211.7           4122.05 
  4461.3               7.464          144.7              1                6.734            1              148.9            212.7           4122.20 
  4461.6               7.275          144.9              1                6.657            1              148.8            213.7           4122.34 
  4461.9               7.158          146.7              2                6.574            2              148.8            241.7           4122.63 
  4462.2               7.056          146.7              1                6.523            1              148.8            160.0           4122.78 
  4462.5               7.039          146.4              1                6.485            1              148.7             78.4           4122.92 
  4462.8               7.057          146.1              1                6.519            1              148.7             74.0           4123.07 
  4463.1               7.056          146.0              1                6.518            1              148.7             69.5           4123.21 
  4463.4               7.080          145.0              1                6.525            1              148.6             60.8           4123.50 
  4463.7               7.515          145.0              2                6.664            1              148.6             58.5           4123.65 
  4464.0               7.532          144.7              1                6.596            1              148.6             56.2           4123.79 
  4464.3               7.234          146.1              1                6.496            1              148.6             56.0           4123.94 
  4464.6               7.102          146.5              1                6.352            2              148.6             55.9           4124.08 
  4464.9               7.077          145.5              1                6.695            1              148.7             62.4           4124.37 
  4465.2               7.244          144.4              1                6.510            1              148.7             65.2           4124.52 
  4465.5               7.231          144.6              1                6.380            1              148.7             67.9           4124.66 
  4465.8               7.074          147.1              2                6.387            1              148.7             65.1           4124.81 
  4466.1               6.917          147.0              1                6.394            1              148.7             62.3           4124.95 
  4466.4               6.820          146.4              1                6.294            1              148.7             62.6           4125.24 
  4466.7               6.723          145.9              1                6.193            1              148.7             66.4           4125.39 
  4467.0               6.884          146.2              1                6.619            1              148.7             70.3           4125.53 
  4467.3               6.789          150.8              1                6.514            1              148.7             70.8           4125.68 
  4467.6               6.694          148.5              3                6.409            1              148.7             71.4           4125.82 
  4467.9               6.680          147.0              1                6.503            1            -999.25             60.7           4126.11 
  4468.2               6.746          145.0              1                6.587            1            -999.25             59.3           4126.26 
  4468.5               6.811          142.5              1                6.672            1            -999.25             57.9           4126.40 
  4468.8               6.825          142.9              1                6.619            2            -999.25             68.0           4126.55 
  4469.1               6.838          140.8              1                6.566            2            -999.25             78.1           4126.69 
  4469.4               7.049          142.6              1                6.705            1            -999.25             79.7           4126.98 
  4469.7               7.260          143.5              1                6.844            1            -999.25             79.3           4127.12 
  4470.0               6.700          140.9              1                6.589            1            -999.25             78.8           4127.27 
  4470.3               6.929          141.8              1                6.712            1            -999.25             77.9           4127.41 
  4470.6               7.158          142.9              1                6.836            1            -999.25             76.9           4127.56 
  4470.9               7.215          142.5              1                7.259            1            -999.25             79.1           4127.84 
  4471.2               7.601          144.0              1                7.620            1            -999.25             79.1           4127.99 
  4471.5               7.987          145.3              2                7.981            1            -999.25             79.0           4128.13 
  4471.8               7.893          146.1              2                7.866            1            -999.25             81.5           4128.28 
  4472.1               7.799          146.8              1                7.751            1            -999.25             83.9           4128.42 
  4472.4               7.865          148.5              1                7.751            1            -999.25             83.9           4128.71 
  4472.7               7.931          150.0              1                7.751            1              148.7             82.6           4128.85 
