~VERSION INFORMATION 
 VERS. 2.0: CWLS LOG ASCII STANDARD -VERSION 2.0 
 WRAP.  No: SINGLE LINE PER DEPTH STEP
~WELL INFORMATION BLOCK 
#MNEM.UNIT			     DATA			   DESCRIPTION OF MNEMONIC
#----------------------------------------------------------------------
 STRT.ft                  975.0                                             : Start Depth
 STOP.ft                  6243.9                                            : Stop  Depth
 STEP.ft                  0.3                                               : Step  Depth
 NULL.                    -999.25                                           : Null value
 COMP.                    Lewis Energy Colombia                             : Company Name
 WELL.                    Caramelo 5                                        : Well Name
 PATH.                                                                      : Path Name
 FLD.                     Caramelo                                          : Field Name
 LOC.                     Caramelo                                          : Location
 PROV.                    Unused                                            : Province
 SRVC.                    BAKER HUGHES INTEQ                                : Service Company Name
 Date.                    23/11/2017-22:12:37 E. South America Daylight Time: System Date
 UWI.                                                                       : Unique Well ID
 TIMEZONE.Hrs             -2                                                : Time zone difference from GMT 
~CURVE INFORMATION
#MNEM.UNIT                 CURVE INFORMATION
#
#----------------------------------------------------------------------
DEPTH.ft                                     :   0 Depth Hole
RPCHM.ohm.m                                  :   1 Resistivity Phase - Corrected - 2MHz
GRAFM.API                                    :   2 Gamma Ray - Apparent Filtered
GRIM.unitless                                :   3 Gamma Ray Data Point Indicator
RPCLM.ohm.m                                  :   4 Resistivity Phase - Corrected - 400kHz
RPHIM.unitless                               :   5 Resistivity Phase - Data Point Indicator - 2MHz
TCDM.degF                                    :   6 Downhole Temperature
ROP_AVG.ft/hr                                :   7 Rate of Penetration
TVD.ft                                       :   8 True Vertical Depth
#----------------------------------------------------------------------
~O
Disclaimer
Any opinion and / or recommendation expressed orally or written herein, has been prepared
carefully and may be used if the user so elects, however, no representative or warranty is
made by ourselves or our agents as to the correctness or completeness, and no liability is
assumed for any damages resulting from use of the same.  Baker Hughes's liabilities and obligations
shall be governed by Baker Hughes's Standard Terms and Conditions.
Creator
Export
#----------------------------------------------------------------------
#
	# Curve name cross reference:  XREF 'LAS Name' 'XTF Short Name' 'XTF Structured Name'
#
XREF DEPTH DEPTH DEPTH
XREF RPCHM RPCHM CRES.RPCHM
XREF GRAFM GRAFM FGAM.GRAFM
XREF GRIM GRIM GAM.GRIM
XREF RPCLM RPCLM CRES.RPCLM
XREF RPHIM RPHIM CRES.RPHIM
XREF TCDM TCDM GEN.TCDM
XREF ROP_AVG ROPAVG DRILLD.ROP_AVG
XREF TVD TVD DRILLD.TVD
~A
# ...
  5842.5              33.634           71.3              1               41.706            1            -999.25            130.8           4806.70 
  5842.8              33.590           69.6              1               42.917            2            -999.25            124.5           4806.83 
  5843.1              35.733           66.5              1               42.401            1            -999.25            118.3           4806.95 
  5843.4              36.721           67.8              1               44.708            1            -999.25            114.7           4807.20 
  5843.7              38.730           71.4              1               47.394            1            -999.25            113.9           4807.32 
  5844.0              41.880           72.7              2               52.358            1            -999.25            113.1           4807.44 
  5844.3              43.979           74.4              1               53.930            1            -999.25            104.4           4807.57 
  5844.6              43.707           75.6              1               56.498            2            -999.25             95.7           4807.69 
  5844.9              42.718           76.7              1               52.358            1            -999.25             89.6           4807.94 
  5845.2              40.670           75.1              1               49.854            1              154.0             90.4           4808.06 
  5845.5              38.777           73.8              1               49.175            1            -999.25             91.2           4808.18 
  5845.8              38.697           71.8              1               47.750            1            -999.25             94.7           4808.31 
  5846.1              38.730           67.5              2               50.788            1            -999.25             98.3           4808.43 
  5846.4              43.309           60.9              1               52.435            2            -999.25            113.1           4808.68 
  5846.7              47.420           54.8              1               62.510            1            -999.25            106.4           4808.80 
  5847.0              50.828           49.7              1               65.033            1            -999.25             99.7           4808.92 
  5847.3              51.294           42.5              1               66.641            1            -999.25             85.4           4809.05 
  5847.6              51.883           36.3              1               64.181            1            -999.25             71.1           4809.17 
  5847.9              51.290           29.0              1               65.932            1            -999.25             59.3           4809.42 
  5848.2              50.832           25.4              1               64.079            1            -999.25             61.8           4809.54 
  5848.5              50.751           25.1              1               65.033            1            -999.25             64.3           4809.66 
  5848.8              50.983           27.2              1               67.090            1            -999.25             63.8           4809.79 
  5849.1              52.726           33.3              1               70.511            1            -999.25             63.3           4809.91 
  5849.4              52.078           47.4              1               67.326            1            -999.25             68.3           4810.16 
  5849.7              48.196           61.7              2               61.656            2            -999.25             79.7           4810.28 
  5850.0              44.095           70.8              1               58.124            1            -999.25             91.0           4810.40 
  5850.3              40.416           78.3              1               54.381            1              154.3             99.3           4810.53 
  5850.6              38.697           87.6              1               49.820            1            -999.25            107.7           4810.65 
  5850.9              36.883           94.5              1               48.508            1            -999.25            129.5           4810.89 
  5851.2              34.363           97.7              1               45.751            1            -999.25            132.1           4811.02 
  5851.5              32.600           98.1              2               42.708            2            -999.25            134.6           4811.14 
  5851.8              32.379           96.2              1               44.060            1            -999.25            135.1           4811.26 
  5852.1              33.320           92.7              1               44.489            1            -999.25            135.5           4811.39 
  5852.4              35.339           86.7              1               45.956            1            -999.25            126.0           4811.63 
  5852.7              36.157           79.4              1               49.552            1            -999.25            141.8           4811.76 
  5853.0              38.240           77.9              1               49.552            1            -999.25            157.5           4811.88 
  5853.3              39.828           77.8              2               52.955            2            -999.25            140.7           4812.00 
  5853.6              40.597           79.6              1               53.565            1            -999.25            123.8           4812.13 
  5853.9              42.661           82.4              1               57.169            1            -999.25            108.4           4812.37 
  5854.2              47.303           85.9              1               57.874            1            -999.25             98.8           4812.50 
  5854.5              49.998           89.5              1               66.390            1            -999.25             89.2           4812.62 
  5854.8              48.477           90.8              1               61.656            1            -999.25             86.3           4812.74 
  5855.1              45.410           90.5              2               61.656            1            -999.25             83.3           4812.87 
  5855.4              40.649           94.7              1               50.919            1            -999.25            164.1           4813.11 
  5855.7              36.853           94.0              1               48.507            1            -999.25            161.3           4813.24 
  5856.0              34.870           94.7              1               49.287            1            -999.25            158.5           4813.36 
  5856.3              35.401           97.0              1               48.636            2            -999.25            169.5           4813.48 
  5856.6              35.944          103.6              1               44.929            1            -999.25            180.5           4813.61 
  5856.9              34.861          111.8              2               45.528            1            -999.25            173.3           4813.85 
  5857.2              70.443          112.3              1               80.889            1            -999.25            179.0           4813.98 
  5857.5              76.912          112.0              1               87.377            1            -999.25            184.6           4814.10 
  5857.8              83.845          113.8              1               91.135            1            -999.25            152.2           4814.22 
  5858.1              87.507          116.3              1               91.372            1            -999.25            119.7           4814.35 
  5858.4              88.171          119.0              1               89.657            1            -999.25            120.2           4814.59 
  5858.7              88.709          135.3              1               89.393            1              154.6            111.0           4814.72 
