~VERSION INFORMATION 
 VERS. 2.0: CWLS LOG ASCII STANDARD -VERSION 2.0 
 WRAP.  No: SINGLE LINE PER DEPTH STEP
~WELL INFORMATION BLOCK 
#MNEM.UNIT			     DATA			   DESCRIPTION OF MNEMONIC
#----------------------------------------------------------------------
 STRT.ft                  975.0                                             : Start Depth
 STOP.ft                  6243.9                                            : Stop  Depth
 STEP.ft                  0.3                                               : Step  Depth
 NULL.                    -999.25                                           : Null value
 COMP.                    Lewis Energy Colombia                             : Company Name
 WELL.                    Caramelo 5                                        : Well Name
 PATH.                                                                      : Path Name
 FLD.                     Caramelo                                          : Field Name
 LOC.                     Caramelo                                          : Location
 PROV.                    Unused                                            : Province
 SRVC.                    BAKER HUGHES INTEQ                                : Service Company Name
 Date.                    23/11/2017-22:12:37 E. South America Daylight Time: System Date
 UWI.                                                                       : Unique Well ID
 TIMEZONE.Hrs             -2                                                : Time zone difference from GMT 
~CURVE INFORMATION
#MNEM.UNIT                 CURVE INFORMATION
#
#----------------------------------------------------------------------
DEPTH.ft                                     :   0 Depth Hole
RPCHM.ohm.m                                  :   1 Resistivity Phase - Corrected - 2MHz
GRAFM.API                                    :   2 Gamma Ray - Apparent Filtered
GRIM.unitless                                :   3 Gamma Ray Data Point Indicator
RPCLM.ohm.m                                  :   4 Resistivity Phase - Corrected - 400kHz
RPHIM.unitless                               :   5 Resistivity Phase - Data Point Indicator - 2MHz
TCDM.degF                                    :   6 Downhole Temperature
ROP_AVG.ft/hr                                :   7 Rate of Penetration
TVD.ft                                       :   8 True Vertical Depth
#----------------------------------------------------------------------
~O
Disclaimer
Any opinion and / or recommendation expressed orally or written herein, has been prepared
carefully and may be used if the user so elects, however, no representative or warranty is
made by ourselves or our agents as to the correctness or completeness, and no liability is
assumed for any damages resulting from use of the same.  Baker Hughes's liabilities and obligations
shall be governed by Baker Hughes's Standard Terms and Conditions.
Creator
Export
#----------------------------------------------------------------------
#
	# Curve name cross reference:  XREF 'LAS Name' 'XTF Short Name' 'XTF Structured Name'
#
XREF DEPTH DEPTH DEPTH
XREF RPCHM RPCHM CRES.RPCHM
XREF GRAFM GRAFM FGAM.GRAFM
XREF GRIM GRIM GAM.GRIM
XREF RPCLM RPCLM CRES.RPCLM
XREF RPHIM RPHIM CRES.RPHIM
XREF TCDM TCDM GEN.TCDM
XREF ROP_AVG ROPAVG DRILLD.ROP_AVG
XREF TVD TVD DRILLD.TVD
~A
# ...
  2014.5               8.810           33.1              1                9.042            1              135.8            249.9           2005.53 
  2014.8               8.865           32.6              1                9.210            1              135.7            254.4           2005.83 
  2015.1               8.892           31.8              1                9.109            1              135.6            258.9           2006.13 
  2015.4               8.918           35.1              1                9.008            1              135.5            234.0           2006.43 
  2015.7               8.945           38.0              1                8.907            1            -999.25            209.1           2006.70 
  2016.0               7.971           38.7              1                8.415            1            -999.25            187.3           2007.00 
  2016.3               6.996           39.9              1                7.923            1            -999.25            195.5           2007.30 
  2016.6               6.022           39.8              1                7.431            1            -999.25            203.7           2007.60 
  2016.9               6.619           36.1              1                7.696            1            -999.25            227.3           2007.90 
  2017.2               7.215           34.7              1                7.960            1            -999.25            251.0           2008.16 
  2017.5               7.131           37.3              1                7.884            1            -999.25            259.3           2008.46 
  2017.8               7.046           40.8              1                7.808            1            -999.25            266.9           2008.76 
  2018.1               6.962           41.4              1                7.732            1            -999.25            274.6           2009.06 
  2018.4               6.941           38.5              1                7.684            1            -999.25            256.7           2009.36 
  2018.7               6.920           36.3              2                7.636            1            -999.25            238.7           2009.63 
  2019.0               6.899           36.8              2                7.588            1            -999.25            252.9           2009.93 
  2019.3               6.711           38.2              1                7.451            2            -999.25            255.9           2010.23 
  2019.6               6.524           39.0              1                7.314            2            -999.25            258.9           2010.53 
  2019.9               6.777           38.7              1                7.493            2            -999.25            265.0           2010.83 
  2020.2               7.030           38.0              1                7.671            1            -999.25            271.1           2011.09 
  2020.5               7.283           38.2              1                7.850            1            -999.25            246.8           2011.39 
  2020.8               7.530           39.7              1                7.885            1            -999.25            223.5           2011.69 
  2021.1               7.778           41.1              1                7.920            1            -999.25            200.2           2011.99 
  2021.4               7.618           40.3              1                7.689            1            -999.25            195.9           2012.29 
  2021.7               7.458           36.7              1                7.458            1            -999.25            191.5           2012.55 
  2022.0               7.299           36.1              1                7.227            1            -999.25            192.8           2012.85 
  2022.3               6.909           36.0              1                6.949            1            -999.25            195.6           2013.15 
  2022.6               6.519           35.3              1                6.672            1            -999.25            198.5           2013.45 
  2022.9               6.130           34.9              1                6.394            1            -999.25            185.6           2013.75 
  2023.2               5.994           31.5              1                6.268            1            -999.25            172.6           2014.02 
  2023.5               5.859           29.6              1                6.141            1            -999.25            190.1           2014.32 
  2023.8               5.724           29.4              1                6.015            1            -999.25            202.8           2014.62 
  2024.1               5.556           29.0              1                5.854            1            -999.25            215.5           2014.92 
  2024.4               5.388           28.7              1                5.694            1            -999.25            225.6           2015.22 
  2024.7               5.220           30.3              1                5.534            1            -999.25            235.7           2015.48 
  2025.0               5.160           31.6              1                5.318            1            -999.25            248.4           2015.78 
  2025.3               5.100           31.7              1                5.101            1            -999.25            251.4           2016.08 
  2025.6               5.050           31.2              1                5.042            1            -999.25            254.3           2016.38 
  2025.9               5.000           30.6              1                4.982            1            -999.25            275.0           2016.68 
  2026.2               4.951           30.9              1                4.922            1            -999.25            295.7           2016.95 
  2026.5               4.835           31.9              2                4.701            1            -999.25            300.4           2017.25 
  2026.8               4.719           32.2              2                4.481            1            -999.25            247.6           2017.55 
  2027.1               4.427           32.4              2                4.317            1            -999.25            194.8           2017.85 
  2027.4               4.135           33.7              1                4.154            2            -999.25            191.0           2018.15 
  2027.7               3.842           34.1              1                3.991            2            -999.25            187.2           2018.41 
  2028.0               3.691           34.7              1                3.887            2            -999.25            310.3           2018.71 
  2028.3               3.539           35.7              1                3.783            1            -999.25            341.5           2019.01 
  2028.6               3.388           35.8              1                3.679            1            -999.25            372.7           2019.31 
  2028.9               3.331           39.9              1                3.614            1            -999.25            365.9           2019.61 
  2029.2               3.275           42.7              1                3.549            1            -999.25            359.0           2019.87 
  2029.5               3.487           41.7              1                3.648            1            -999.25            267.3           2020.17 
  2029.8               3.700           40.0              1                3.747            1            -999.25            273.4           2020.47 
  2030.1               3.912           39.5              1                3.846            1              135.6            279.4           2020.77 
  2030.4               4.194           34.1              1                3.984            1            -999.25            276.8           2021.07 
  2030.7               4.476           30.1              1                4.122            1            -999.25            274.2           2021.34 
