~VERSION INFORMATION 
 VERS. 2.0: CWLS LOG ASCII STANDARD -VERSION 2.0 
 WRAP.  No: SINGLE LINE PER DEPTH STEP
~WELL INFORMATION BLOCK 
#MNEM.UNIT			     DATA			   DESCRIPTION OF MNEMONIC
#----------------------------------------------------------------------
 STRT.ft                  975.0                                             : Start Depth
 STOP.ft                  6243.9                                            : Stop  Depth
 STEP.ft                  0.3                                               : Step  Depth
 NULL.                    -999.25                                           : Null value
 COMP.                    Lewis Energy Colombia                             : Company Name
 WELL.                    Caramelo 5                                        : Well Name
 PATH.                                                                      : Path Name
 FLD.                     Caramelo                                          : Field Name
 LOC.                     Caramelo                                          : Location
 PROV.                    Unused                                            : Province
 SRVC.                    BAKER HUGHES INTEQ                                : Service Company Name
 Date.                    23/11/2017-22:12:37 E. South America Daylight Time: System Date
 UWI.                                                                       : Unique Well ID
 TIMEZONE.Hrs             -2                                                : Time zone difference from GMT 
~CURVE INFORMATION
#MNEM.UNIT                 CURVE INFORMATION
#
#----------------------------------------------------------------------
DEPTH.ft                                     :   0 Depth Hole
RPCHM.ohm.m                                  :   1 Resistivity Phase - Corrected - 2MHz
GRAFM.API                                    :   2 Gamma Ray - Apparent Filtered
GRIM.unitless                                :   3 Gamma Ray Data Point Indicator
RPCLM.ohm.m                                  :   4 Resistivity Phase - Corrected - 400kHz
RPHIM.unitless                               :   5 Resistivity Phase - Data Point Indicator - 2MHz
TCDM.degF                                    :   6 Downhole Temperature
ROP_AVG.ft/hr                                :   7 Rate of Penetration
TVD.ft                                       :   8 True Vertical Depth
#----------------------------------------------------------------------
~O
Disclaimer
Any opinion and / or recommendation expressed orally or written herein, has been prepared
carefully and may be used if the user so elects, however, no representative or warranty is
made by ourselves or our agents as to the correctness or completeness, and no liability is
assumed for any damages resulting from use of the same.  Baker Hughes's liabilities and obligations
shall be governed by Baker Hughes's Standard Terms and Conditions.
Creator
Export
#----------------------------------------------------------------------
#
	# Curve name cross reference:  XREF 'LAS Name' 'XTF Short Name' 'XTF Structured Name'
#
XREF DEPTH DEPTH DEPTH
XREF RPCHM RPCHM CRES.RPCHM
XREF GRAFM GRAFM FGAM.GRAFM
XREF GRIM GRIM GAM.GRIM
XREF RPCLM RPCLM CRES.RPCLM
XREF RPHIM RPHIM CRES.RPHIM
XREF TCDM TCDM GEN.TCDM
XREF ROP_AVG ROPAVG DRILLD.ROP_AVG
XREF TVD TVD DRILLD.TVD
~A
# ...
  5149.5              15.806          145.2              1               14.008            1            -999.25            130.3           4465.08 
  5149.8              15.822          145.4              1               13.981            1            -999.25            123.4           4465.20 
  5150.1              15.866          144.9              1               13.927            1            -999.25            116.6           4465.32 
  5150.4              15.933          145.0              1               13.941            1            -999.25            117.9           4465.56 
  5150.7              16.000          143.5              1               13.954            1            -999.25            119.6           4465.68 
  5151.0              16.000          139.1              1               14.008            1            -999.25            121.3           4465.80 
  5151.3              16.000          138.2              1               14.062            1            -999.25            123.8           4465.92 
  5151.6              16.112          139.6              1               13.901            2            -999.25            126.3           4466.04 
  5151.9              16.033          141.8              1               13.821            1            -999.25            124.4           4466.28 
  5152.2              16.192          136.5              1               14.089            1            -999.25            132.1           4466.40 
  5152.5              16.198          139.3              1               14.089            1            -999.25            139.8           4466.52 
  5152.8              16.204          141.0              1               14.089            1            -999.25            156.9           4466.65 
  5153.1              16.158          140.8              2               14.089            1            -999.25            174.0           4466.77 
  5153.4              16.112          145.0              2               14.089            1            -999.25            151.1           4467.01 
  5153.7              16.204          148.4              1               14.089            1            -999.25            155.1           4467.13 
  5154.0              16.226          145.8              1               13.981            1            -999.25            159.0           4467.25 
  5154.3              16.204          145.2              1               13.954            1            -999.25            158.7           4467.37 
  5154.6              16.215          146.5              1               13.967            1              153.6            158.4           4467.49 
  5154.9              16.226          143.3              1               13.981            1            -999.25            161.2           4467.73 
  5155.2              16.221          140.6              1               13.954            1            -999.25            146.4           4467.85 
  5155.5              16.215          144.6              1               13.927            1            -999.25            131.6           4467.97 
  5155.8              16.319          146.6              1               13.848            2            -999.25            149.3           4468.09 
  5156.1              16.347          148.1              1               13.874            2            -999.25            166.9           4468.21 
  5156.4              16.376          150.7              1               13.901            1            -999.25            144.8           4468.45 
  5156.7              16.371          149.9              1               13.861            1            -999.25            137.3           4468.57 
  5157.0              16.365          149.9              1               13.821            1            -999.25            129.9           4468.69 
  5157.3              16.169          149.9              1               13.639            1            -999.25            132.9           4468.81 
  5157.6              16.007          144.5              1               13.588            1            -999.25            135.8           4468.93 
  5157.9              15.844          142.6              2               13.537            1            -999.25            166.3           4469.17 
  5158.2              15.658          143.3              1               13.411            1            -999.25            153.2           4469.30 
  5158.5              15.594          143.9              1               13.362            1            -999.25            140.1           4469.42 
  5158.8              15.529          145.6              1               13.312            1            -999.25            145.8           4469.54 
  5159.1              15.455          145.2              1               13.203            1            -999.25            151.5           4469.66 
  5159.4              15.381          141.9              1               13.094            1            -999.25            144.8           4469.90 
  5159.7              15.235          139.8              1               13.022            1            -999.25            142.0           4470.02 
  5160.0              15.092          139.6              1               12.906            1            -999.25            139.2           4470.14 
  5160.3              14.949          139.2              1               12.789            1            -999.25            162.6           4470.26 
  5160.6              14.959          141.4              1               12.698            2            -999.25            186.0           4470.38 
  5160.9              14.691          145.3              1               12.519            1            -999.25            154.8           4470.62 
  5161.2              14.403          146.7              1               12.366            1            -999.25            151.5           4470.74 
  5161.5              14.384          149.2              1               12.333            1            -999.25            148.1           4470.86 
  5161.8              14.365          151.2              1               12.301            1            -999.25            142.3           4470.98 
  5162.1              14.160          147.4              2               12.216            1            -999.25            136.4           4471.10 
  5162.4              14.087          142.5              2               12.122            1            -999.25            169.7           4471.34 
  5162.7              14.014          138.8              1               12.028            1            -999.25            162.6           4471.46 
  5163.0              13.888          139.0              1               12.028            1            -999.25            155.4           4471.58 
  5163.3              13.667          139.1              1               11.885            1            -999.25            150.5           4471.70 
  5163.6              13.645          138.5              1               11.915            1            -999.25            145.7           4471.82 
  5163.9              13.623          137.8              1               11.946            1            -999.25            168.1           4472.07 
  5164.2              13.542          138.7              1               11.735            2            -999.25            169.8           4472.19 
  5164.5              13.505          142.5              1               11.740            1            -999.25            171.6           4472.31 
  5164.8              13.469          146.4              1               11.745            1              153.8            176.3           4472.43 
  5165.1              13.443          150.2              1               11.511            1            -999.25            180.9           4472.55 
  5165.4              13.350          150.1              1               11.587            1            -999.25            206.3           4472.79 
  5165.7              13.338          148.4              1               11.521            1            -999.25            186.6           4472.91 
