~VERSION INFORMATION
 VERS.                 2.0:   CWLS LOG ASCII STANDARD - VERSION 2.0
 WRAP.                  NO:   SINGLE LINE PER DEPTH STEP
 CREA.                 03/05/2017 12:05:25
#CREATED USING IP VERSION 4.2.2015.61 BY PANESSOR ON 03/05/2017 12:05:25
~WELL INFORMATION
#MNEM.UNIT       DATA                          DESCRIPTION MNEMONIC
#---------      ---------------------------   --------------------------
 STRT    .FT        500.0000                  : START DEPTH
 STOP    .FT        4532.0000                 : STOP DEPTH
 STEP    .FT        0.5000                    : STEP VALUE
 NULL    .      -999.0000                     : NULL VALUE
 DATE    .      03/05/2017                    : LAS file Creation Date
 WELL  .      CRISOL-1            : Well Name
 COMP  .      INTERCOL            : Company
 FLD   .      WILDCAT             : Field
 STATE .      CESAR               : State
 COUNT .      COLOMBIA            : Country
 API   .      CRIL0001            : API Number
 UWI   .      CRIL0001            : Unique Well Identifier (UWI)
 LOC   .      GAUSS ORIGIN BOGOTA : Location
 LATI  .      1.0147222222        : Latitude/Northing
 LONG  .      1.0086111111        : Longitude/Easting
 RWS   .      -999                : Def_Rw
 WST   .      -999                : Def_Rwt
 PROV  .                          : Province
 SRVC  .      SCH                 : Contractor
~CURVE INFORMATION
#MNEM                 UNIT       API CODE     Description
#----------     --------------- ----------  --------------
 DEPTH         .FT                        : 
 RM_IR         .OHMM                      : Medium Resistivity
 SPC_IR        .MV                        : Spontaneous Potential
 RD_E_IR       .OHMM                      : Formation Deep Resitivity
 PHIE_IR       .Dec                       : Effective Porosity
 SW_IR         .Dec                       : Effective Water Saturation
 BVW_IR        .Dec                       : Bulk Volume water (Phie x SW)
 VWCL_IR       .Dec                       : Volume wet Clay
 VSILT_IR      .Dec                       : Volume Silt
 Perfs_IR      .B/E                       : Photoelectric Factor
 Perm_IR       .md                        : Calculated Permeability
 CGL_IR        .%                         : Mudlog CONGLOMERATE
 SS_IR         .%                         : Mudlog SANDSTONE
 SLS_IR        .%                         : Mudlog SILSTONE
 CLST_IR       .%                         : Mudlog CLAYSTONE
 SH_IR         .%                         : Mudlog Shale
 MARL_IR       .%                         : Mudlog MARLSTONE
 LS_IR         .%                         : Mudlog LIMESTONE
 ResFlag_IR    .                          : Net Reservoir
 PayFlag_IR    .                          : Net Pay
 K_PHI_IR      .                          : K/PHI RATIO
 PayFlagRT_IR  .                          : Pay Flag Rock Type
 ResFlagRT_IR  .                          : Net Reservoir Rock Type
 Rock_Type_IR  .microns                   : Pore Throat Size - Rock Types
 Temp_IR       .F                         : Formation Temperature
 MUD_WEIGHT_IR .PPG                       : MUD_WEIGHT
~P Interactive Petrophysics parameters
#Name        Value                 Description
#----- --------------------------  -----------
#Logging Run 
 RUN  .     1                    : Run Number
 DATE .     24-OCT-1953          : Date                      | RUN[0]
 BLI  .     2565                 : Btm Log Interval          | RUN[1]
 TLI  .     517                  : Top Log Interval          | RUN[1]
 BS   .     8.625                : Bit Size                  | RUN[1]
 DFT  .     /                    : Type of Fluid in Hole     | RUN[1]
 RM   .     5.9                  : Rm                        | RUN[1]
 MST  .     84                   : at Meas Temp              | RUN[1]
 R1   .     SPS LTDA.            : Remark 1                  | RUN[1]
 R2   .     PLUG BACK 3808 FT.   : Remark 2                  | RUN[1]
 R3   .     ABANDONED GAS WELL.  : Remark 3                  | RUN[1]
#Logging Run 
 RUN  .     2                    : Run Number
 DATE .     14-NOV-1953          : Date                      | RUN[1]
 BLI  .     4053                 : Btm Log Interval          | RUN[2]
 TLI  .     3000                 : Top Log Interval          | RUN[2]
 BS   .     9.625                : Bit Size                  | RUN[2]
 RM   .     3.8                  : Rm                        | RUN[2]
 MST  .     87                   : at Meas Temp              | RUN[2]
 R1   .     SPS LTDA.            : Remark 1                  | RUN[2]
 R2   .     PLUG BACK 3808 FT.   : Remark 2                  | RUN[2]
 R3   .     ABANDONED GAS WELL.  : Remark 3                  | RUN[2]
~A  DEPTH   RM_IR     SPC_IR   RD_E_IR   PHIE_IR    SW_IR     BVW_IR   VWCL_IR   VSILT_IR  Perfs_IR  Perm_IR    CGL_IR    SS_IR     SLS_IR   CLST_IR    SH_IR    MARL_IR    LS_IR   ResFlag_~ PayFlag_~  K_PHI_IR PayFlagR~ ResFlagR~ Rock_Typ~  Temp_IR  MUD_WEIG~ 
 500.0000 -999.0000 -999.0000 -999.0000 -999.0000 -999.0000 -999.0000 -999.0000 -999.0000 -999.0000 -999.0000   59.2700   17.7500    0.0000    0.0000   22.9800    0.0000    0.0000    0.0000    0.0000 -999.0000    0.0000    0.0000 -999.0000   84.5645   10.1000 
 500.5000 -999.0000 -999.0000 -999.0000 -999.0000 -999.0000 -999.0000 -999.0000 -999.0000 -999.0000 -999.0000   59.2700   18.1700    0.0000    0.0000   22.5600    0.0000    0.0000    0.0000    0.0000 -999.0000    0.0000    0.0000 -999.0000   84.5691   10.1000 
 501.0000 -999.0000 -999.0000 -999.0000 -999.0000 -999.0000 -999.0000 -999.0000 -999.0000 -999.0000 -999.0000   59.2700   18.5900    0.0000    0.0000   22.1400    0.0000    0.0000    0.0000    0.0000 -999.0000    0.0000    0.0000 -999.0000   84.5736   10.1000 
 501.5000 -999.0000 -999.0000 -999.0000 -999.0000 -999.0000 -999.0000 -999.0000 -999.0000 -999.0000 -999.0000   59.3050   18.6150    0.0000    0.0000   22.0800    0.0000    0.0000    0.0000    0.0000 -999.0000    0.0000    0.0000 -999.0000   84.5782   10.1000 
 502.0000 -999.0000 -999.0000 -999.0000 -999.0000 -999.0000 -999.0000 -999.0000 -999.0000 -999.0000 -999.0000   59.3400   18.6400    0.0000    0.0000   22.0200    0.0000    0.0000    0.0000    0.0000 -999.0000    0.0000    0.0000 -999.0000   84.5828   10.1000 
 502.5000 -999.0000 -999.0000 -999.0000 -999.0000 -999.0000 -999.0000 -999.0000 -999.0000 -999.0000 -999.0000   59.3050   18.6500    0.0000    0.0000   22.0450    0.0000    0.0000    0.0000    0.0000 -999.0000    0.0000    0.0000 -999.0000   84.5873   10.1000 
 503.0000 -999.0000 -999.0000 -999.0000 -999.0000 -999.0000 -999.0000 -999.0000 -999.0000 -999.0000 -999.0000   59.2700   18.6600    0.0000    0.0000   22.0700    0.0000    0.0000    0.0000    0.0000 -999.0000    0.0000    0.0000 -999.0000   84.5919   10.1000 
 503.5000 -999.0000 -999.0000 -999.0000 -999.0000 -999.0000 -999.0000 -999.0000 -999.0000 -999.0000 -999.0000   59.2700   18.6800    0.0000    0.0000   22.0500    0.0000    0.0000    0.0000    0.0000 -999.0000    0.0000    0.0000 -999.0000   84.5965   10.1000 
 504.0000 -999.0000 -999.0000 -999.0000 -999.0000 -999.0000 -999.0000 -999.0000 -999.0000 -999.0000 -999.0000   59.2700   18.7000    0.0000    0.0000   22.0300    0.0000    0.0000    0.0000    0.0000 -999.0000    0.0000    0.0000 -999.0000   84.6010   10.1000 
 504.5000 -999.0000 -999.0000 -999.0000 -999.0000 -999.0000 -999.0000 -999.0000 -999.0000 -999.0000 -999.0000   59.2700   18.7200    0.0000    0.0000   22.0100    0.0000    0.0000    0.0000    0.0000 -999.0000    0.0000    0.0000 -999.0000   84.6056   10.1000 
 505.0000 -999.0000 -999.0000 -999.0000 -999.0000 -999.0000 -999.0000 -999.0000 -999.0000 -999.0000 -999.0000   59.2700   18.7400    0.0000    0.0000   21.9900    0.0000    0.0000    0.0000    0.0000 -999.0000    0.0000    0.0000 -999.0000   84.6102   10.1000 
 505.5000 -999.0000 -999.0000 -999.0000 -999.0000 -999.0000 -999.0000 -999.0000 -999.0000 -999.0000 -999.0000   59.2700   18.7600    0.0000    0.0000   21.9700    0.0000    0.0000    0.0000    0.0000 -999.0000    0.0000    0.0000 -999.0000   84.6147   10.1000 
 506.0000 -999.0000 -999.0000 -999.0000 -999.0000 -999.0000 -999.0000 -999.0000 -999.0000 -999.0000 -999.0000   59.2700   18.7800    0.0000    0.0000   21.9500    0.0000    0.0000    0.0000    0.0000 -999.0000    0.0000    0.0000 -999.0000   84.6193   10.1000 
 506.5000 -999.0000 -999.0000 -999.0000 -999.0000 -999.0000 -999.0000 -999.0000 -999.0000 -999.0000 -999.0000   59.2700   18.8000    0.0000    0.0000   21.9300    0.0000    0.0000    0.0000    0.0000 -999.0000    0.0000    0.0000 -999.0000   84.6239   10.1000 
 507.0000 -999.0000 -999.0000 -999.0000 -999.0000 -999.0000 -999.0000 -999.0000 -999.0000 -999.0000 -999.0000   59.2700   18.8200    0.0000    0.0000   21.9100    0.0000    0.0000    0.0000    0.0000 -999.0000    0.0000    0.0000 -999.0000   84.6284   10.1000 
 507.5000 -999.0000 -999.0000 -999.0000 -999.0000 -999.0000 -999.0000 -999.0000 -999.0000 -999.0000 -999.0000   59.2700   18.8400    0.0000    0.0000   21.8900    0.0000    0.0000    0.0000    0.0000 -999.0000    0.0000    0.0000 -999.0000   84.6330   10.1000 
 508.0000 -999.0000 -999.0000 -999.0000 -999.0000 -999.0000 -999.0000 -999.0000 -999.0000 -999.0000 -999.0000   59.2700   18.8600    0.0000    0.0000   21.8700    0.0000    0.0000    0.0000    0.0000 -999.0000    0.0000    0.0000 -999.0000   84.6376   10.1000 
 508.5000 -999.0000 -999.0000 -999.0000 -999.0000 -999.0000 -999.0000 -999.0000 -999.0000 -999.0000 -999.0000   59.2700   18.8800    0.0000    0.0000   21.8500    0.0000    0.0000    0.0000    0.0000 -999.0000    0.0000    0.0000 -999.0000   84.6421   10.1000 
 509.0000 -999.0000 -999.0000 -999.0000 -999.0000 -999.0000 -999.0000 -999.0000 -999.0000 -999.0000 -999.0000   59.2700   18.9000    0.0000    0.0000   21.8300    0.0000    0.0000    0.0000    0.0000 -999.0000    0.0000    0.0000 -999.0000   84.6467   10.1000 
 509.5000 -999.0000 -999.0000 -999.0000 -999.0000 -999.0000 -999.0000 -999.0000 -999.0000 -999.0000 -999.0000   59.2700   18.9200    0.0000    0.0000   21.8100    0.0000    0.0000    0.0000    0.0000 -999.0000    0.0000    0.0000 -999.0000   84.6512   10.1000 
 510.0000 -999.0000 -999.0000 -999.0000 -999.0000 -999.0000 -999.0000 -999.0000 -999.0000 -999.0000 -999.0000   59.2700   18.9400    0.0000    0.0000   21.7900    0.0000    0.0000    0.0000    0.0000 -999.0000    0.0000    0.0000 -999.0000   84.6558   10.1000 
 510.5000 -999.0000 -999.0000 -999.0000 -999.0000 -999.0000 -999.0000 -999.0000 -999.0000 -999.0000 -999.0000   59.2700   18.9600    0.0000    0.0000   21.7700    0.0000    0.0000    0.0000    0.0000 -999.0000    0.0000    0.0000 -999.0000   84.6604   10.1000 
 511.0000 -999.0000 -999.0000 -999.0000 -999.0000 -999.0000 -999.0000 -999.0000 -999.0000 -999.0000 -999.0000   59.2700   18.9800    0.0000    0.0000   21.7500    0.0000    0.0000    0.0000    0.0000 -999.0000    0.0000    0.0000 -999.0000   84.6649   10.1000 
 511.5000 -999.0000 -999.0000 -999.0000 -999.0000 -999.0000 -999.0000 -999.0000 -999.0000 -999.0000 -999.0000   59.2700   19.0000    0.0000    0.0000   21.7300    0.0000    0.0000    0.0000    0.0000 -999.0000    0.0000    0.0000 -999.0000   84.6695   10.1000 
 512.0000 -999.0000 -999.0000 -999.0000 -999.0000 -999.0000 -999.0000 -999.0000 -999.0000 -999.0000 -999.0000   59.2700   19.0200    0.0000    0.0000   21.7100    0.0000    0.0000    0.0000    0.0000 -999.0000    0.0000    0.0000 -999.0000   84.6741   10.1000 
 512.5000 -999.0000 -999.0000 -999.0000 -999.0000 -999.0000 -999.0000 -999.0000 -999.0000 -999.0000 -999.0000   59.2700   19.0400    0.0000    0.0000   21.6900    0.0000    0.0000    0.0000    0.0000 -999.0000    0.0000    0.0000 -999.0000   84.6786   10.1000 
 513.0000 -999.0000 -999.0000 -999.0000 -999.0000 -999.0000 -999.0000 -999.0000 -999.0000 -999.0000 -999.0000   59.2700   19.0600    0.0000    0.0000   21.6700    0.0000    0.0000    0.0000    0.0000 -999.0000    0.0000    0.0000 -999.0000   84.6832   10.1000 
 513.5000 -999.0000 -999.0000 -999.0000 -999.0000 -999.0000 -999.0000 -999.0000 -999.0000 -999.0000 -999.0000   59.2700   19.0800    0.0000    0.0000   21.6500    0.0000    0.0000    0.0000    0.0000 -999.0000    0.0000    0.0000 -999.0000   84.6878   10.1000 
 514.0000 -999.0000 -999.0000 -999.0000 -999.0000 -999.0000 -999.0000 -999.0000 -999.0000 -999.0000 -999.0000   59.2700   19.1000    0.0000    0.0000   21.6300    0.0000    0.0000    0.0000    0.0000 -999.0000    0.0000    0.0000 -999.0000   84.6923   10.1000 
 514.5000 -999.0000 -999.0000 -999.0000 -999.0000 -999.0000 -999.0000 -999.0000 -999.0000 -999.0000 -999.0000   59.2700   19.1200    0.0000    0.0000   21.6100    0.0000    0.0000    0.0000    0.0000 -999.0000    0.0000    0.0000 -999.0000   84.6969   10.1000 
 515.0000 -999.0000 -999.0000 -999.0000 -999.0000 -999.0000 -999.0000 -999.0000 -999.0000 -999.0000 -999.0000   59.2700   19.1400    0.0000    0.0000   21.5900    0.0000    0.0000    0.0000    0.0000 -999.0000    0.0000    0.0000 -999.0000   84.7015   10.1000 
