~VERSION INFORMATION
 VERS.                 2.0:   CWLS LOG ASCII STANDARD - VERSION 2.0
 WRAP.                  NO:   SINGLE LINE PER DEPTH STEP
 CREA.                 03/05/2017 10:34:44
#CREATED USING IP VERSION 4.2.2015.61 BY PANESSOR ON 03/05/2017 10:34:44
~WELL INFORMATION
#MNEM.UNIT       DATA                          DESCRIPTION MNEMONIC
#---------      ---------------------------   --------------------------
 STRT    .FT        500.0000                  : START DEPTH
 STOP    .FT        5680.0000                 : STOP DEPTH
 STEP    .FT        0.5000                    : STEP VALUE
 NULL    .      -999.0000                     : NULL VALUE
 DATE    .      03/05/2017                    : LAS file Creation Date
 WELL  .      CRISOL-3            : Well Name
 COMP  .      INTERCOL            : Company
 FLD   .      WILDCAT             : Field
 STATE .      MAGDALENA           : State
 COUNT .      COLOMBIA            : Country
 API   .      CRIL0003            : API Number
 UWI   .      100000000377        : Unique Well Identifier (UWI)
 LOC   .      GAUSS ORIGIN BOGOTA : Location
 LATI  .      1                   : Latitude/Northing
 LONG  .      1                   : Longitude/Easting
 RWS   .      -999                : Def_Rw
 WST   .      -999                : Def_Rwt
 CNTY  .      N/A                 : County
 PROV  .                          : Province
 SRVC  .      SCH                 : Contractor
~CURVE INFORMATION
#MNEM                UNIT       API CODE     Description
#----------    --------------- ----------  --------------
 DEPTH        .FT                        : 
 RM_IR        .OHMM                      : Medium Resistivity
 RD_IR        .OHMM                      : Formation Deep Resitivity
 LAT_E_IR     .OHMM                      : Lateral AO18'8"
 SPC_IR       .MV                        : Spontaneous Potential
 PHIE_IR      .Dec                       : Effective Porosity
 SW_IR        .Dec                       : Effective Water Saturation
 BVW_IR       .Dec                       : Bulk Volume water (Phie x SW)
 VWCL_IR      .Dec                       : Volume wet Clay
 VSILT_IR     .Dec                       : Volume Silt
 SLST_IR      .%                         : Mudlog SILSTONE
 SS_IR        .%                         : Mudlog SANDSTONE
 CONG_IR      .%                         : Mudlog CONGLOMERATE
 MARL_IR      .%                         : Mudlog MARLSTONE
 ResFlag_IR   .                          : Net Reservoir
 IGNEOUS_IR   .us/ft                     : Mudlog IGNEOUS
 LS_IR        .us/ft                     : Mudlog LIMESTONE
 SH_IR        .%                         : Mudlog SHALE
 PayFlag_IR   .                          : Net Pay
 Perm_IR      .md                        : Calculated Permeability
 PayFlagRT_IR .                          : Pay Flag Rock Type
 ResFlagRT_IR .                          : Net Reservoir Rock Type
 K_PHI_IR     .                          : K/PHI RATIO
 Rock_Type_IR .microns                   : Pore Throat Size - Rock Types
 Temp_IR      .F                         : Formation Temperature
~P Interactive Petrophysics parameters
#Name        Value                 Description
#----- --------------------------  -----------
#Logging Run 
 RUN  .     1           : Run Number
 DATE .     23/04/1954  : Date                      | RUN[0]
 DFT  .     /           : Type of Fluid in Hole     | RUN[1]
~A  DEPTH   RM_IR     RD_IR    LAT_E_IR   SPC_IR   PHIE_IR    SW_IR     BVW_IR   VWCL_IR   VSILT_IR  SLST_IR    SS_IR    CONG_IR   MARL_IR  ResFlag_~ IGNEOUS_~   LS_IR     SH_IR   PayFlag_~  Perm_IR  PayFlagR~ ResFlagR~  K_PHI_IR Rock_Typ~  Temp_IR  
# ...
4948.0000   41.4860   59.4940   32.4890  -27.2894    0.0015    1.0000    0.0015    0.9015    0.0935    0.0000    0.0000    0.0000   20.2431    0.0000    0.0000    0.0000   79.7569    0.0000    0.0000    0.0000    0.0000    0.0000    0.0001  126.7702 
4948.5000   42.5720   63.8340   33.5140  -28.2535    0.0021    1.0000    0.0021    0.8885    0.1044    0.0000    0.0000    0.0000   20.2714    0.0000    0.0000    0.0000   79.7286    0.0000    0.0000    0.0000    0.0000    0.0000    0.0001  126.7754 
4949.0000   44.0220   69.6200   35.3260  -29.1502    0.0029    1.0000    0.0029    0.8763    0.1139    0.0000    0.0000    0.0000   20.2997    0.0000    0.0000    0.0000   79.7003    0.0000    0.0000    0.0000    0.0000    0.0000    0.0002  126.7806 
4949.5000   45.5570   70.7050   37.5000  -29.9832    0.0039    1.0000    0.0039    0.8651    0.1220    0.0000    0.0000    0.0000   52.6435    0.0000    0.0000    7.5064   39.8502    0.0000    0.0000    0.0000    0.0000    0.0000    0.0004  126.7859 
4950.0000   47.3120   72.4970   39.6740  -30.9558    0.0053    1.0000    0.0053    0.8519    0.1305    0.0000    0.0000    0.0000   84.9873    0.0000    0.0000   15.0127    0.0000    0.0000    0.0000    0.0000    0.0000    0.0000    0.0008  126.7911 
4950.5000   49.0670   75.7690   41.8480  -31.5204    0.0063    1.0000    0.0063    0.8443    0.1348    0.0000    0.0000    0.0000   85.0014    0.0000    0.0000   14.9986    0.0000    0.0000    0.0000    0.0000    0.0000    0.0000    0.0011  126.7963 
4951.0000   49.4570   77.9390   44.0220  -32.1518    0.0075    1.0000    0.0075    0.8358    0.1391    0.0000    0.0000    0.0000   85.0155    0.0000    0.0000   14.9845    0.0000    0.0000    0.0000    0.0000    0.0000    0.0001    0.0016  126.8016 
4951.5000   50.5430   81.1930   47.2830  -32.5654    0.0085    1.0000    0.0085    0.8302    0.1415    0.0000    0.0000    0.0000   85.0296    0.0000    0.0000   14.9704    0.0000    0.0000    0.0000    0.0000    0.0000    0.0001    0.0020  126.8068 
4952.0000   51.2680   83.7250   49.4570  -32.8242    0.0092    1.0000    0.0092    0.8267    0.1428    0.0000    0.0000    0.0000   85.0438    0.0000    0.0000   14.9562    0.0000    0.0000    0.0000    0.0000    0.0000    0.0002    0.0023  126.8120 
4952.5000   51.9930   86.9800   53.4420  -32.8073    0.0091    1.0000    0.0091    0.8269    0.1427    0.0000    0.0000    0.0000   85.0580    0.0000    0.0000   14.9420    0.0000    0.0000    0.0000    0.0000    0.0000    0.0002    0.0023  126.8173 
4953.0000   52.7170   90.9580   55.2540  -32.7208    0.0089    1.0000    0.0089    0.8281    0.1423    0.0000    0.0000    0.0000   85.0721    0.0000    0.0000   14.9279    0.0000    0.0000    0.0000    0.0000    0.0000    0.0002    0.0022  126.8225 
4953.5000   53.5600   93.4900   58.8770  -32.4139    0.0081    1.0000    0.0081    0.8322    0.1406    0.0000    0.0000    0.0000   85.0863    0.0000    0.0000   14.9137    0.0000    0.0000    0.0000    0.0000    0.0000    0.0001    0.0018  126.8277 
4954.0000   54.5290   97.1070   62.1380  -32.1964    0.0076    1.0000    0.0076    0.8352    0.1393    0.0000    0.0000    0.0000   85.1004    0.0000    0.0000   14.8996    0.0000    0.0000    0.0000    0.0000    0.0000    0.0001    0.0016  126.8329 
4954.5000   54.9910  100.7230   65.7610  -32.0057    0.0072    1.0000    0.0072    0.8378    0.1381    0.0000    0.0000    0.0000   85.1145    0.0000    0.0000   14.8855    0.0000    0.0000    0.0000    0.0000    0.0000    0.0001    0.0015  126.8382 
4955.0000   55.9780  102.5320   70.8330  -32.0372    0.0073    1.0000    0.0073    0.8373    0.1383    0.0000    0.0000    0.0000   85.1286    0.0000    0.0000   14.8714    0.0000    0.0000    0.0000    0.0000    0.0000    0.0001    0.0015  126.8434 
4955.5000   56.8660  105.0590   74.0940  -32.4976    0.0083    1.0000    0.0083    0.8311    0.1411    0.0000    0.0000    0.0000   85.1427    0.0000    0.0000   14.8573    0.0000    0.0000    0.0000    0.0000    0.0000    0.0001    0.0019  126.8486 
4956.0000   57.7900  106.8610   78.4420  -33.0585    0.0098    1.0000    0.0098    0.8235    0.1439    0.0000    0.0000    0.0000   85.1569    0.0000    0.0000   14.8431    0.0000    0.0000    0.0000    0.0000    0.0000    0.0002    0.0026  126.8539 
4956.5000   58.3140  108.6700   80.2540  -33.4416    0.0109    1.0000    0.0109    0.8184    0.1454    0.0000    0.0000    0.0000   85.1711    0.0000    0.0000   14.8289    0.0000    0.0000    0.0000    0.0000    0.0000    0.0003    0.0032  126.8591 
4957.0000   59.2650  110.8450   80.9780  -34.2335    0.0134    1.0000    0.0134    0.8077    0.1475    0.0000    0.0000    0.0000   85.1852    0.0000    0.0000   14.8148    0.0000    0.0000    0.0000    0.0000    0.0000    0.0008    0.0049  126.8643 
4957.5000   60.2160  112.6570   82.4280  -34.7850    0.0155    1.0000    0.0155    0.8002    0.1480    0.0000    0.0000    0.0000   85.1994    0.0000    0.0000   14.8006    0.0000    0.0000    0.0000    0.0000    0.0000    0.0013    0.0065  126.8696 
4958.0000   61.1670  113.7420   87.5000  -35.2786    0.0176    1.0000    0.0176    0.7935    0.1478    0.0000    0.0000    0.0000   85.2135    0.0000    0.0000   14.7865    0.0000    0.0000    0.0000    0.0000    0.0000    0.0022    0.0083  126.8748 
4958.5000   62.1180  116.2710   90.7610  -35.6584    0.0194    1.0000    0.0194    0.7884    0.1471    0.0000    0.0000    0.0000   85.2276    0.0000    0.0000   14.7724    0.0000    0.0000    0.0001    0.0000    0.0000    0.0031    0.0100  126.8800 
4959.0000   63.2250  117.3510   99.8190  -35.8120    0.0201    1.0000    0.0201    0.7863    0.1467    0.0000    0.0000    0.0000   85.2417    0.0000    0.0000   14.7583    0.0000    0.0000    0.0001    0.0000    0.0000    0.0036    0.0108  126.8853 
4959.5000   62.5890  119.5160  108.5140  -35.0114    0.0165    1.0000    0.0165    0.7971    0.1480    0.0000    0.0000    0.0000   86.7984    0.0000    0.0000   13.2017    0.0000    0.0000    0.0000    0.0000    0.0000    0.0017    0.0073  126.8905 
4960.0000   61.8300  120.5970  112.5000  -34.2012    0.0133    1.0000    0.0133    0.8081    0.1475    0.0000    0.0000    0.0000   88.3550    0.0000    0.0000   11.6450    0.0000    0.0000    0.0000    0.0000    0.0000    0.0007    0.0048  126.8957 
4960.5000   61.0710  122.4060  128.8040  -32.2658    0.0078    1.0000    0.0078    0.8342    0.1398    0.0000    0.0000    0.0000   94.1775    0.0000    0.0000    5.8225    0.0000    0.0000    0.0000    0.0000    0.0000    0.0001    0.0017  126.9010 
4961.0000   60.3120  123.8550  140.7610  -30.9015    0.0052    1.0000    0.0052    0.8527    0.1300    0.0000    0.0000    0.0000  100.0000    0.0000    0.0000    0.0000    0.0000    0.0000    0.0000    0.0000    0.0000    0.0000    0.0008  126.9062 
4961.5000   59.5530  124.9440  157.0650  -30.0451    0.0040    1.0000    0.0040    0.8643    0.1226    0.0000    0.0000    0.0000  100.0000    0.0000    0.0000    0.0000    0.0000    0.0000    0.0000    0.0000    0.0000    0.0000    0.0004  126.9114 
4962.0000   58.7940  125.6710  170.4710  -29.2797    0.0031    1.0000    0.0031    0.8746    0.1152    0.0000    0.0000    0.0000  100.0000    0.0000    0.0000    0.0000    0.0000    0.0000    0.0000    0.0000    0.0000    0.0000    0.0003  126.9167 
4962.5000   58.0340  126.0340  177.7170  -28.9127    0.0027    1.0000    0.0027    0.8796    0.1114    0.0000    0.0000    0.0000  100.0000    0.0000    0.0000    0.0000    0.0000    0.0000    0.0000    0.0000    0.0000    0.0000    0.0002  126.9219 
4963.0000   57.2750  126.0350  184.9640  -28.8831    0.0027    1.0000    0.0027    0.8800    0.1111    0.0000    0.0000    0.0000  100.0000    0.0000    0.0000    0.0000    0.0000    0.0000    0.0000    0.0000    0.0000    0.0000    0.0002  126.9271 
4963.5000   56.5160  126.0390  191.1230  -28.8793    0.0027    1.0000    0.0027    0.8800    0.1111    0.0000    0.0000    0.0000  100.0000    0.0000    0.0000    0.0000    0.0000    0.0000    0.0000    0.0000    0.0000    0.0000    0.0002  126.9323 
