~VERSION INFORMATION
 VERS.                 2.0:   CWLS LOG ASCII STANDARD - VERSION 2.0
 WRAP.                  NO:   SINGLE LINE PER DEPTH STEP
 CREA.                 16/2/2017 12:08:22 p. m.
#CREATED USING IP VERSION 4.2.2015.61 BY PANESSOR ON 16/2/2017 12:08:22 p. m.
~WELL INFORMATION
#MNEM.UNIT       DATA                          DESCRIPTION MNEMONIC
#---------      ---------------------------   --------------------------
 STRT    .FT        470.0000                  : START DEPTH
 STOP    .FT        5740.0000                 : STOP DEPTH
 STEP    .FT        0.5000                    : STEP VALUE
 NULL    .      -999.0000                     : NULL VALUE
 DATE    .      16/2/2017                     : LAS file Creation Date
 WELL  .      CRISOL-2      : Well Name
 COMP  .      INTERCOL      : Company
 FLD   .      141-AGUACHICA : Field
 STATE .      MAGDALENA     : State
 COUNT .      COLOMBIA      : Country
 API   .      CRIL0002      : API Number
 UWI   .      100000000372  : Unique Well Identifier (UWI)
 LOC   .                    : Location
 LATI  .      1.0038888889  : Latitude/Northing
 LONG  .      1.0080555556  : Longitude/Easting
 RWS   .      -999          : Def_Rw
 WST   .      -999          : Def_Rwt
 PROV  .                    : Province
 SRVC  .      SCH           : Contractor
~CURVE INFORMATION
#MNEM                UNIT       API CODE     Description
#----------    --------------- ----------  --------------
 DEPTH        .FT                        : 
 RM_IR        .OHMM                      : Resistivity AM 16"
 SPC_IR       .MV                        : Spontaneous Potential
 RD_E_IR      .OHMM                      : Formation Resitivity
 PHIE_IR      .Dec                       : Effective Porosity
 SW_IR        .Dec                       : Water Saturation
 BVW_IR       .Dec                       : Bulk Volume water (Phie x SW)
 VWCL_IR      .Dec                       : Volume wet Clay
 VSILT_IR     .Dec                       : Volume Silt
 CONG_IR      .%                         : Mudlog CONGLOMERATE
 SS_IR        .%                         : Mudlog SANDSTONE
 LS_IR        .%                         : Mudlog LIMESTONE
 MARL_IR      .%                         : Mudlog MARLSTONE
 SLST_IR      .%                         : Mudlog SILSTONE
 SH_IR        .%                         : Mudlog SHALE
 COAL_IR      .%                         : Mudlog  COAL
 IGNEOUS_IR   .%                         : Mudlog IGNEOUS
 ResFlag_IR   .                          : Net Reservoir
 PayFlag_IR   .                          : Net Pay
 PERFS_IR     .B/E                       : Perforations
 Perm_IR      .md                        : Calculated Permeability
 PayFlagRT_IR .                          : Pay Flag Rock Type
 K_PHI_IR     .                          : K/PHI RATIO
 ResFlagRT_IR .                          : Net Reservoir Rock Type
 Rock_Type_IR .microns                   : Pore Throat Size - Rock Types
 Temp_IR      .F                         : Formation Temperature
~P Interactive Petrophysics parameters
#Name        Value                 Description
#----- --------------------------  -----------
#Logging Run 
 RUN  .     1           : Run Number
 DATE .     27/02/1954  : Date                      | RUN[0]
 DFT  .     /           : Type of Fluid in Hole     | RUN[1]
~A  DEPTH   RM_IR     SPC_IR   RD_E_IR   PHIE_IR    SW_IR     BVW_IR   VWCL_IR   VSILT_IR  CONG_IR    SS_IR     LS_IR    MARL_IR   SLST_IR    SH_IR    COAL_IR  IGNEOUS_~ ResFlag_~ PayFlag_~  PERFS_IR  Perm_IR  PayFlagR~  K_PHI_IR ResFlagR~ Rock_Typ~  Temp_IR  
# ...
1896.0000   10.7010  -16.2271   11.5800 -999.0000 -999.0000 -999.0000 -999.0000 -999.0000   14.9150   32.6600    0.0000    0.0000    0.0000   52.4250    0.0000    0.0000    0.0000    0.0000 -999.0000    0.0000    0.0000 -999.0000    0.0000 -999.0000   95.8098 
1896.5000   10.8470  -16.6177   11.4630 -999.0000 -999.0000 -999.0000 -999.0000 -999.0000   14.9255   32.6390    0.0000    0.0000    0.0000   52.4355    0.0000    0.0000    0.0000    0.0000 -999.0000    0.0000    0.0000 -999.0000    0.0000 -999.0000   95.8152 
1897.0000   10.8750  -16.4393   11.3340 -999.0000 -999.0000 -999.0000 -999.0000 -999.0000   14.9360   32.6180    0.0000    0.0000    0.0000   52.4460    0.0000    0.0000    0.0000    0.0000 -999.0000    0.0000    0.0000 -999.0000    0.0000 -999.0000   95.8207 
1897.5000   10.7860  -15.6740   11.2410 -999.0000 -999.0000 -999.0000 -999.0000 -999.0000   14.9470   32.5965    0.0000    0.0000    0.0000   52.4565    0.0000    0.0000    0.0000    0.0000 -999.0000    0.0000    0.0000 -999.0000    0.0000 -999.0000   95.8262 
1898.0000   10.5630  -14.9416   11.1510 -999.0000 -999.0000 -999.0000 -999.0000 -999.0000   14.9580   32.5750    0.0000    0.0000    0.0000   52.4670    0.0000    0.0000    0.0000    0.0000 -999.0000    0.0000    0.0000 -999.0000    0.0000 -999.0000   95.8317 
1898.5000    9.8400  -14.4002   11.3440 -999.0000 -999.0000 -999.0000 -999.0000 -999.0000   14.9685   32.5540    0.0000    0.0000    0.0000   52.4775    0.0000    0.0000    0.0000    0.0000 -999.0000    0.0000    0.0000 -999.0000    0.0000 -999.0000   95.8372 
1899.0000    9.0930  -14.1088   11.5560 -999.0000 -999.0000 -999.0000 -999.0000 -999.0000   14.9790   32.5330    0.0000    0.0000    0.0000   52.4880    0.0000    0.0000    0.0000    0.0000 -999.0000    0.0000    0.0000 -999.0000    0.0000 -999.0000   95.8427 
1899.5000    8.7160  -13.8774   11.8420 -999.0000 -999.0000 -999.0000 -999.0000 -999.0000   14.9895   32.5120    0.0000    0.0000    0.0000   52.4985    0.0000    0.0000    0.0000    0.0000 -999.0000    0.0000    0.0000 -999.0000    0.0000 -999.0000   95.8482 
1900.0000    8.7000  -13.6480   11.9560 -999.0000 -999.0000 -999.0000 -999.0000 -999.0000   15.0000   32.4910    0.0000    0.0000    0.0000   52.5090    0.0000    0.0000    0.0000    0.0000 -999.0000    0.0000    0.0000 -999.0000    0.0000 -999.0000   95.8537 
1900.5000    9.1260  -13.3876   12.3690 -999.0000 -999.0000 -999.0000 -999.0000 -999.0000   15.0105   32.4700    0.0000    0.0000    0.0000   52.5195    0.0000    0.0000    0.0000    0.0000 -999.0000    0.0000    0.0000 -999.0000    0.0000 -999.0000   95.8591 
1901.0000    9.4720  -13.1613   12.5840 -999.0000 -999.0000 -999.0000 -999.0000 -999.0000   15.0210   32.4490    0.0000    0.0000    0.0000   52.5300    0.0000    0.0000    0.0000    0.0000 -999.0000    0.0000    0.0000 -999.0000    0.0000 -999.0000   95.8646 
1901.5000    9.9470  -12.9169   12.6090 -999.0000 -999.0000 -999.0000 -999.0000 -999.0000   15.0315   32.4280    0.0000    0.0000    0.0000   52.5405    0.0000    0.0000    0.0000    0.0000 -999.0000    0.0000    0.0000 -999.0000    0.0000 -999.0000   95.8701 
1902.0000   10.4590  -12.7955   12.4990 -999.0000 -999.0000 -999.0000 -999.0000 -999.0000   15.0420   32.4070    0.0000    0.0000    0.0000   52.5510    0.0000    0.0000    0.0000    0.0000 -999.0000    0.0000    0.0000 -999.0000    0.0000 -999.0000   95.8756 
1902.5000   11.4930  -13.3281   12.3240 -999.0000 -999.0000 -999.0000 -999.0000 -999.0000   15.0530   32.3855    0.0000    0.0000    0.0000   52.5615    0.0000    0.0000    0.0000    0.0000 -999.0000    0.0000    0.0000 -999.0000    0.0000 -999.0000   95.8811 
1903.0000   12.1350  -14.0107   12.0990 -999.0000 -999.0000 -999.0000 -999.0000 -999.0000   15.0640   32.3640    0.0000    0.0000    0.0000   52.5720    0.0000    0.0000    0.0000    0.0000 -999.0000    0.0000    0.0000 -999.0000    0.0000 -999.0000   95.8866 
1903.5000   12.9080  -14.4333   11.8720 -999.0000 -999.0000 -999.0000 -999.0000 -999.0000   15.0745   32.3430    0.0000    0.0000    0.0000   52.5825    0.0000    0.0000    0.0000    0.0000 -999.0000    0.0000    0.0000 -999.0000    0.0000 -999.0000   95.8921 
1904.0000   13.2770  -14.4729   11.4840 -999.0000 -999.0000 -999.0000 -999.0000 -999.0000   15.0850   32.3220    0.0000    0.0000    0.0000   52.5930    0.0000    0.0000    0.0000    0.0000 -999.0000    0.0000    0.0000 -999.0000    0.0000 -999.0000   95.8976 
1904.5000   13.6850  -14.2236   10.9660 -999.0000 -999.0000 -999.0000 -999.0000 -999.0000   15.0955   32.3010    0.0000    0.0000    0.0000   52.6035    0.0000    0.0000    0.0000    0.0000 -999.0000    0.0000    0.0000 -999.0000    0.0000 -999.0000   95.9030 
1905.0000   13.6580  -13.9972   10.4060 -999.0000 -999.0000 -999.0000 -999.0000 -999.0000   15.1060   32.2800    0.0000    0.0000    0.0000   52.6140    0.0000    0.0000    0.0000    0.0000 -999.0000    0.0000    0.0000 -999.0000    0.0000 -999.0000   95.9085 
1905.5000   13.2880  -14.2018    9.9070 -999.0000 -999.0000 -999.0000 -999.0000 -999.0000   15.1165   32.2590    0.0000    0.0000    0.0000   52.6245    0.0000    0.0000    0.0000    0.0000 -999.0000    0.0000    0.0000 -999.0000    0.0000 -999.0000   95.9140 
1906.0000   12.2320  -14.2044    9.3250 -999.0000 -999.0000 -999.0000 -999.0000 -999.0000   15.1270   32.2380    0.0000    0.0000    0.0000   52.6350    0.0000    0.0000    0.0000    0.0000 -999.0000    0.0000    0.0000 -999.0000    0.0000 -999.0000   95.9195 
1906.5000   11.3690  -14.2110    9.1060 -999.0000 -999.0000 -999.0000 -999.0000 -999.0000   15.1375   32.2170    0.0000    0.0000    0.0000   52.6455    0.0000    0.0000    0.0000    0.0000 -999.0000    0.0000    0.0000 -999.0000    0.0000 -999.0000   95.9250 
1907.0000   10.0980  -13.7516    9.1370 -999.0000 -999.0000 -999.0000 -999.0000 -999.0000   15.1480   32.1960    0.0000    0.0000    0.0000   52.6560    0.0000    0.0000    0.0000    0.0000 -999.0000    0.0000    0.0000 -999.0000    0.0000 -999.0000   95.9305 
1907.5000    9.0230  -13.3722    9.1870 -999.0000 -999.0000 -999.0000 -999.0000 -999.0000   15.1590   32.1745    0.0000    0.0000    0.0000   52.6665    0.0000    0.0000    0.0000    0.0000 -999.0000    0.0000    0.0000 -999.0000    0.0000 -999.0000   95.9360 
1908.0000    8.2780  -12.5399    9.6820 -999.0000 -999.0000 -999.0000 -999.0000 -999.0000   15.1700   32.1530    0.0000    0.0000    0.0000   52.6770    0.0000    0.0000    0.0000    0.0000 -999.0000    0.0000    0.0000 -999.0000    0.0000 -999.0000   95.9415 
1908.5000    8.1070  -12.1905   10.4230 -999.0000 -999.0000 -999.0000 -999.0000 -999.0000   15.1805   32.1320    0.0000    0.0000    0.0000   52.6875    0.0000    0.0000    0.0000    0.0000 -999.0000    0.0000    0.0000 -999.0000    0.0000 -999.0000   95.9470 
1909.0000    7.8670  -11.9511   11.0480 -999.0000 -999.0000 -999.0000 -999.0000 -999.0000   15.1910   32.1110    0.0000    0.0000    0.0000   52.6980    0.0000    0.0000    0.0000    0.0000 -999.0000    0.0000    0.0000 -999.0000    0.0000 -999.0000   95.9524 
1909.5000    7.3910  -12.0577   11.6740 -999.0000 -999.0000 -999.0000 -999.0000 -999.0000   15.2015   32.0900    0.0000    0.0000    0.0000   52.7085    0.0000    0.0000    0.0000    0.0000 -999.0000    0.0000    0.0000 -999.0000    0.0000 -999.0000   95.9579 
1910.0000    7.2950  -12.1793   12.0600 -999.0000 -999.0000 -999.0000 -999.0000 -999.0000   15.2120   32.0690    0.0000    0.0000    0.0000   52.7190    0.0000    0.0000    0.0000    0.0000 -999.0000    0.0000    0.0000 -999.0000    0.0000 -999.0000   95.9634 
1910.5000    7.6560  -12.2879   12.3120 -999.0000 -999.0000 -999.0000 -999.0000 -999.0000   15.2225   32.0480    0.0000    0.0000    0.0000   52.7295    0.0000    0.0000    0.0000    0.0000 -999.0000    0.0000    0.0000 -999.0000    0.0000 -999.0000   95.9689 
1911.0000    7.9640  -12.4106   12.2850 -999.0000 -999.0000 -999.0000 -999.0000 -999.0000   15.2330   32.0270    0.0000    0.0000    0.0000   52.7400    0.0000    0.0000    0.0000    0.0000 -999.0000    0.0000    0.0000 -999.0000    0.0000 -999.0000   95.9744 
