~VERSION INFORMATION
 VERS.                 2.0:   CWLS LOG ASCII STANDARD - VERSION 2.0
 WRAP.                  NO:   SINGLE LINE PER DEPTH STEP
 CREA.                 16/2/2017 12:08:22 p. m.
#CREATED USING IP VERSION 4.2.2015.61 BY PANESSOR ON 16/2/2017 12:08:22 p. m.
~WELL INFORMATION
#MNEM.UNIT       DATA                          DESCRIPTION MNEMONIC
#---------      ---------------------------   --------------------------
 STRT    .FT        470.0000                  : START DEPTH
 STOP    .FT        5740.0000                 : STOP DEPTH
 STEP    .FT        0.5000                    : STEP VALUE
 NULL    .      -999.0000                     : NULL VALUE
 DATE    .      16/2/2017                     : LAS file Creation Date
 WELL  .      CRISOL-2      : Well Name
 COMP  .      INTERCOL      : Company
 FLD   .      141-AGUACHICA : Field
 STATE .      MAGDALENA     : State
 COUNT .      COLOMBIA      : Country
 API   .      CRIL0002      : API Number
 UWI   .      100000000372  : Unique Well Identifier (UWI)
 LOC   .                    : Location
 LATI  .      1.0038888889  : Latitude/Northing
 LONG  .      1.0080555556  : Longitude/Easting
 RWS   .      -999          : Def_Rw
 WST   .      -999          : Def_Rwt
 PROV  .                    : Province
 SRVC  .      SCH           : Contractor
~CURVE INFORMATION
#MNEM                UNIT       API CODE     Description
#----------    --------------- ----------  --------------
 DEPTH        .FT                        : 
 RM_IR        .OHMM                      : Resistivity AM 16"
 SPC_IR       .MV                        : Spontaneous Potential
 RD_E_IR      .OHMM                      : Formation Resitivity
 PHIE_IR      .Dec                       : Effective Porosity
 SW_IR        .Dec                       : Water Saturation
 BVW_IR       .Dec                       : Bulk Volume water (Phie x SW)
 VWCL_IR      .Dec                       : Volume wet Clay
 VSILT_IR     .Dec                       : Volume Silt
 CONG_IR      .%                         : Mudlog CONGLOMERATE
 SS_IR        .%                         : Mudlog SANDSTONE
 LS_IR        .%                         : Mudlog LIMESTONE
 MARL_IR      .%                         : Mudlog MARLSTONE
 SLST_IR      .%                         : Mudlog SILSTONE
 SH_IR        .%                         : Mudlog SHALE
 COAL_IR      .%                         : Mudlog  COAL
 IGNEOUS_IR   .%                         : Mudlog IGNEOUS
 ResFlag_IR   .                          : Net Reservoir
 PayFlag_IR   .                          : Net Pay
 PERFS_IR     .B/E                       : Perforations
 Perm_IR      .md                        : Calculated Permeability
 PayFlagRT_IR .                          : Pay Flag Rock Type
 K_PHI_IR     .                          : K/PHI RATIO
 ResFlagRT_IR .                          : Net Reservoir Rock Type
 Rock_Type_IR .microns                   : Pore Throat Size - Rock Types
 Temp_IR      .F                         : Formation Temperature
~P Interactive Petrophysics parameters
#Name        Value                 Description
#----- --------------------------  -----------
#Logging Run 
 RUN  .     1           : Run Number
 DATE .     27/02/1954  : Date                      | RUN[0]
 DFT  .     /           : Type of Fluid in Hole     | RUN[1]
~A  DEPTH   RM_IR     SPC_IR   RD_E_IR   PHIE_IR    SW_IR     BVW_IR   VWCL_IR   VSILT_IR  CONG_IR    SS_IR     LS_IR    MARL_IR   SLST_IR    SH_IR    COAL_IR  IGNEOUS_~ ResFlag_~ PayFlag_~  PERFS_IR  Perm_IR  PayFlagR~  K_PHI_IR ResFlagR~ Rock_Typ~  Temp_IR  
# ...
3988.5000   92.9430  -21.8571  193.9550    0.0085    1.0000    0.0085    0.8300    0.1415    0.0000    0.0000   28.1630   71.8370    0.0000    0.0000    0.0000    0.0000    0.0000    0.0000 -999.0000    0.0000    0.0000    0.0001    0.0000    0.0020  118.7762 
3989.0000   94.7890  -22.3353  193.9603    0.0101    1.0000    0.0101    0.8218    0.1444    0.0000    0.0000   28.1470   71.8530    0.0000    0.0000    0.0000    0.0000    0.0000    0.0000 -999.0000    0.0000    0.0000    0.0003    0.0000    0.0028  118.7817 
3989.5000   99.1380  -23.3395  200.0000    0.0143    1.0000    0.0143    0.8045    0.1478    0.0000    0.0000   45.8545   54.1455    0.0000    0.0000    0.0000    0.0000    0.0000    0.0000 -999.0000    0.0000    0.0000    0.0010    0.0000    0.0055  118.7872 
3990.0000  111.1970  -25.6767  200.0000    0.0295    1.0000    0.0295    0.7642    0.1373    0.0000    0.0000   63.5620   36.4380    0.0000    0.0000    0.0000    0.0000    0.0000    0.0000 -999.0000    0.0005    0.0000    0.0154    0.0000    0.0229  118.7927 
3990.5000  124.6590  -27.5479  200.0000    0.0490    0.9802    0.0480    0.7319    0.1048    0.0000    0.0000   69.6080   30.3920    0.0000    0.0000    0.0000    0.0000    0.0000    0.0000 -999.0000    0.0053    0.0000    0.1074    0.0000    0.0625  118.7982 
3991.0000  137.3220  -29.2911  200.0000    0.0592    0.8111    0.0480    0.7019    0.1008    0.0000    0.0000   75.6540   24.3460    0.0000    0.0000    0.0000    0.0000    0.0000    0.0000 -999.0000    0.0158    0.0000    0.2666    0.0000    0.1012  118.8037 
3991.5000  159.8150  -31.4713  200.0000    0.0668    0.7193    0.0480    0.6643    0.1132    0.0000    0.0000   75.6755   24.3245    0.0000    0.0000    0.0000    0.0000    0.0000    0.0000 -999.0000    0.0317    0.0000    0.4744    0.0000    0.1374  118.8091 
3992.0000  173.0960  -33.2115  200.0000    0.0728    0.6598    0.0480    0.6343    0.1231    0.0000    0.0000   75.6970   24.3030    0.0000    0.0000    0.0000    0.0000    0.0000    0.0000 -999.0000    0.0522    0.0000    0.7179    0.0000    0.1712  118.8146 
3992.5000  191.1575  -35.1706  200.0000    0.0795    0.6036    0.0480    0.6005    0.1343    0.0000    0.0000   75.7180   24.2820    0.0000    0.0000    0.0000    0.0000    0.0000    0.0000 -999.0000    0.0875    0.0000    1.1006    0.0000    0.2147  118.8201 
3993.0000  191.1673  -37.3118  200.0000    0.0870    0.5522    0.0480    0.5636    0.1466    0.0000    0.0000   75.7390   24.2610    0.0000    0.0000    0.0000    0.0000    0.0000    0.0000 -999.0000    0.1467    0.0000    1.6871    0.0000    0.2693  118.8256 
3993.5000  191.1770  -38.4760  200.0000    0.0910    0.5278    0.0480    0.5435    0.1532    0.0000    0.0000   75.7605   24.2395    0.0000    0.0000    0.0000    0.0000    0.0000    0.0000 -999.0000    0.1907    0.0000    2.0964    0.0000    0.3022  118.8311 
3994.0000  191.1868  -40.0662  200.0000    0.0965    0.4977    0.0480    0.5161    0.1623    0.0000    0.0000   75.7820   24.2180    0.0000    0.0000    0.0000    0.0000    0.0000    0.0000 -999.0000    0.2681    0.0000    2.7785    0.0000    0.3510  118.8366 
3994.5000  191.1965  -41.4274  200.0000    0.1012    0.4745    0.0480    0.4926    0.1701    0.0000    0.0000   75.8030   24.1970    0.0000    0.0000    0.0000    0.0000    0.0000    0.0000 -999.0000    0.3534    0.0000    3.4923    0.0000    0.3962  118.8421 
3995.0000  191.2063  -42.7016  200.0000    0.1056    0.4547    0.0480    0.4707    0.1774    0.0000    0.0000   75.8240   24.1760    0.0000    0.0000    0.0000    0.0000    0.0000    0.0000 -999.0000    0.4525    0.0000    4.2852    0.0000    0.4417  118.8476 
3995.5000  191.2160  -44.9348  200.0000    0.1133    0.4237    0.0480    0.4322    0.1902    0.0000    0.0000   75.8455   24.1545    0.0000    0.0000    0.0000    0.0000    0.0000    0.0000 -999.0000    0.6813    0.0000    6.0133    0.0000    0.5286  118.8531 
3996.0000  191.2258  -46.6400  200.0000    0.1192    0.4027    0.0480    0.4028    0.1999    0.0000    0.0000   75.8670   24.1330    0.0000    0.0000    0.0000    0.0000    0.0000    0.0000 -999.0000    0.9144    0.0000    7.6712    0.0000    0.6015  118.8585 
3996.5000  191.2355  -48.8492  200.0000    0.1268    0.3785    0.0480    0.3647    0.2125    0.0000    0.0000   75.8880   24.1120    0.0000    0.0000    0.0000    0.0000    0.0000    0.0000 -999.0000    1.3110    0.0000   10.3359    0.0000    0.7046  118.8640 
3997.0000  191.2452  -49.8564  200.0000    0.1303    0.3684    0.0480    0.3473    0.2183    0.0000    0.0000   75.9090   24.0910    0.0000    0.0000    0.0000    0.0000    1.0000    1.0000 -999.0000    1.5341    1.0000   11.7711    1.0000    0.7549  118.8695 
3997.5000  191.2550  -51.8286  200.0000    0.1371    0.3500    0.0480    0.3133    0.2296    0.0000    0.0000   75.9305   24.0695    0.0000    0.0000    0.0000    0.0000    1.0000    1.0000 -999.0000    2.0621    1.0000   15.0364    1.0000    0.8596  118.8750 
3998.0000  191.2647  -54.5968  200.0000    0.1467    0.3272    0.0480    0.2656    0.2454    0.0000    0.0000   75.9520   24.0480    0.0000    0.0000    0.0000    0.0000    1.0000    1.0000 -999.0000    3.0497    1.0000   20.7868    1.0000    1.0207  118.8805 
3998.5000  191.2745  -57.3080  200.0000    0.1561    0.3075    0.0480    0.2188    0.2609    0.0000    0.0000   75.9730   24.0270    0.0000    0.0000    0.0000    0.0000    1.0000    1.0000 -999.0000    4.3679    1.0000   27.9838    1.0000    1.1951  118.8860 
3999.0000  191.2842  -60.0672  200.0000    0.1656    0.2898    0.0480    0.1713    0.2767    0.0000    0.0000   75.9940   24.0060    0.0000    0.0000    0.0000    0.0000    1.0000    1.0000 -999.0000    6.1619    1.0000   37.2036    1.0000    1.3900  118.8915 
3999.5000  191.2940  -61.9014  200.0000    0.1720    0.2791    0.0480    0.1396    0.2871    0.0000    0.0000   76.0155   23.9845    0.0000    0.0000    0.0000    0.0000    1.0000    1.0000 -999.0000    7.6626    1.0000   44.5578    1.0000    1.5296  118.8969 
4000.0000  191.3037  -63.9146  200.0000    0.1789    0.2683    0.0480    0.1049    0.2986    0.0000    0.0000   76.0370   23.9630    0.0000    0.0000    0.0000    0.0000    1.0000    1.0000 -999.0000    9.6456    1.0000   53.9072    1.0000    1.6923  118.9024 
4000.5000  191.3134  -65.8158  200.0000    0.1855    0.2587    0.0480    0.0721    0.3095    0.0000    0.0000   76.0585   23.9415    0.0000    0.0000    0.0000    0.0000    1.0000    1.0000 -999.0000   11.8910    1.0000   64.1013    1.0000    1.8551  118.9079 
4001.0000  191.3232  -66.0950  200.0000    0.1865    0.2574    0.0480    0.0673    0.3111    0.0000    0.0000   76.0800   23.9200    0.0000    0.0000    0.0000    0.0000    1.0000    1.0000 -999.0000   12.2547    1.0000   65.7196    1.0000    1.8798  118.9134 
4001.5000  191.3329  -64.1152  200.0000    0.1796    0.2672    0.0480    0.1015    0.2998    0.0000    0.0000   76.1010   23.8990    0.0000    0.0000    0.0000    0.0000    1.0000    1.0000 -999.0000    9.8651    1.0000   54.9210    1.0000    1.7091  118.9189 
4002.0000  191.3427  -60.9314  200.0000    0.1686    0.2846    0.0480    0.1564    0.2816    0.0000    0.0000   76.1220   23.8780    0.0000    0.0000    0.0000    0.0000    1.0000    1.0000 -999.0000    6.8361    1.0000   40.5425    1.0000    1.4549  118.9244 
4002.5000  191.3524  -57.5055  200.0000    0.1568    0.3061    0.0480    0.2154    0.2620    0.0000    0.0000   76.1435   23.8565    0.0000    0.0000    0.0000    0.0000    1.0000    1.0000 -999.0000    4.4806    1.0000   28.5809    1.0000    1.2086  118.9299 
4003.0000  191.3622  -54.1077  200.0000    0.1450    0.3309    0.0480    0.2740    0.2426    0.0000    0.0000   76.1650   23.8350    0.0000    0.0000    0.0000    0.0000    1.0000    1.0000 -999.0000    2.8519    1.0000   19.6654    1.0000    0.9912  118.9354 
4003.5000  191.3719  -50.3499  200.0000    0.1320    0.3635    0.0480    0.3388    0.2211    0.0000    0.0000   76.1860   23.8140    0.0000    0.0000    0.0000    0.0000    1.0000    1.0000 -999.0000    1.6547    1.0000   12.5327    1.0000    0.7805  118.9409 
