~VERSION INFORMATION
 VERS.                 2.0:   CWLS LOG ASCII STANDARD - VERSION 2.0
 WRAP.                  NO:   SINGLE LINE PER DEPTH STEP
 CREA.                 03/05/2017 10:34:44
#CREATED USING IP VERSION 4.2.2015.61 BY PANESSOR ON 03/05/2017 10:34:44
~WELL INFORMATION
#MNEM.UNIT       DATA                          DESCRIPTION MNEMONIC
#---------      ---------------------------   --------------------------
 STRT    .FT        500.0000                  : START DEPTH
 STOP    .FT        5680.0000                 : STOP DEPTH
 STEP    .FT        0.5000                    : STEP VALUE
 NULL    .      -999.0000                     : NULL VALUE
 DATE    .      03/05/2017                    : LAS file Creation Date
 WELL  .      CRISOL-3            : Well Name
 COMP  .      INTERCOL            : Company
 FLD   .      WILDCAT             : Field
 STATE .      MAGDALENA           : State
 COUNT .      COLOMBIA            : Country
 API   .      CRIL0003            : API Number
 UWI   .      100000000377        : Unique Well Identifier (UWI)
 LOC   .      GAUSS ORIGIN BOGOTA : Location
 LATI  .      1                   : Latitude/Northing
 LONG  .      1                   : Longitude/Easting
 RWS   .      -999                : Def_Rw
 WST   .      -999                : Def_Rwt
 CNTY  .      N/A                 : County
 PROV  .                          : Province
 SRVC  .      SCH                 : Contractor
~CURVE INFORMATION
#MNEM                UNIT       API CODE     Description
#----------    --------------- ----------  --------------
 DEPTH        .FT                        : 
 RM_IR        .OHMM                      : Medium Resistivity
 RD_IR        .OHMM                      : Formation Deep Resitivity
 LAT_E_IR     .OHMM                      : Lateral AO18'8"
 SPC_IR       .MV                        : Spontaneous Potential
 PHIE_IR      .Dec                       : Effective Porosity
 SW_IR        .Dec                       : Effective Water Saturation
 BVW_IR       .Dec                       : Bulk Volume water (Phie x SW)
 VWCL_IR      .Dec                       : Volume wet Clay
 VSILT_IR     .Dec                       : Volume Silt
 SLST_IR      .%                         : Mudlog SILSTONE
 SS_IR        .%                         : Mudlog SANDSTONE
 CONG_IR      .%                         : Mudlog CONGLOMERATE
 MARL_IR      .%                         : Mudlog MARLSTONE
 ResFlag_IR   .                          : Net Reservoir
 IGNEOUS_IR   .us/ft                     : Mudlog IGNEOUS
 LS_IR        .us/ft                     : Mudlog LIMESTONE
 SH_IR        .%                         : Mudlog SHALE
 PayFlag_IR   .                          : Net Pay
 Perm_IR      .md                        : Calculated Permeability
 PayFlagRT_IR .                          : Pay Flag Rock Type
 ResFlagRT_IR .                          : Net Reservoir Rock Type
 K_PHI_IR     .                          : K/PHI RATIO
 Rock_Type_IR .microns                   : Pore Throat Size - Rock Types
 Temp_IR      .F                         : Formation Temperature
~P Interactive Petrophysics parameters
#Name        Value                 Description
#----- --------------------------  -----------
#Logging Run 
 RUN  .     1           : Run Number
 DATE .     23/04/1954  : Date                      | RUN[0]
 DFT  .     /           : Type of Fluid in Hole     | RUN[1]
~A  DEPTH   RM_IR     RD_IR    LAT_E_IR   SPC_IR   PHIE_IR    SW_IR     BVW_IR   VWCL_IR   VSILT_IR  SLST_IR    SS_IR    CONG_IR   MARL_IR  ResFlag_~ IGNEOUS_~   LS_IR     SH_IR   PayFlag_~  Perm_IR  PayFlagR~ ResFlagR~  K_PHI_IR Rock_Typ~  Temp_IR  
# ...
1188.0000   11.4670   11.6580   17.2240  -18.4960 -999.0000 -999.0000 -999.0000 -999.0000 -999.0000    0.0000   27.2070    0.0000    0.0000    0.0000    0.0000    0.0000   72.7930    0.0000    0.0000    0.0000    0.0000 -999.0000 -999.0000   87.4299 
1188.5000   11.6490   11.7370   17.7920  -18.5069 -999.0000 -999.0000 -999.0000 -999.0000 -999.0000    0.0000   27.2635    0.0000    0.0000    0.0000    0.0000    0.0000   72.7365    0.0000    0.0000    0.0000    0.0000 -999.0000 -999.0000   87.4351 
1189.0000   11.7570   11.8070   18.3270  -18.4584 -999.0000 -999.0000 -999.0000 -999.0000 -999.0000    0.0000   27.3200    0.0000    0.0000    0.0000    0.0000    0.0000   72.6800    0.0000    0.0000    0.0000    0.0000 -999.0000 -999.0000   87.4403 
1189.5000   11.9020   11.8340   18.8670  -18.4114 -999.0000 -999.0000 -999.0000 -999.0000 -999.0000    0.0000   29.7675    0.0000    0.0000    0.0000    0.0000    0.0000   70.2325    0.0000    0.0000    0.0000    0.0000 -999.0000 -999.0000   87.4456 
1190.0000   11.9020   11.7570   19.2860  -18.3761 -999.0000 -999.0000 -999.0000 -999.0000 -999.0000    0.0000   32.2150    0.0000    0.0000    0.0000    0.0000    0.0000   67.7850    0.0000    0.0000    0.0000    0.0000 -999.0000 -999.0000   87.4508 
1190.5000   11.6730   11.4120   19.8590  -18.2891 -999.0000 -999.0000 -999.0000 -999.0000 -999.0000    0.0000   41.5528    0.0000    0.0000    0.0000    0.0000    0.0000   58.4472    0.0000    0.0000    0.0000    0.0000 -999.0000 -999.0000   87.4560 
1191.0000   11.3950   11.0340   20.4740  -18.1280 -999.0000 -999.0000 -999.0000 -999.0000 -999.0000    0.0000   50.8906    0.0000    0.0000    0.0000    0.0000    0.0000   49.1094    0.0000    0.0000    0.0000    0.0000 -999.0000 -999.0000   87.4613 
1191.5000   10.8510   10.5390   20.8510  -17.9326 -999.0000 -999.0000 -999.0000 -999.0000 -999.0000    0.0000   50.8906    0.0000    0.0000    0.0000    0.0000    0.0000   49.1094    0.0000    0.0000    0.0000    0.0000 -999.0000 -999.0000   87.4665 
1192.0000   10.2720   10.0950   21.5570  -17.7393 -999.0000 -999.0000 -999.0000 -999.0000 -999.0000    0.0000   50.8906    0.0000    0.0000    0.0000    0.0000    0.0000   49.1094    0.0000    0.0000    0.0000    0.0000 -999.0000 -999.0000   87.4717 
1192.5000    9.7100    9.7570   21.8930  -17.4082 -999.0000 -999.0000 -999.0000 -999.0000 -999.0000    0.0000   50.8906    0.0000    0.0000    0.0000    0.0000    0.0000   49.1094    0.0000    0.0000    0.0000    0.0000 -999.0000 -999.0000   87.4769 
1193.0000    8.7500    9.6850   21.1740  -17.0149 -999.0000 -999.0000 -999.0000 -999.0000 -999.0000    0.0000   50.8906    0.0000    0.0000    0.0000    0.0000    0.0000   49.1094    0.0000    0.0000    0.0000    0.0000 -999.0000 -999.0000   87.4822 
1193.5000    8.1340    9.6890   20.4690  -16.4895 -999.0000 -999.0000 -999.0000 -999.0000 -999.0000    0.0000   50.8906    0.0000    0.0000    0.0000    0.0000    0.0000   49.1094    0.0000    0.0000    0.0000    0.0000 -999.0000 -999.0000   87.4874 
1194.0000    7.4460    9.9680   19.9080  -15.9473 -999.0000 -999.0000 -999.0000 -999.0000 -999.0000    0.0000   50.8906    0.0000    0.0000    0.0000    0.0000    0.0000   49.1094    0.0000    0.0000    0.0000    0.0000 -999.0000 -999.0000   87.4926 
1194.5000    7.1560   10.2460   19.2990  -15.4056 -999.0000 -999.0000 -999.0000 -999.0000 -999.0000    0.0000   50.8906    0.0000    0.0000    0.0000    0.0000    0.0000   49.1094    0.0000    0.0000    0.0000    0.0000 -999.0000 -999.0000   87.4979 
1195.0000    6.9930   10.5680   17.8020  -15.2876 -999.0000 -999.0000 -999.0000 -999.0000 -999.0000    0.0000   50.8906    0.0000    0.0000    0.0000    0.0000    0.0000   49.1094    0.0000    0.0000    0.0000    0.0000 -999.0000 -999.0000   87.5031 
1195.5000    6.9750   10.8440   16.3640  -15.4254 -999.0000 -999.0000 -999.0000 -999.0000 -999.0000    0.0000   50.8906    0.0000    0.0000    0.0000    0.0000    0.0000   49.1094    0.0000    0.0000    0.0000    0.0000 -999.0000 -999.0000   87.5083 
1196.0000    7.1200   10.9270   14.9020  -15.7206 -999.0000 -999.0000 -999.0000 -999.0000 -999.0000    0.0000   50.8906    0.0000    0.0000    0.0000    0.0000    0.0000   49.1094    0.0000    0.0000    0.0000    0.0000 -999.0000 -999.0000   87.5136 
1196.5000    7.4090   10.8580   13.2060  -16.1726 -999.0000 -999.0000 -999.0000 -999.0000 -999.0000    0.0000   50.8906    0.0000    0.0000    0.0000    0.0000    0.0000   49.1094    0.0000    0.0000    0.0000    0.0000 -999.0000 -999.0000   87.5188 
1197.0000    7.6630   10.7000   13.3000  -16.7288 -999.0000 -999.0000 -999.0000 -999.0000 -999.0000    0.0000   50.8906    0.0000    0.0000    0.0000    0.0000    0.0000   49.1094    0.0000    0.0000    0.0000    0.0000 -999.0000 -999.0000   87.5240 
1197.5000    8.0070   10.3150   13.6600  -17.1913 -999.0000 -999.0000 -999.0000 -999.0000 -999.0000    0.0000   50.8906    0.0000    0.0000    0.0000    0.0000    0.0000   49.1094    0.0000    0.0000    0.0000    0.0000 -999.0000 -999.0000   87.5293 
1198.0000    8.3880    9.8940   14.2250  -17.4902 -999.0000 -999.0000 -999.0000 -999.0000 -999.0000    0.0000   50.8906    0.0000    0.0000    0.0000    0.0000    0.0000   49.1094    0.0000    0.0000    0.0000    0.0000 -999.0000 -999.0000   87.5345 
1198.5000    8.6780    9.4610   15.2570  -17.5180 -999.0000 -999.0000 -999.0000 -999.0000 -999.0000    0.0000   50.8906    0.0000    0.0000    0.0000    0.0000    0.0000   49.1094    0.0000    0.0000    0.0000    0.0000 -999.0000 -999.0000   87.5397 
1199.0000    9.0400    9.0370   16.2890  -17.4926 -999.0000 -999.0000 -999.0000 -999.0000 -999.0000    0.0000   50.8906    0.0000    0.0000    0.0000    0.0000    0.0000   49.1094    0.0000    0.0000    0.0000    0.0000 -999.0000 -999.0000   87.5450 
1199.5000    9.1120    8.6050   17.3230  -17.3604 -999.0000 -999.0000 -999.0000 -999.0000 -999.0000    0.0000   51.9288    0.0000    0.0000    0.0000    0.0000    0.0000   48.0712    0.0000    0.0000    0.0000    0.0000 -999.0000 -999.0000   87.5502 
1200.0000    9.0220    8.2200   18.1560  -17.2155 -999.0000 -999.0000 -999.0000 -999.0000 -999.0000    0.0000   52.9670    0.0000    0.0000    0.0000    0.0000    0.0000   47.0330    0.0000    0.0000    0.0000    0.0000 -999.0000 -999.0000   87.5554 
1200.5000    8.9350    7.7270   19.6660  -16.9712 -999.0000 -999.0000 -999.0000 -999.0000 -999.0000    0.0000   58.0357    0.0000    0.0000    0.0000    0.0000    0.0000   41.9643    0.0000    0.0000    0.0000    0.0000 -999.0000 -999.0000   87.5606 
1201.0000    8.7860    7.2370   20.4630  -16.7074 -999.0000 -999.0000 -999.0000 -999.0000 -999.0000    0.0000   63.1043    0.0000    0.0000    0.0000    0.0000    0.0000   36.8957    0.0000    0.0000    0.0000    0.0000 -999.0000 -999.0000   87.5659 
1201.5000    8.2070    6.7680   21.5220  -16.3421 -999.0000 -999.0000 -999.0000 -999.0000 -999.0000    0.0000   63.1043    0.0000    0.0000    0.0000    0.0000    0.0000   36.8957    0.0000    0.0000    0.0000    0.0000 -999.0000 -999.0000   87.5711 
1202.0000    7.7360    6.6520   21.5350  -15.9625 -999.0000 -999.0000 -999.0000 -999.0000 -999.0000    0.0000   63.1043    0.0000    0.0000    0.0000    0.0000    0.0000   36.8957    0.0000    0.0000    0.0000    0.0000 -999.0000 -999.0000   87.5763 
1202.5000    7.0290    6.6730   21.1880  -15.6750 -999.0000 -999.0000 -999.0000 -999.0000 -999.0000    0.0000   63.1043    0.0000    0.0000    0.0000    0.0000    0.0000   36.8957    0.0000    0.0000    0.0000    0.0000 -999.0000 -999.0000   87.5816 
1203.0000    6.3950    6.7820   20.1030  -14.9091 -999.0000 -999.0000 -999.0000 -999.0000 -999.0000    0.0000   63.1043    0.0000    0.0000    0.0000    0.0000    0.0000   36.8957    0.0000    0.0000    0.0000    0.0000 -999.0000 -999.0000   87.5868 
1203.5000    5.8880    6.9170   19.6320  -14.4790 -999.0000 -999.0000 -999.0000 -999.0000 -999.0000    0.0000   63.1043    0.0000    0.0000    0.0000    0.0000    0.0000   36.8957    0.0000    0.0000    0.0000    0.0000 -999.0000 -999.0000   87.5920 
