~VERSION INFORMATION
 VERS.                 2.0:   CWLS LOG ASCII STANDARD - VERSION 2.0
 WRAP.                  NO:   SINGLE LINE PER DEPTH STEP
 CREA.                 16/2/2017 12:08:22 p. m.
#CREATED USING IP VERSION 4.2.2015.61 BY PANESSOR ON 16/2/2017 12:08:22 p. m.
~WELL INFORMATION
#MNEM.UNIT       DATA                          DESCRIPTION MNEMONIC
#---------      ---------------------------   --------------------------
 STRT    .FT        470.0000                  : START DEPTH
 STOP    .FT        5740.0000                 : STOP DEPTH
 STEP    .FT        0.5000                    : STEP VALUE
 NULL    .      -999.0000                     : NULL VALUE
 DATE    .      16/2/2017                     : LAS file Creation Date
 WELL  .      CRISOL-2      : Well Name
 COMP  .      INTERCOL      : Company
 FLD   .      141-AGUACHICA : Field
 STATE .      MAGDALENA     : State
 COUNT .      COLOMBIA      : Country
 API   .      CRIL0002      : API Number
 UWI   .      100000000372  : Unique Well Identifier (UWI)
 LOC   .                    : Location
 LATI  .      1.0038888889  : Latitude/Northing
 LONG  .      1.0080555556  : Longitude/Easting
 RWS   .      -999          : Def_Rw
 WST   .      -999          : Def_Rwt
 PROV  .                    : Province
 SRVC  .      SCH           : Contractor
~CURVE INFORMATION
#MNEM                UNIT       API CODE     Description
#----------    --------------- ----------  --------------
 DEPTH        .FT                        : 
 RM_IR        .OHMM                      : Resistivity AM 16"
 SPC_IR       .MV                        : Spontaneous Potential
 RD_E_IR      .OHMM                      : Formation Resitivity
 PHIE_IR      .Dec                       : Effective Porosity
 SW_IR        .Dec                       : Water Saturation
 BVW_IR       .Dec                       : Bulk Volume water (Phie x SW)
 VWCL_IR      .Dec                       : Volume wet Clay
 VSILT_IR     .Dec                       : Volume Silt
 CONG_IR      .%                         : Mudlog CONGLOMERATE
 SS_IR        .%                         : Mudlog SANDSTONE
 LS_IR        .%                         : Mudlog LIMESTONE
 MARL_IR      .%                         : Mudlog MARLSTONE
 SLST_IR      .%                         : Mudlog SILSTONE
 SH_IR        .%                         : Mudlog SHALE
 COAL_IR      .%                         : Mudlog  COAL
 IGNEOUS_IR   .%                         : Mudlog IGNEOUS
 ResFlag_IR   .                          : Net Reservoir
 PayFlag_IR   .                          : Net Pay
 PERFS_IR     .B/E                       : Perforations
 Perm_IR      .md                        : Calculated Permeability
 PayFlagRT_IR .                          : Pay Flag Rock Type
 K_PHI_IR     .                          : K/PHI RATIO
 ResFlagRT_IR .                          : Net Reservoir Rock Type
 Rock_Type_IR .microns                   : Pore Throat Size - Rock Types
 Temp_IR      .F                         : Formation Temperature
~P Interactive Petrophysics parameters
#Name        Value                 Description
#----- --------------------------  -----------
#Logging Run 
 RUN  .     1           : Run Number
 DATE .     27/02/1954  : Date                      | RUN[0]
 DFT  .     /           : Type of Fluid in Hole     | RUN[1]
~A  DEPTH   RM_IR     SPC_IR   RD_E_IR   PHIE_IR    SW_IR     BVW_IR   VWCL_IR   VSILT_IR  CONG_IR    SS_IR     LS_IR    MARL_IR   SLST_IR    SH_IR    COAL_IR  IGNEOUS_~ ResFlag_~ PayFlag_~  PERFS_IR  Perm_IR  PayFlagR~  K_PHI_IR ResFlagR~ Rock_Typ~  Temp_IR  
# ...
1539.5000   18.4190  -15.8949   18.1360 -999.0000 -999.0000 -999.0000 -999.0000 -999.0000    0.0000   80.6250    0.0000    0.0000    0.0000   19.3750    0.0000    0.0000    0.0000    0.0000 -999.0000    0.0000    0.0000 -999.0000    0.0000 -999.0000   91.8969 
1540.0000   18.7120  -15.6785   18.6110 -999.0000 -999.0000 -999.0000 -999.0000 -999.0000    0.0000   80.6250    0.0000    0.0000    0.0000   19.3750    0.0000    0.0000    0.0000    0.0000 -999.0000    0.0000    0.0000 -999.0000    0.0000 -999.0000   91.9024 
1540.5000   18.5730  -15.5331   19.0810 -999.0000 -999.0000 -999.0000 -999.0000 -999.0000    0.0000   80.6250    0.0000    0.0000    0.0000   19.3750    0.0000    0.0000    0.0000    0.0000 -999.0000    0.0000    0.0000 -999.0000    0.0000 -999.0000   91.9079 
1541.0000   18.1930  -15.4217   19.5480 -999.0000 -999.0000 -999.0000 -999.0000 -999.0000    0.0000   80.6250    0.0000    0.0000    0.0000   19.3750    0.0000    0.0000    0.0000    0.0000 -999.0000    0.0000    0.0000 -999.0000    0.0000 -999.0000   91.9134 
1541.5000   17.8600  -15.2303   19.6920 -999.0000 -999.0000 -999.0000 -999.0000 -999.0000    0.0000   80.6250    0.0000    0.0000    0.0000   19.3750    0.0000    0.0000    0.0000    0.0000 -999.0000    0.0000    0.0000 -999.0000    0.0000 -999.0000   91.9189 
1542.0000   17.5210  -15.1898   19.8020 -999.0000 -999.0000 -999.0000 -999.0000 -999.0000    0.0000   80.6250    0.0000    0.0000    0.0000   19.3750    0.0000    0.0000    0.0000    0.0000 -999.0000    0.0000    0.0000 -999.0000    0.0000 -999.0000   91.9244 
1542.5000   16.9720  -15.2094   19.8390 -999.0000 -999.0000 -999.0000 -999.0000 -999.0000    0.0000   80.6250    0.0000    0.0000    0.0000   19.3750    0.0000    0.0000    0.0000    0.0000 -999.0000    0.0000    0.0000 -999.0000    0.0000 -999.0000   91.9299 
1543.0000   16.5840  -15.1910   19.8380 -999.0000 -999.0000 -999.0000 -999.0000 -999.0000    0.0000   80.6250    0.0000    0.0000    0.0000   19.3750    0.0000    0.0000    0.0000    0.0000 -999.0000    0.0000    0.0000 -999.0000    0.0000 -999.0000   91.9354 
1543.5000   16.2180  -15.3886   19.8380 -999.0000 -999.0000 -999.0000 -999.0000 -999.0000    0.0000   80.6250    0.0000    0.0000    0.0000   19.3750    0.0000    0.0000    0.0000    0.0000 -999.0000    0.0000    0.0000 -999.0000    0.0000 -999.0000   91.9409 
1544.0000   15.8300  -15.2432   19.8350 -999.0000 -999.0000 -999.0000 -999.0000 -999.0000    0.0000   80.6250    0.0000    0.0000    0.0000   19.3750    0.0000    0.0000    0.0000    0.0000 -999.0000    0.0000    0.0000 -999.0000    0.0000 -999.0000   91.9463 
1544.5000   15.3770  -15.1558   19.8390 -999.0000 -999.0000 -999.0000 -999.0000 -999.0000    0.0000   80.6250    0.0000    0.0000    0.0000   19.3750    0.0000    0.0000    0.0000    0.0000 -999.0000    0.0000    0.0000 -999.0000    0.0000 -999.0000   91.9518 
1545.0000   14.8890  -15.1844   19.8380 -999.0000 -999.0000 -999.0000 -999.0000 -999.0000    0.0000   80.6250    0.0000    0.0000    0.0000   19.3750    0.0000    0.0000    0.0000    0.0000 -999.0000    0.0000    0.0000 -999.0000    0.0000 -999.0000   91.9573 
1545.5000   14.6030  -15.5710   19.8110 -999.0000 -999.0000 -999.0000 -999.0000 -999.0000    0.0000   80.6250    0.0000    0.0000    0.0000   19.3750    0.0000    0.0000    0.0000    0.0000 -999.0000    0.0000    0.0000 -999.0000    0.0000 -999.0000   91.9628 
1546.0000   14.4100  -16.4035   19.6110 -999.0000 -999.0000 -999.0000 -999.0000 -999.0000    0.0000   80.6250    0.0000    0.0000    0.0000   19.3750    0.0000    0.0000    0.0000    0.0000 -999.0000    0.0000    0.0000 -999.0000    0.0000 -999.0000   91.9683 
1546.5000   14.4220  -17.9921   19.2700 -999.0000 -999.0000 -999.0000 -999.0000 -999.0000    0.0000   80.6250    0.0000    0.0000    0.0000   19.3750    0.0000    0.0000    0.0000    0.0000 -999.0000    0.0000    0.0000 -999.0000    0.0000 -999.0000   91.9738 
1547.0000   14.4860  -19.1847   18.8520 -999.0000 -999.0000 -999.0000 -999.0000 -999.0000    0.0000   80.6250    0.0000    0.0000    0.0000   19.3750    0.0000    0.0000    0.0000    0.0000 -999.0000    0.0000    0.0000 -999.0000    0.0000 -999.0000   91.9793 
1547.5000   14.8070  -19.5083   18.4900 -999.0000 -999.0000 -999.0000 -999.0000 -999.0000    0.0000   80.6250    0.0000    0.0000    0.0000   19.3750    0.0000    0.0000    0.0000    0.0000 -999.0000    0.0000    0.0000 -999.0000    0.0000 -999.0000   91.9848 
1548.0000   14.8860  -19.9619   18.2140 -999.0000 -999.0000 -999.0000 -999.0000 -999.0000    0.0000   80.6250    0.0000    0.0000    0.0000   19.3750    0.0000    0.0000    0.0000    0.0000 -999.0000    0.0000    0.0000 -999.0000    0.0000 -999.0000   91.9902 
1548.5000   14.8910  -20.2635   17.9220 -999.0000 -999.0000 -999.0000 -999.0000 -999.0000    0.0000   80.6250    0.0000    0.0000    0.0000   19.3750    0.0000    0.0000    0.0000    0.0000 -999.0000    0.0000    0.0000 -999.0000    0.0000 -999.0000   91.9957 
1549.0000   14.6800  -20.2491   17.6310 -999.0000 -999.0000 -999.0000 -999.0000 -999.0000    0.0000   80.6250    0.0000    0.0000    0.0000   19.3750    0.0000    0.0000    0.0000    0.0000 -999.0000    0.0000    0.0000 -999.0000    0.0000 -999.0000   92.0012 
1549.5000   14.4630  -20.0886   17.3060 -999.0000 -999.0000 -999.0000 -999.0000 -999.0000    0.0000   80.6250    0.0000    0.0000    0.0000   19.3750    0.0000    0.0000    0.0000    0.0000 -999.0000    0.0000    0.0000 -999.0000    0.0000 -999.0000   92.0067 
1550.0000   14.2340  -19.6682   17.1230 -999.0000 -999.0000 -999.0000 -999.0000 -999.0000    0.0000   80.6250    0.0000    0.0000    0.0000   19.3750    0.0000    0.0000    0.0000    0.0000 -999.0000    0.0000    0.0000 -999.0000    0.0000 -999.0000   92.0122 
1550.5000   13.9210  -19.1628   16.7780 -999.0000 -999.0000 -999.0000 -999.0000 -999.0000    0.0000   63.1250    0.0000    0.0000    0.0000   36.8750    0.0000    0.0000    0.0000    0.0000 -999.0000    0.0000    0.0000 -999.0000    0.0000 -999.0000   92.0177 
1551.0000   13.6890  -18.6864   16.5570 -999.0000 -999.0000 -999.0000 -999.0000 -999.0000    0.0000   45.6250    0.0000    0.0000    0.0000   54.3750    0.0000    0.0000    0.0000    0.0000 -999.0000    0.0000    0.0000 -999.0000    0.0000 -999.0000   92.0232 
1551.5000   13.7840  -17.9830   16.5380 -999.0000 -999.0000 -999.0000 -999.0000 -999.0000    0.0000   45.6250    0.0000    0.0000    0.0000   54.3750    0.0000    0.0000    0.0000    0.0000 -999.0000    0.0000    0.0000 -999.0000    0.0000 -999.0000   92.0287 
1552.0000   13.6510  -17.3856   16.6700 -999.0000 -999.0000 -999.0000 -999.0000 -999.0000    0.0000   45.6250    0.0000    0.0000    0.0000   54.3750    0.0000    0.0000    0.0000    0.0000 -999.0000    0.0000    0.0000 -999.0000    0.0000 -999.0000   92.0341 
1552.5000   13.5180  -16.7302   16.7680 -999.0000 -999.0000 -999.0000 -999.0000 -999.0000    0.0000   45.6250    0.0000    0.0000    0.0000   54.3750    0.0000    0.0000    0.0000    0.0000 -999.0000    0.0000    0.0000 -999.0000    0.0000 -999.0000   92.0396 
1553.0000   13.4540  -15.9187   16.8530 -999.0000 -999.0000 -999.0000 -999.0000 -999.0000    0.0000   45.6250    0.0000    0.0000    0.0000   54.3750    0.0000    0.0000    0.0000    0.0000 -999.0000    0.0000    0.0000 -999.0000    0.0000 -999.0000   92.0451 
1553.5000   13.4860  -15.6633   16.7320 -999.0000 -999.0000 -999.0000 -999.0000 -999.0000    0.0000   45.6250    0.0000    0.0000    0.0000   54.3750    0.0000    0.0000    0.0000    0.0000 -999.0000    0.0000    0.0000 -999.0000    0.0000 -999.0000   92.0506 
1554.0000   13.5140  -16.2849   16.6150 -999.0000 -999.0000 -999.0000 -999.0000 -999.0000    0.0000   45.6250    0.0000    0.0000    0.0000   54.3750    0.0000    0.0000    0.0000    0.0000 -999.0000    0.0000    0.0000 -999.0000    0.0000 -999.0000   92.0561 
1554.5000   14.2100  -17.3015   16.4110 -999.0000 -999.0000 -999.0000 -999.0000 -999.0000    0.0000   45.6250    0.0000    0.0000    0.0000   54.3750    0.0000    0.0000    0.0000    0.0000 -999.0000    0.0000    0.0000 -999.0000    0.0000 -999.0000   92.0616 
