~VERSION INFORMATION
 VERS.                 2.0:   CWLS LOG ASCII STANDARD - VERSION 2.0
 WRAP.                  NO:   SINGLE LINE PER DEPTH STEP
 CREA.                 03/05/2017 10:34:44
#CREATED USING IP VERSION 4.2.2015.61 BY PANESSOR ON 03/05/2017 10:34:44
~WELL INFORMATION
#MNEM.UNIT       DATA                          DESCRIPTION MNEMONIC
#---------      ---------------------------   --------------------------
 STRT    .FT        500.0000                  : START DEPTH
 STOP    .FT        5680.0000                 : STOP DEPTH
 STEP    .FT        0.5000                    : STEP VALUE
 NULL    .      -999.0000                     : NULL VALUE
 DATE    .      03/05/2017                    : LAS file Creation Date
 WELL  .      CRISOL-3            : Well Name
 COMP  .      INTERCOL            : Company
 FLD   .      WILDCAT             : Field
 STATE .      MAGDALENA           : State
 COUNT .      COLOMBIA            : Country
 API   .      CRIL0003            : API Number
 UWI   .      100000000377        : Unique Well Identifier (UWI)
 LOC   .      GAUSS ORIGIN BOGOTA : Location
 LATI  .      1                   : Latitude/Northing
 LONG  .      1                   : Longitude/Easting
 RWS   .      -999                : Def_Rw
 WST   .      -999                : Def_Rwt
 CNTY  .      N/A                 : County
 PROV  .                          : Province
 SRVC  .      SCH                 : Contractor
~CURVE INFORMATION
#MNEM                UNIT       API CODE     Description
#----------    --------------- ----------  --------------
 DEPTH        .FT                        : 
 RM_IR        .OHMM                      : Medium Resistivity
 RD_IR        .OHMM                      : Formation Deep Resitivity
 LAT_E_IR     .OHMM                      : Lateral AO18'8"
 SPC_IR       .MV                        : Spontaneous Potential
 PHIE_IR      .Dec                       : Effective Porosity
 SW_IR        .Dec                       : Effective Water Saturation
 BVW_IR       .Dec                       : Bulk Volume water (Phie x SW)
 VWCL_IR      .Dec                       : Volume wet Clay
 VSILT_IR     .Dec                       : Volume Silt
 SLST_IR      .%                         : Mudlog SILSTONE
 SS_IR        .%                         : Mudlog SANDSTONE
 CONG_IR      .%                         : Mudlog CONGLOMERATE
 MARL_IR      .%                         : Mudlog MARLSTONE
 ResFlag_IR   .                          : Net Reservoir
 IGNEOUS_IR   .us/ft                     : Mudlog IGNEOUS
 LS_IR        .us/ft                     : Mudlog LIMESTONE
 SH_IR        .%                         : Mudlog SHALE
 PayFlag_IR   .                          : Net Pay
 Perm_IR      .md                        : Calculated Permeability
 PayFlagRT_IR .                          : Pay Flag Rock Type
 ResFlagRT_IR .                          : Net Reservoir Rock Type
 K_PHI_IR     .                          : K/PHI RATIO
 Rock_Type_IR .microns                   : Pore Throat Size - Rock Types
 Temp_IR      .F                         : Formation Temperature
~P Interactive Petrophysics parameters
#Name        Value                 Description
#----- --------------------------  -----------
#Logging Run 
 RUN  .     1           : Run Number
 DATE .     23/04/1954  : Date                      | RUN[0]
 DFT  .     /           : Type of Fluid in Hole     | RUN[1]
~A  DEPTH   RM_IR     RD_IR    LAT_E_IR   SPC_IR   PHIE_IR    SW_IR     BVW_IR   VWCL_IR   VSILT_IR  SLST_IR    SS_IR    CONG_IR   MARL_IR  ResFlag_~ IGNEOUS_~   LS_IR     SH_IR   PayFlag_~  Perm_IR  PayFlagR~ ResFlagR~  K_PHI_IR Rock_Typ~  Temp_IR  
# ...
 836.0000    7.0470    8.4050    9.4660  -15.7692 -999.0000 -999.0000 -999.0000 -999.0000 -999.0000   51.8630   35.4002    0.0000    0.0000    0.0000    0.0000    0.0000   12.7368    0.0000    0.0000    0.0000    0.0000 -999.0000 -999.0000   83.7469 
 836.5000    7.5180    8.5610   10.1160  -16.3165 -999.0000 -999.0000 -999.0000 -999.0000 -999.0000   51.8585   35.4118    0.0000    0.0000    0.0000    0.0000    0.0000   12.7297    0.0000    0.0000    0.0000    0.0000 -999.0000 -999.0000   83.7522 
 837.0000    7.9170    8.7110   10.5990  -16.6295 -999.0000 -999.0000 -999.0000 -999.0000 -999.0000   51.8539   35.4235    0.0000    0.0000    0.0000    0.0000    0.0000   12.7226    0.0000    0.0000    0.0000    0.0000 -999.0000 -999.0000   83.7574 
 837.5000    8.6780    8.9900   11.4990  -17.1815 -999.0000 -999.0000 -999.0000 -999.0000 -999.0000   51.8493   35.5489    0.0000    0.0000    0.0000    0.0000    0.0000   12.6018    0.0000    0.0000    0.0000    0.0000 -999.0000 -999.0000   83.7626 
 838.0000    9.0580    9.2680   12.2310  -17.4361 -999.0000 -999.0000 -999.0000 -999.0000 -999.0000   51.8448   35.6742    0.0000    0.0000    0.0000    0.0000    0.0000   12.4810    0.0000    0.0000    0.0000    0.0000 -999.0000 -999.0000   83.7679 
 838.5000    9.4840    9.6090   12.8080  -17.6250 -999.0000 -999.0000 -999.0000 -999.0000 -999.0000   51.8402   35.7582    0.0000    0.0000    0.0000    0.0000    0.0000   12.4015    0.0000    0.0000    0.0000    0.0000 -999.0000 -999.0000   83.7731 
 839.0000    9.9090    9.9430   13.2840  -17.7649 -999.0000 -999.0000 -999.0000 -999.0000 -999.0000   51.8357   35.8423    0.0000    0.0000    0.0000    0.0000    0.0000   12.3220    0.0000    0.0000    0.0000    0.0000 -999.0000 -999.0000   83.7783 
 839.5000   10.2720   10.2250   13.9270  -18.0369 -999.0000 -999.0000 -999.0000 -999.0000 -999.0000   51.8312   35.9148    0.0000    0.0000    0.0000    0.0000    0.0000   12.2540    0.0000    0.0000    0.0000    0.0000 -999.0000 -999.0000   83.7836 
 840.0000   10.5360   10.5470   14.6580  -18.2199 -999.0000 -999.0000 -999.0000 -999.0000 -999.0000   51.8266   35.9874    0.0000    0.0000    0.0000    0.0000    0.0000   12.1860    0.0000    0.0000    0.0000    0.0000 -999.0000 -999.0000   83.7888 
 840.5000   10.7840   10.8510   15.3750  -18.4356 -999.0000 -999.0000 -999.0000 -999.0000 -999.0000   51.8221   35.9939    0.0000    0.0000    0.0000    0.0000    0.0000   12.1840    0.0000    0.0000    0.0000    0.0000 -999.0000 -999.0000   83.7940 
 841.0000   11.0330   11.0340   16.0980  -18.6160 -999.0000 -999.0000 -999.0000 -999.0000 -999.0000   51.8175   36.0005    0.0000    0.0000    0.0000    0.0000    0.0000   12.1820    0.0000    0.0000    0.0000    0.0000 -999.0000 -999.0000   83.7993 
 841.5000   11.1670   11.0410   16.8560  -18.7312 -999.0000 -999.0000 -999.0000 -999.0000 -999.0000   51.8130   36.0065    0.0000    0.0000    0.0000    0.0000    0.0000   12.1805    0.0000    0.0000    0.0000    0.0000 -999.0000 -999.0000   83.8045 
 842.0000   11.1780   10.7930   17.9780  -18.8816 -999.0000 -999.0000 -999.0000 -999.0000 -999.0000   51.8084   36.0126    0.0000    0.0000    0.0000    0.0000    0.0000   12.1790    0.0000    0.0000    0.0000    0.0000 -999.0000 -999.0000   83.8097 
 842.5000   10.9420   10.0840   18.7750  -19.0520 -999.0000 -999.0000 -999.0000 -999.0000 -999.0000   51.8038   36.0162    0.0000    0.0000    0.0000    0.0000    0.0000   12.1800    0.0000    0.0000    0.0000    0.0000 -999.0000 -999.0000   83.8149 
 843.0000   10.5250    9.4300   19.4990  -19.2219 -999.0000 -999.0000 -999.0000 -999.0000 -999.0000   51.7993   36.0197    0.0000    0.0000    0.0000    0.0000    0.0000   12.1810    0.0000    0.0000    0.0000    0.0000 -999.0000 -999.0000   83.8202 
 843.5000   10.1270    8.7360   20.4580  -19.3855 -999.0000 -999.0000 -999.0000 -999.0000 -999.0000   51.7948   36.0247    0.0000    0.0000    0.0000    0.0000    0.0000   12.1805    0.0000    0.0000    0.0000    0.0000 -999.0000 -999.0000   83.8254 
 844.0000    9.1850    8.1180   21.1810  -19.4996 -999.0000 -999.0000 -999.0000 -999.0000 -999.0000   51.7903   36.0297    0.0000    0.0000    0.0000    0.0000    0.0000   12.1800    0.0000    0.0000    0.0000    0.0000 -999.0000 -999.0000   83.8306 
 844.5000    8.3510    7.4410   21.1810  -19.3005 -999.0000 -999.0000 -999.0000 -999.0000 -999.0000   51.7858   36.0342    0.0000    0.0000    0.0000    0.0000    0.0000   12.1800    0.0000    0.0000    0.0000    0.0000 -999.0000 -999.0000   83.8359 
 845.0000    7.5360    7.2130   20.7880  -18.7436 -999.0000 -999.0000 -999.0000 -999.0000 -999.0000   51.7812   36.0388    0.0000    0.0000    0.0000    0.0000    0.0000   12.1800    0.0000    0.0000    0.0000    0.0000 -999.0000 -999.0000   83.8411 
 845.5000    6.7570    7.0750   20.0790  -17.6698 -999.0000 -999.0000 -999.0000 -999.0000 -999.0000   51.7766   36.0434    0.0000    0.0000    0.0000    0.0000    0.0000   12.1800    0.0000    0.0000    0.0000    0.0000 -999.0000 -999.0000   83.8463 
 846.0000    6.1780    7.0820   19.1300  -16.8460 -999.0000 -999.0000 -999.0000 -999.0000 -999.0000   51.7721   36.0479    0.0000    0.0000    0.0000    0.0000    0.0000   12.1800    0.0000    0.0000    0.0000    0.0000 -999.0000 -999.0000   83.8516 
 846.5000    5.5620    7.1370   18.1130  -16.1243 -999.0000 -999.0000 -999.0000 -999.0000 -999.0000   51.7675   36.0529    0.0000    0.0000    0.0000    0.0000    0.0000   12.1795    0.0000    0.0000    0.0000    0.0000 -999.0000 -999.0000   83.8568 
 847.0000    5.2360    7.2110   16.1110  -15.0484 -999.0000 -999.0000 -999.0000 -999.0000 -999.0000   51.7630   36.0580    0.0000    0.0000    0.0000    0.0000    0.0000   12.1790    0.0000    0.0000    0.0000    0.0000 -999.0000 -999.0000   83.8620 
 847.5000    4.9820    7.2160   14.5150  -14.4246 -999.0000 -999.0000 -999.0000 -999.0000 -999.0000   51.7584   36.0625    0.0000    0.0000    0.0000    0.0000    0.0000   12.1790    0.0000    0.0000    0.0000    0.0000 -999.0000 -999.0000   83.8673 
 848.0000    4.8010    7.2090   12.4300  -13.8919 -999.0000 -999.0000 -999.0000 -999.0000 -999.0000   51.7539   36.0671    0.0000    0.0000    0.0000    0.0000    0.0000   12.1790    0.0000    0.0000    0.0000    0.0000 -999.0000 -999.0000   83.8725 
 848.5000    4.6920    7.1400   10.9600  -13.7734 -999.0000 -999.0000 -999.0000 -999.0000 -999.0000   51.7494   36.0716    0.0000    0.0000    0.0000    0.0000    0.0000   12.1790    0.0000    0.0000    0.0000    0.0000 -999.0000 -999.0000   83.8777 
 849.0000    4.5470    7.0360    9.8010  -13.5643 -999.0000 -999.0000 -999.0000 -999.0000 -999.0000   51.7448   36.0762    0.0000    0.0000    0.0000    0.0000    0.0000   12.1790    0.0000    0.0000    0.0000    0.0000 -999.0000 -999.0000   83.8830 
 849.5000    4.5110    6.9620    9.1850  -13.4705 -999.0000 -999.0000 -999.0000 -999.0000 -999.0000   51.7402   36.0807    0.0000    0.0000    0.0000    0.0000    0.0000   12.1790    0.0000    0.0000    0.0000    0.0000 -999.0000 -999.0000   83.8882 
 850.0000    4.4640    6.8260    8.8590  -13.3925 -999.0000 -999.0000 -999.0000 -999.0000 -999.0000   51.7357   36.0853    0.0000    0.0000    0.0000    0.0000    0.0000   12.1790    0.0000    0.0000    0.0000    0.0000 -999.0000 -999.0000   83.8934 
 850.5000    4.4460    6.7090    8.6050  -13.2772 -999.0000 -999.0000 -999.0000 -999.0000 -999.0000   51.7311   36.0899    0.0000    0.0000    0.0000    0.0000    0.0000   12.1790    0.0000    0.0000    0.0000    0.0000 -999.0000 -999.0000   83.8987 
 851.0000    4.4380    6.5570    8.3150  -13.1871 -999.0000 -999.0000 -999.0000 -999.0000 -999.0000   51.7266   36.0944    0.0000    0.0000    0.0000    0.0000    0.0000   12.1790    0.0000    0.0000    0.0000    0.0000 -999.0000 -999.0000   83.9039 
 851.5000    4.4020    6.4180    8.2070  -13.1380 -999.0000 -999.0000 -999.0000 -999.0000 -999.0000   51.7221   36.0984    0.0000    0.0000    0.0000    0.0000    0.0000   12.1795    0.0000    0.0000    0.0000    0.0000 -999.0000 -999.0000   83.9091 
