~VERSION INFORMATION
 VERS.                 2.0:   CWLS LOG ASCII STANDARD - VERSION 2.0
 WRAP.                  NO:   SINGLE LINE PER DEPTH STEP
 CREA.                 03/05/2017 10:34:44
#CREATED USING IP VERSION 4.2.2015.61 BY PANESSOR ON 03/05/2017 10:34:44
~WELL INFORMATION
#MNEM.UNIT       DATA                          DESCRIPTION MNEMONIC
#---------      ---------------------------   --------------------------
 STRT    .FT        500.0000                  : START DEPTH
 STOP    .FT        5680.0000                 : STOP DEPTH
 STEP    .FT        0.5000                    : STEP VALUE
 NULL    .      -999.0000                     : NULL VALUE
 DATE    .      03/05/2017                    : LAS file Creation Date
 WELL  .      CRISOL-3            : Well Name
 COMP  .      INTERCOL            : Company
 FLD   .      WILDCAT             : Field
 STATE .      MAGDALENA           : State
 COUNT .      COLOMBIA            : Country
 API   .      CRIL0003            : API Number
 UWI   .      100000000377        : Unique Well Identifier (UWI)
 LOC   .      GAUSS ORIGIN BOGOTA : Location
 LATI  .      1                   : Latitude/Northing
 LONG  .      1                   : Longitude/Easting
 RWS   .      -999                : Def_Rw
 WST   .      -999                : Def_Rwt
 CNTY  .      N/A                 : County
 PROV  .                          : Province
 SRVC  .      SCH                 : Contractor
~CURVE INFORMATION
#MNEM                UNIT       API CODE     Description
#----------    --------------- ----------  --------------
 DEPTH        .FT                        : 
 RM_IR        .OHMM                      : Medium Resistivity
 RD_IR        .OHMM                      : Formation Deep Resitivity
 LAT_E_IR     .OHMM                      : Lateral AO18'8"
 SPC_IR       .MV                        : Spontaneous Potential
 PHIE_IR      .Dec                       : Effective Porosity
 SW_IR        .Dec                       : Effective Water Saturation
 BVW_IR       .Dec                       : Bulk Volume water (Phie x SW)
 VWCL_IR      .Dec                       : Volume wet Clay
 VSILT_IR     .Dec                       : Volume Silt
 SLST_IR      .%                         : Mudlog SILSTONE
 SS_IR        .%                         : Mudlog SANDSTONE
 CONG_IR      .%                         : Mudlog CONGLOMERATE
 MARL_IR      .%                         : Mudlog MARLSTONE
 ResFlag_IR   .                          : Net Reservoir
 IGNEOUS_IR   .us/ft                     : Mudlog IGNEOUS
 LS_IR        .us/ft                     : Mudlog LIMESTONE
 SH_IR        .%                         : Mudlog SHALE
 PayFlag_IR   .                          : Net Pay
 Perm_IR      .md                        : Calculated Permeability
 PayFlagRT_IR .                          : Pay Flag Rock Type
 ResFlagRT_IR .                          : Net Reservoir Rock Type
 K_PHI_IR     .                          : K/PHI RATIO
 Rock_Type_IR .microns                   : Pore Throat Size - Rock Types
 Temp_IR      .F                         : Formation Temperature
~P Interactive Petrophysics parameters
#Name        Value                 Description
#----- --------------------------  -----------
#Logging Run 
 RUN  .     1           : Run Number
 DATE .     23/04/1954  : Date                      | RUN[0]
 DFT  .     /           : Type of Fluid in Hole     | RUN[1]
~A  DEPTH   RM_IR     RD_IR    LAT_E_IR   SPC_IR   PHIE_IR    SW_IR     BVW_IR   VWCL_IR   VSILT_IR  SLST_IR    SS_IR    CONG_IR   MARL_IR  ResFlag_~ IGNEOUS_~   LS_IR     SH_IR   PayFlag_~  Perm_IR  PayFlagR~ ResFlagR~  K_PHI_IR Rock_Typ~  Temp_IR  
# ...
4260.0000    3.9490    3.7299    3.4120  -13.1825    0.0002    1.0000    0.0002    0.9578    0.0415    3.4740   20.9535    0.0000    0.0000    0.0000    0.0000   29.7710   45.8015    0.0000    0.0000    0.0000    0.0000    0.0000    0.0000  119.5717 
4260.5000    4.0450    3.7299    3.4690  -13.0936    0.0002    1.0000    0.0002    0.9609    0.0384    6.6989   10.4768    0.0000    0.0000    0.0000    0.0000   33.2061   49.6183    0.0000    0.0000    0.0000    0.0000    0.0000    0.0000  119.5770 
4261.0000    4.1230    3.9871    3.5450  -13.0674    0.0002    1.0000    0.0002    0.9619    0.0375    9.9237    0.0000    0.0000    0.0000    0.0000    0.0000   36.6412   53.4351    0.0000    0.0000    0.0000    0.0000    0.0000    0.0000  119.5822 
4261.5000    4.2020    4.1158    3.6010  -13.0833    0.0002    1.0000    0.0002    0.9613    0.0381    9.9438    0.0000    0.0000    0.0000    0.0000    0.0000   36.6130   53.4433    0.0000    0.0000    0.0000    0.0000    0.0000    0.0000  119.5874 
4262.0000    4.3120    4.5016    3.6850  -13.0886    0.0002    1.0000    0.0002    0.9611    0.0382    9.9638    0.0000    0.0000    0.0000    0.0000    0.0000   36.5847   53.4515    0.0000    0.0000    0.0000    0.0000    0.0000    0.0000  119.5927 
4262.5000    4.7460    4.8875    3.7370  -13.2566    0.0002    1.0000    0.0002    0.9551    0.0440    9.9839    0.0000    0.0000    0.0000    0.0000    0.0000   36.5564   53.4597    0.0000    0.0000    0.0000    0.0000    0.0000    0.0000  119.5979 
4263.0000    5.2540    5.2733    3.9170  -13.4578    0.0003    1.0000    0.0003    0.9479    0.0510   10.0040    0.0000    0.0000    0.0000    0.0000    0.0000   36.5281   53.4679    0.0000    0.0000    0.0000    0.0000    0.0000    0.0000  119.6031 
4263.5000    6.0710    5.7878    4.0030  -14.4884    0.0011    1.0000    0.0011    0.9111    0.0851   10.0241    0.0000    0.0000    0.0000    0.0000    0.0000   36.4998   53.4761    0.0000    0.0000    0.0000    0.0000    0.0000    0.0000  119.6084 
4264.0000    7.7170    5.7878    4.1760  -14.9248    0.0018    1.0000    0.0018    0.8955    0.0985   10.0442    0.0000    0.0000    0.0000    0.0000    0.0000   36.4716   53.4842    0.0000    0.0000    0.0000    0.0000    0.0000    0.0001  119.6136 
4264.5000   11.0780    7.3870    4.3360  -15.7002    0.0036    1.0000    0.0036    0.8679    0.1201   10.0643    0.0000    0.0000    0.0000    0.0000    0.0000   36.4433   53.4924    0.0000    0.0000    0.0000    0.0000    0.0000    0.0004  119.6188 
4265.0000   14.3070    8.2240    4.9480  -16.4224    0.0066    1.0000    0.0066    0.8421    0.1360   10.0844    0.0000    0.0000    0.0000    0.0000    0.0000   36.4150   53.5006    0.0000    0.0000    0.0000    0.0000    0.0001    0.0012  119.6240 
4265.5000   17.5360    9.2220    5.6450  -16.6493    0.0078    1.0000    0.0078    0.8340    0.1399   10.1045    0.0000    0.0000    0.0000    0.0000    0.0000   36.3867   53.5088    0.0000    0.0000    0.0000    0.0000    0.0001    0.0017  119.6293 
4266.0000   20.7650    9.9460    6.3680  -16.9847    0.0101    1.0000    0.0101    0.8220    0.1444   10.1245    0.0000    0.0000    0.0000    0.0000    0.0000   36.3585   53.5170    0.0000    0.0000    0.0000    0.0000    0.0003    0.0028  119.6345 
4266.5000   23.9940   12.4770    7.0830  -17.3379    0.0130    1.0000    0.0130    0.8094    0.1473   10.1446    0.0000    0.0000    0.0000    0.0000    0.0000   36.3302   53.5251    0.0000    0.0000    0.0000    0.0000    0.0007    0.0046  119.6397 
4267.0000   27.2230   14.2860    7.8080  -17.6033    0.0156    1.0000    0.0156    0.7999    0.1480   10.1647    0.0000    0.0000    0.0000    0.0000    0.0000   36.3020   53.5333    0.0000    0.0000    0.0000    0.0000    0.0014    0.0066  119.6450 
4267.5000   29.3740   17.9020    8.8950  -17.8781    0.0188    1.0000    0.0188    0.7901    0.1474   10.1848    0.0000    0.0000    0.0000    0.0000    0.0000   36.2737   53.5415    0.0000    0.0001    0.0000    0.0000    0.0027    0.0094  119.6502 
4268.0000   30.4900   21.1570   10.7430  -18.0319    0.0207    1.0000    0.0207    0.7846    0.1463   10.2049    0.0000    0.0000    0.0000    0.0000    0.0000   36.2454   53.5497    0.0000    0.0001    0.0000    0.0000    0.0040    0.0115  119.6554 
4268.5000   31.6060   24.7740   11.6490  -18.3346    0.0251    1.0000    0.0251    0.7738    0.1426   10.2250    0.0000    0.0000    0.0000    0.0000    0.0000   36.2171   53.5579    0.0000    0.0002    0.0000    0.0000    0.0083    0.0167  119.6607 
4269.0000   32.2100   29.1140   14.3660  -18.7184    0.0316    1.0000    0.0316    0.7601    0.1345   10.2451    0.0000    0.0000    0.0000    0.0000    0.0000   36.1889   53.5660    0.0000    0.0006    0.0000    0.0000    0.0200    0.0262  119.6659 
4269.5000   32.0650   30.5610   15.8150  -19.0938    0.0392    1.0000    0.0392    0.7467    0.1226   10.2652    0.0000    0.0000    0.0000    0.0000    0.0000   36.1606   53.5742    0.0000    0.0018    0.0000    0.0000    0.0452    0.0399  119.6711 
4270.0000   31.5580   29.1140   16.9020  -19.6091    0.0517    1.0000    0.0517    0.7282    0.0995   10.2853    0.0000    0.0000    0.0000    0.0000    0.0000   36.1323   53.5824    0.0000    0.0067    0.0000    0.0000    0.1291    0.0686  119.6764 
4270.5000   27.4400   23.3270   20.0840  -19.9597    0.0616    1.0000    0.0616    0.7157    0.0789   10.3054    0.0000    0.0000    0.0000    0.0000    0.0000   54.1985   35.4962    0.0000    0.0155    0.0000    0.0000    0.2516    0.0967  119.6816 
4271.0000   23.1520   19.7110   21.1630  -20.2830    0.0718    1.0000    0.0718    0.7042    0.0565   10.3254    0.0000    0.0000    0.0000    0.0000    0.0000   72.2646   17.4100    0.0000    0.0323    0.0000    0.0000    0.4498    0.1305  119.6868 
4271.5000   18.1960   17.5410   21.9820  -20.3589    0.0725    1.0000    0.0725    0.7015    0.0568   10.3455    0.0000    0.0000    0.0000    0.0000    0.0000   72.2646   17.3899    0.0000    0.0339    0.0000    0.0000    0.4674    0.1331  119.6921 
4272.0000   13.7900   15.0090   21.8890  -20.3716    0.0726    1.0000    0.0726    0.7010    0.0570   10.3656    0.0000    0.0000    0.0000    0.0000    0.0000   72.2646   17.3698    0.0000    0.0341    0.0000    0.0000    0.4695    0.1334  119.6973 
4272.5000   11.5220   13.2010   21.5380  -19.2449    0.0426    1.0000    0.0426    0.7413    0.1167   10.3857    0.0000    0.0000    0.0000    0.0000    0.0000   72.2646   17.3497    0.0000    0.0026    0.0000    0.0000    0.0620    0.0470  119.7025 
4273.0000    9.4570   11.7540   20.4670  -18.3081    0.0247    1.0000    0.0247    0.7747    0.1430   10.4058    0.0000    0.0000    0.0000    0.0000    0.0000   72.2646   17.3296    0.0000    0.0002    0.0000    0.0000    0.0078    0.0161  119.7077 
4273.5000    8.1520    9.9460   18.7270  -16.6982    0.0081    1.0000    0.0081    0.8322    0.1406   10.4259    0.0000    0.0000    0.0000    0.0000    0.0000   72.2646   17.3095    0.0000    0.0000    0.0000    0.0000    0.0001    0.0018  119.7130 
4274.0000    6.9200    8.8610   15.3440  -15.8636    0.0042    1.0000    0.0042    0.8620    0.1241   10.4460    0.0000    0.0000    0.0000    0.0000    0.0000   72.2646   17.2894    0.0000    0.0000    0.0000    0.0000    0.0000    0.0005  119.7182 
4274.5000    6.4860    7.7760   12.5180  -14.7326    0.0015    1.0000    0.0015    0.9024    0.0927   10.4661    0.0000    0.0000    0.0000    0.0000    0.0000   72.2646   17.2694    0.0000    0.0000    0.0000    0.0000    0.0000    0.0001  119.7234 
4275.0000    6.1590    7.4140   10.0180  -14.1690    0.0008    1.0000    0.0008    0.9225    0.0748   10.4861    0.0000    0.0000    0.0000    0.0000    0.0000   72.2646   17.2493    0.0000    0.0000    0.0000    0.0000    0.0000    0.0000  119.7287 
4275.5000    5.9060    6.6881    8.5330  -13.6654    0.0004    1.0000    0.0004    0.9405    0.0580   10.5062    0.0000    0.0000    0.0000    0.0000    0.0000   72.2646   17.2292    0.0000    0.0000    0.0000    0.0000    0.0000    0.0000  119.7339 
