~VERSION INFORMATION
 VERS.                 2.0:   CWLS LOG ASCII STANDARD - VERSION 2.0
 WRAP.                  NO:   SINGLE LINE PER DEPTH STEP
 CREA.                 03/05/2017 10:34:44
#CREATED USING IP VERSION 4.2.2015.61 BY PANESSOR ON 03/05/2017 10:34:44
~WELL INFORMATION
#MNEM.UNIT       DATA                          DESCRIPTION MNEMONIC
#---------      ---------------------------   --------------------------
 STRT    .FT        500.0000                  : START DEPTH
 STOP    .FT        5680.0000                 : STOP DEPTH
 STEP    .FT        0.5000                    : STEP VALUE
 NULL    .      -999.0000                     : NULL VALUE
 DATE    .      03/05/2017                    : LAS file Creation Date
 WELL  .      CRISOL-3            : Well Name
 COMP  .      INTERCOL            : Company
 FLD   .      WILDCAT             : Field
 STATE .      MAGDALENA           : State
 COUNT .      COLOMBIA            : Country
 API   .      CRIL0003            : API Number
 UWI   .      100000000377        : Unique Well Identifier (UWI)
 LOC   .      GAUSS ORIGIN BOGOTA : Location
 LATI  .      1                   : Latitude/Northing
 LONG  .      1                   : Longitude/Easting
 RWS   .      -999                : Def_Rw
 WST   .      -999                : Def_Rwt
 CNTY  .      N/A                 : County
 PROV  .                          : Province
 SRVC  .      SCH                 : Contractor
~CURVE INFORMATION
#MNEM                UNIT       API CODE     Description
#----------    --------------- ----------  --------------
 DEPTH        .FT                        : 
 RM_IR        .OHMM                      : Medium Resistivity
 RD_IR        .OHMM                      : Formation Deep Resitivity
 LAT_E_IR     .OHMM                      : Lateral AO18'8"
 SPC_IR       .MV                        : Spontaneous Potential
 PHIE_IR      .Dec                       : Effective Porosity
 SW_IR        .Dec                       : Effective Water Saturation
 BVW_IR       .Dec                       : Bulk Volume water (Phie x SW)
 VWCL_IR      .Dec                       : Volume wet Clay
 VSILT_IR     .Dec                       : Volume Silt
 SLST_IR      .%                         : Mudlog SILSTONE
 SS_IR        .%                         : Mudlog SANDSTONE
 CONG_IR      .%                         : Mudlog CONGLOMERATE
 MARL_IR      .%                         : Mudlog MARLSTONE
 ResFlag_IR   .                          : Net Reservoir
 IGNEOUS_IR   .us/ft                     : Mudlog IGNEOUS
 LS_IR        .us/ft                     : Mudlog LIMESTONE
 SH_IR        .%                         : Mudlog SHALE
 PayFlag_IR   .                          : Net Pay
 Perm_IR      .md                        : Calculated Permeability
 PayFlagRT_IR .                          : Pay Flag Rock Type
 ResFlagRT_IR .                          : Net Reservoir Rock Type
 K_PHI_IR     .                          : K/PHI RATIO
 Rock_Type_IR .microns                   : Pore Throat Size - Rock Types
 Temp_IR      .F                         : Formation Temperature
~P Interactive Petrophysics parameters
#Name        Value                 Description
#----- --------------------------  -----------
#Logging Run 
 RUN  .     1           : Run Number
 DATE .     23/04/1954  : Date                      | RUN[0]
 DFT  .     /           : Type of Fluid in Hole     | RUN[1]
~A  DEPTH   RM_IR     RD_IR    LAT_E_IR   SPC_IR   PHIE_IR    SW_IR     BVW_IR   VWCL_IR   VSILT_IR  SLST_IR    SS_IR    CONG_IR   MARL_IR  ResFlag_~ IGNEOUS_~   LS_IR     SH_IR   PayFlag_~  Perm_IR  PayFlagR~ ResFlagR~  K_PHI_IR Rock_Typ~  Temp_IR  
# ...
3924.0000  143.2970  388.7880  298.9130  -35.5984    0.1146    0.3179    0.0364    0.4530    0.1651    0.0000    0.0000    0.0000   90.4580    0.0000    0.0000    9.5420    0.0000    0.0000    0.9581    0.0000    0.0000    8.3620    0.6397  116.0562 
3924.5000  143.2970  399.6380  302.5360  -35.0543    0.1116    0.3220    0.0359    0.4690    0.1592    0.0000    0.0000    0.0000   90.4421    0.0000    0.0000    9.5579    0.0000    0.0000    0.8318    0.0000    0.0000    7.4567    0.6025  116.0614 
3925.0000  143.6590  405.0630  309.7830  -34.5186    0.1086    0.3286    0.0357    0.4847    0.1533    0.0000    0.0000    0.0000   90.4262    0.0000    0.0000    9.5738    0.0000    0.0000    0.7162    0.0000    0.0000    6.5959    0.5648  116.0667 
3925.5000  143.6590  414.1050  316.9150  -33.8513    0.1049    0.3364    0.0353    0.5044    0.1460    0.0000    0.0000    0.0000   90.4103    0.0000    0.0000    9.5897    0.0000    0.0000    0.5923    0.0000    0.0000    5.6469    0.5204  116.0719 
3926.0000  144.0220  421.3380  320.5610  -33.3924    0.1023    0.3418    0.0350    0.5179    0.1410    0.0000    0.0000    0.0000   90.3944    0.0000    0.0000    9.6056    0.0000    0.0000    0.5181    0.0000    0.0000    5.0624    0.4913  116.0771 
3926.5000  144.3840  432.1880  327.8430  -32.9015    0.0996    0.3468    0.0345    0.5323    0.1356    0.0000    0.0000    0.0000   90.3785    0.0000    0.0000    9.6215    0.0000    0.0000    0.4486    0.0000    0.0000    4.5037    0.4621  116.0824 
3927.0000  144.7460  443.0380  335.1290  -32.3563    0.0966    0.3532    0.0341    0.5483    0.1297    0.0000    0.0000    0.0000   90.3626    0.0000    0.0000    9.6374    0.0000    0.0000    0.3798    0.0000    0.0000    3.9322    0.4303  116.0876 
3927.5000  145.4710  457.5050  346.0340  -31.7712    0.0933    0.3597    0.0336    0.5656    0.1233    0.0000    0.0000    0.0000   90.3467    0.0000    0.0000    9.6533    0.0000    0.0000    0.3164    0.0000    0.0000    3.3903    0.3982  116.0928 
3928.0000  146.1960  468.3540  356.9260  -31.0628    0.0894    0.3711    0.0332    0.5864    0.1156    0.0000    0.0000    0.0000   90.3308    0.0000    0.0000    9.6692    0.0000    0.0000    0.2495    0.0000    0.0000    2.7908    0.3593  116.0981 
3928.5000  146.7660  475.5880  367.7990  -30.4729    0.0861    0.3822    0.0329    0.6037    0.1091    0.0000    0.0000    0.0000   90.2036    0.0000    0.0000    9.7964    0.0000    0.0000    0.2026    0.0000    0.0000    2.3521    0.3283  116.1033 
3929.0000  148.0070  493.6710  378.6420  -30.0957    0.0840    0.3845    0.0323    0.6148    0.1051    0.0000    0.0000    0.0000   90.0763    0.0000    0.0000    9.9237    0.0000    0.0000    0.1788    0.0000    0.0000    2.1280    0.3117  116.1085 
3929.5000  149.0940  500.9040  389.4930  -29.9815    0.0834    0.3847    0.0321    0.6182    0.1038    0.0000    0.0000    0.0000   72.3919    0.0000    0.0000   27.6082    0.0000    0.0000    0.1723    0.0000    0.0000    2.0664    0.3070  116.1138 
3930.0000  149.8190  515.3710  400.3620  -29.9090    0.0830    0.3811    0.0316    0.6203    0.1031    0.0000    0.0000    0.0000   54.7074    0.0000    0.0000   45.2926    0.0000    0.0000    0.1698    0.0000    0.0000    2.0462    0.3056  116.1190 
3930.5000  152.7170  526.2210  411.2320  -29.6786    0.0817    0.3831    0.0313    0.6271    0.1006    0.0000    0.0000    0.0000   54.7074    0.0000    0.0000   45.2926    0.0000    0.0000    0.1567    0.0000    0.0000    1.9185    0.2955  116.1242 
3931.0000  154.1670  544.3040  422.1010  -29.5655    0.0810    0.3797    0.0308    0.6304    0.0994    0.0000    0.0000    0.0000   54.7074    0.0000    0.0000   45.2926    0.0000    0.0000    0.1522    0.0000    0.0000    1.8785    0.2925  116.1295 
3931.5000  156.3410  555.1540  443.8410  -29.5567    0.0810    0.3762    0.0305    0.6307    0.0994    0.0000    0.0000    0.0000   54.7074    0.0000    0.0000   45.2926    0.0000    0.0000    0.1531    0.0000    0.0000    1.8904    0.2937  116.1347 
3932.0000  157.0650  562.3870  461.9570  -29.7710    0.0822    0.3684    0.0303    0.6244    0.1017    0.0000    0.0000    0.0000   54.7074    0.0000    0.0000   45.2926    0.0000    0.0000    0.1675    0.0000    0.0000    2.0391    0.3058  116.1399 
3932.5000  157.0650  576.8540  490.9420  -30.4900    0.0861    0.3471    0.0299    0.6032    0.1097    0.0000    0.0000    0.0000   54.7074    0.0000    0.0000   45.2926    0.0000    0.0000    0.2229    0.0000    0.0000    2.5883    0.3473  116.1451 
3933.0000  157.0650  587.7030  527.3330  -31.3012    0.0906    0.3269    0.0296    0.5794    0.1187    0.0000    0.0000    0.0000   54.7074    0.0000    0.0000   45.2926    0.0000    0.0000    0.3017    0.0000    0.0000    3.3308    0.3973  116.1504 
3933.5000  156.1050  594.9370  570.9150  -32.1876    0.0955    0.3082    0.0294    0.5533    0.1284    0.0000    0.0000    0.0000   54.7074    0.0000    0.0000   45.2926    0.0000    0.0000    0.4118    0.0000    0.0000    4.3130    0.4558  116.1556 
3934.0000  154.1670  605.7870  618.1150  -32.9866    0.0999    0.2920    0.0292    0.5298    0.1373    0.0000    0.0000    0.0000   54.7074    0.0000    0.0000   45.2926    0.0000    0.0000    0.5397    0.0000    0.0000    5.4037    0.5140  116.1608 
3934.5000  152.8800  613.0200  647.1440  -33.4909    0.1027    0.2824    0.0290    0.5150    0.1428    0.0000    0.0000    0.0000   54.7074    0.0000    0.0000   45.2926    0.0000    0.0000    0.6366    0.0000    0.0000    6.2012    0.5531  116.1661 
3935.0000  150.9060  623.8700  694.2230  -33.6852    0.1037    0.2771    0.0287    0.5093    0.1450    0.0000    0.0000    0.0000   54.7074    0.0000    0.0000   45.2926    0.0000    0.0000    0.6818    0.0000    0.0000    6.5733    0.5708  116.1713 
3935.5000  149.8190  634.7200  741.2200  -33.6937    0.1038    0.2746    0.0285    0.5090    0.1451    0.0000    0.0000    0.0000   54.7074    0.0000    0.0000   45.2926    0.0000    0.0000    0.6892    0.0000    0.0000    6.6420    0.5742  116.1765 
3936.0000  148.0070  638.3360  780.9340  -33.4217    0.1023    0.2778    0.0284    0.5170    0.1421    0.0000    0.0000    0.0000   54.7074    0.0000    0.0000   45.2926    0.0000    0.0000    0.6350    0.0000    0.0000    6.2098    0.5542  116.1818 
3936.5000  146.3040  649.1520  817.0640  -33.2487    0.1013    0.2781    0.0282    0.5221    0.1403    0.0000    0.0000    0.0000   54.7074    0.0000    0.0000   45.2926    0.0000    0.0000    0.6061    0.0000    0.0000    5.9839    0.5437  116.1870 
3937.0000  144.5290  659.8330  842.3910  -33.1503    0.1007    0.2774    0.0279    0.5250    0.1392    0.0000    0.0000    0.0000   54.7074    0.0000    0.0000   45.2926    0.0000    0.0000    0.5920    0.0000    0.0000    5.8769    0.5387  116.1922 
3937.5000  142.7540  666.9540  867.7540  -32.8431    0.0990    0.2806    0.0278    0.5340    0.1358    0.0000    0.0000    0.0000   54.7074    0.0000    0.0000   45.2926    0.0000    0.0000    0.5392    0.0000    0.0000    5.4446    0.5175  116.1975 
3938.0000  140.7610  674.1550  900.3620  -32.6832    0.0982    0.2816    0.0276    0.5387    0.1341    0.0000    0.0000    0.0000   54.7074    0.0000    0.0000   45.2926    0.0000    0.0000    0.5145    0.0000    0.0000    5.2422    0.5074  116.2027 
3938.5000  139.9820  681.4310  925.7250  -32.7885    0.0987    0.2785    0.0275    0.5356    0.1353    0.0000    0.0000    0.0000   54.7074    0.0000    0.0000   45.2926    0.0000    0.0000    0.5352    0.0000    0.0000    5.4207    0.5166  116.2079 
3939.0000  138.5200  688.7600  965.5800  -33.0770    0.1003    0.2726    0.0273    0.5271    0.1385    0.0000    0.0000    0.0000   54.7074    0.0000    0.0000   45.2926    0.0000    0.0000    0.5902    0.0000    0.0000    5.8837    0.5397  116.2132 
3939.5000  136.7530  696.1250  998.1880  -33.3571    0.1019    0.2671    0.0272    0.5189    0.1416    0.0000    0.0000    0.0000   54.7074    0.0000    0.0000   45.2926    0.0000    0.0000    0.6483    0.0000    0.0000    6.3644    0.5629  116.2184 
