~VERSION INFORMATION
 VERS.                 2.0:   CWLS LOG ASCII STANDARD - VERSION 2.0
 WRAP.                  NO:   SINGLE LINE PER DEPTH STEP
 CREA.                 03/05/2017 12:05:25
#CREATED USING IP VERSION 4.2.2015.61 BY PANESSOR ON 03/05/2017 12:05:25
~WELL INFORMATION
#MNEM.UNIT       DATA                          DESCRIPTION MNEMONIC
#---------      ---------------------------   --------------------------
 STRT    .FT        500.0000                  : START DEPTH
 STOP    .FT        4532.0000                 : STOP DEPTH
 STEP    .FT        0.5000                    : STEP VALUE
 NULL    .      -999.0000                     : NULL VALUE
 DATE    .      03/05/2017                    : LAS file Creation Date
 WELL  .      CRISOL-1            : Well Name
 COMP  .      INTERCOL            : Company
 FLD   .      WILDCAT             : Field
 STATE .      CESAR               : State
 COUNT .      COLOMBIA            : Country
 API   .      CRIL0001            : API Number
 UWI   .      CRIL0001            : Unique Well Identifier (UWI)
 LOC   .      GAUSS ORIGIN BOGOTA : Location
 LATI  .      1.0147222222        : Latitude/Northing
 LONG  .      1.0086111111        : Longitude/Easting
 RWS   .      -999                : Def_Rw
 WST   .      -999                : Def_Rwt
 PROV  .                          : Province
 SRVC  .      SCH                 : Contractor
~CURVE INFORMATION
#MNEM                 UNIT       API CODE     Description
#----------     --------------- ----------  --------------
 DEPTH         .FT                        : 
 RM_IR         .OHMM                      : Medium Resistivity
 SPC_IR        .MV                        : Spontaneous Potential
 RD_E_IR       .OHMM                      : Formation Deep Resitivity
 PHIE_IR       .Dec                       : Effective Porosity
 SW_IR         .Dec                       : Effective Water Saturation
 BVW_IR        .Dec                       : Bulk Volume water (Phie x SW)
 VWCL_IR       .Dec                       : Volume wet Clay
 VSILT_IR      .Dec                       : Volume Silt
 Perfs_IR      .B/E                       : Photoelectric Factor
 Perm_IR       .md                        : Calculated Permeability
 CGL_IR        .%                         : Mudlog CONGLOMERATE
 SS_IR         .%                         : Mudlog SANDSTONE
 SLS_IR        .%                         : Mudlog SILSTONE
 CLST_IR       .%                         : Mudlog CLAYSTONE
 SH_IR         .%                         : Mudlog Shale
 MARL_IR       .%                         : Mudlog MARLSTONE
 LS_IR         .%                         : Mudlog LIMESTONE
 ResFlag_IR    .                          : Net Reservoir
 PayFlag_IR    .                          : Net Pay
 K_PHI_IR      .                          : K/PHI RATIO
 PayFlagRT_IR  .                          : Pay Flag Rock Type
 ResFlagRT_IR  .                          : Net Reservoir Rock Type
 Rock_Type_IR  .microns                   : Pore Throat Size - Rock Types
 Temp_IR       .F                         : Formation Temperature
 MUD_WEIGHT_IR .PPG                       : MUD_WEIGHT
~P Interactive Petrophysics parameters
#Name        Value                 Description
#----- --------------------------  -----------
#Logging Run 
 RUN  .     1                    : Run Number
 DATE .     24-OCT-1953          : Date                      | RUN[0]
 BLI  .     2565                 : Btm Log Interval          | RUN[1]
 TLI  .     517                  : Top Log Interval          | RUN[1]
 BS   .     8.625                : Bit Size                  | RUN[1]
 DFT  .     /                    : Type of Fluid in Hole     | RUN[1]
 RM   .     5.9                  : Rm                        | RUN[1]
 MST  .     84                   : at Meas Temp              | RUN[1]
 R1   .     SPS LTDA.            : Remark 1                  | RUN[1]
 R2   .     PLUG BACK 3808 FT.   : Remark 2                  | RUN[1]
 R3   .     ABANDONED GAS WELL.  : Remark 3                  | RUN[1]
#Logging Run 
 RUN  .     2                    : Run Number
 DATE .     14-NOV-1953          : Date                      | RUN[1]
 BLI  .     4053                 : Btm Log Interval          | RUN[2]
 TLI  .     3000                 : Top Log Interval          | RUN[2]
 BS   .     9.625                : Bit Size                  | RUN[2]
 RM   .     3.8                  : Rm                        | RUN[2]
 MST  .     87                   : at Meas Temp              | RUN[2]
 R1   .     SPS LTDA.            : Remark 1                  | RUN[2]
 R2   .     PLUG BACK 3808 FT.   : Remark 2                  | RUN[2]
 R3   .     ABANDONED GAS WELL.  : Remark 3                  | RUN[2]
~A  DEPTH   RM_IR     SPC_IR   RD_E_IR   PHIE_IR    SW_IR     BVW_IR   VWCL_IR   VSILT_IR  Perfs_IR  Perm_IR    CGL_IR    SS_IR     SLS_IR   CLST_IR    SH_IR    MARL_IR    LS_IR   ResFlag_~ PayFlag_~  K_PHI_IR PayFlagR~ ResFlagR~ Rock_Typ~  Temp_IR  MUD_WEIG~ 
# ...
3646.5000    5.2050  -13.5912    5.2050    0.0072    1.0000    0.0072    0.8381    0.1380 -999.0000    0.0000    0.0000    0.0000    0.0000    0.0000  100.0000    0.0000    0.0000    0.0000    0.0000    0.0001    0.0000    0.0000    0.0014  113.2890   10.1000 
3647.0000    5.1400  -13.4213    5.1400    0.0057    1.0000    0.0057    0.8487    0.1324 -999.0000    0.0000    0.0000    0.0000    0.0000    0.0000  100.0000    0.0000    0.0000    0.0000    0.0000    0.0000    0.0000    0.0000    0.0009  113.2936   10.1000 
3647.5000    5.2630  -13.3795    5.2630    0.0054    1.0000    0.0054    0.8513    0.1309 -999.0000    0.0000    0.0000    0.0000    0.0000    0.0000  100.0000    0.0000    0.0000    0.0000    0.0000    0.0000    0.0000    0.0000    0.0008  113.2982   10.1000 
3648.0000    5.3860  -13.3376    5.3860    0.0050    1.0000    0.0050    0.8539    0.1293 -999.0000    0.0000    0.0000    0.0000    0.0000    0.0000  100.0000    0.0000    0.0000    0.0000    0.0000    0.0000    0.0000    0.0000    0.0007  113.3027   10.1000 
3648.5000    5.5555  -13.2957    5.5555    0.0047    1.0000    0.0047    0.8565    0.1277 -999.0000    0.0000    0.0000    0.0000    0.0000    0.0000  100.0000    0.0000    0.0000    0.0000    0.0000    0.0000    0.0000    0.0000    0.0006  113.3073   10.1000 
3649.0000    5.7250  -13.2539    5.7250    0.0045    1.0000    0.0045    0.8591    0.1260 -999.0000    0.0000    0.0000    0.0000    0.0000    0.0000  100.0000    0.0000    0.0000    0.0000    0.0000    0.0000    0.0000    0.0000    0.0006  113.3119   10.1000 
3649.5000    6.2170  -13.3750    6.2170    0.0053    1.0000    0.0053    0.8516    0.1307 -999.0000    0.0000    0.0000    0.0000    0.0000    0.0000  100.0000    0.0000    0.0000    0.0000    0.0000    0.0000    0.0000    0.0000    0.0008  113.3164   10.1000 
3650.0000    6.7090  -13.4961    6.7090    0.0063    1.0000    0.0063    0.8440    0.1350 -999.0000    0.0000    0.0000    0.0000    0.0000    0.0000  100.0000    0.0000    0.0000    0.0000    0.0000    0.0000    0.0000    0.0000    0.0011  113.3210   10.1000 
3650.5000    7.8110  -13.8028    7.8110    0.0095    1.0000    0.0095    0.8248    0.1435 -999.0000    0.0000    0.0000    0.0000    0.0000    0.0000  100.0000    0.0000    0.0000    0.0000    0.0000    0.0002    0.0000    0.0000    0.0025  113.3256   10.1000 
3651.0000    8.9130  -14.1094    8.9130    0.0140    1.0000    0.0140    0.8057    0.1477 -999.0000    0.0000    0.0000    0.0000    0.0000    0.0000  100.0000    0.0000    0.0000    0.0000    0.0000    0.0009    0.0000    0.0000    0.0053  113.3301   10.1000 
3651.5000   10.0000  -13.9346   10.0000    0.0113    1.0000    0.0113    0.8166    0.1459 -999.0000    0.0000    0.0000    0.0000    0.0000    0.0000  100.0000    0.0000    0.0000    0.0000    0.0000    0.0004    0.0000    0.0000    0.0035  113.3347   10.1000 
3652.0000   11.0870  -13.7597   11.0870    0.0090    1.0000    0.0090    0.8275    0.1425 -999.0000    0.0000    0.0000    0.0000    0.0000    0.0000  100.0000    0.0000    0.0000    0.0000    0.0000    0.0002    0.0000    0.0000    0.0022  113.3393   10.1000 
3652.5000   10.6955  -13.6038   10.6955    0.0073    1.0000    0.0073    0.8373    0.1384 -999.0000    0.0000    0.0000    0.0000    0.0000    0.0000  100.0000    0.0000    0.0000    0.0000    0.0000    0.0001    0.0000    0.0000    0.0015  113.3438   10.1000 
3653.0000   10.3040  -13.4480   10.3040    0.0059    1.0000    0.0059    0.8470    0.1333 -999.0000    0.0000    0.0000    0.0000    0.0000    0.0000  100.0000    0.0000    0.0000    0.0000    0.0000    0.0000    0.0000    0.0000    0.0010  113.3484   10.1000 
3653.5000    9.9350  -13.2761    9.9350    0.0046    1.0000    0.0046    0.8577    0.1269 -999.0000    0.0000    0.0000    0.0000    0.0000    0.0000  100.0000    0.0000    0.0000    0.0000    0.0000    0.0000    0.0000    0.0000    0.0006  113.3530   10.1000 
3654.0000    9.5660  -13.1042    9.5660    0.0036    1.0000    0.0036    0.8685    0.1196 -999.0000    0.0000    0.0000    0.0000    0.0000    0.0000  100.0000    0.0000    0.0000    0.0000    0.0000    0.0000    0.0000    0.0000    0.0004  113.3575   10.1000 
3654.5000    9.2855  -12.9319    9.2855    0.0027    1.0000    0.0027    0.8793    0.1116 -999.0000    0.0000    0.0000    0.0000    0.0000    0.0000  100.0000    0.0000    0.0000    0.0000    0.0000    0.0000    0.0000    0.0000    0.0002  113.3621   10.1000 
3655.0000    9.0050  -12.7595    9.0050    0.0021    1.0000    0.0021    0.8900    0.1031 -999.0000    0.0000    0.0000    0.0000    0.0000    0.0000  100.0000    0.0000    0.0000    0.0000    0.0000    0.0000    0.0000    0.0000    0.0001  113.3666   10.1000 
3655.5000    8.7245  -12.5876    8.7245    0.0015    1.0000    0.0015    0.9008    0.0941 -999.0000    0.0000    0.0000    0.0000    0.0000    0.0000  100.0000    0.0000    0.0000    0.0000    0.0000    0.0000    0.0000    0.0000    0.0001  113.3712   10.1000 
3656.0000    8.4440  -12.4158    8.4440    0.0011    1.0000    0.0011    0.9115    0.0847 -999.0000    0.0000    0.0000    0.0000    0.0000    0.0000  100.0000    0.0000    0.0000    0.0000    0.0000    0.0000    0.0000    0.0000    0.0000  113.3758   10.1000 
3656.5000    8.2920  -12.2819    8.2920    0.0009    1.0000    0.0009    0.9199    0.0772 -999.0000    0.0000    0.0000    0.0000    0.0000    0.0000  100.0000    0.0000    0.0000    0.0000    0.0000    0.0000    0.0000    0.0000    0.0000  113.3803   10.1000 
3657.0000    8.1400  -12.1481    8.1400    0.0007    1.0000    0.0007    0.9282    0.0695 -999.0000    0.0000    0.0000    0.0000    0.0000    0.0000  100.0000    0.0000    0.0000    0.0000    0.0000    0.0000    0.0000    0.0000    0.0000  113.3849   10.1000 
3657.5000    8.1160  -12.1152    8.1160    0.0006    1.0000    0.0006    0.9303    0.0676 -999.0000    0.0000    0.0000    0.0000    0.0000    0.0000  100.0000    0.0000    0.0000    0.0000    0.0000    0.0000    0.0000    0.0000    0.0000  113.3895   10.1000 
3658.0000    8.0920  -12.0823    8.0920    0.0006    1.0000    0.0006    0.9324    0.0657 -999.0000    0.0000    0.0000    0.0000    0.0000    0.0000  100.0000    0.0000    0.0000    0.0000    0.0000    0.0000    0.0000    0.0000    0.0000  113.3940   10.1000 
3658.5000    7.8865  -12.1490    7.8865    0.0007    1.0000    0.0007    0.9282    0.0696 -999.0000    0.0000    0.0000    0.0000    0.0000    0.0000  100.0000    0.0000    0.0000    0.0000    0.0000    0.0000    0.0000    0.0000    0.0000  113.3986   10.1000 
3659.0000    7.6810  -12.2156    7.6810    0.0008    1.0000    0.0008    0.9240    0.0734 -999.0000    0.0000    0.0000    0.0000    0.0000    0.0000  100.0000    0.0000    0.0000    0.0000    0.0000    0.0000    0.0000    0.0000    0.0000  113.4032   10.1000 
3659.5000    7.4940  -12.2827    7.4940    0.0009    1.0000    0.0009    0.9198    0.0772 -999.0000    0.0000    0.0000    0.0000    0.0000    0.0000  100.0000    0.0000    0.0000    0.0000    0.0000    0.0000    0.0000    0.0000    0.0000  113.4077   10.1000 
3660.0000    7.3070  -12.3499    7.3070    0.0010    1.0000    0.0010    0.9156    0.0810 -999.0000    0.0000    0.0000    0.0000    0.0000    0.0000  100.0000    0.0000    0.0000    0.0000    0.0000    0.0000    0.0000    0.0000    0.0000  113.4123   10.1000 
3660.5000    7.1440  -12.4170    7.1440    0.0011    1.0000    0.0011    0.9114    0.0848 -999.0000    0.0000    0.0000    0.0000    0.0000    0.0000  100.0000    0.0000    0.0000    0.0000    0.0000    0.0000    0.0000    0.0000    0.0000  113.4169   10.1000 
3661.0000    6.9810  -12.4841    6.9810    0.0013    1.0000    0.0013    0.9072    0.0885 -999.0000    0.0000    0.0000    0.0000    0.0000    0.0000  100.0000    0.0000    0.0000    0.0000    0.0000    0.0000    0.0000    0.0000    0.0000  113.4214   10.1000 
3661.5000    6.8600  -12.4538    6.8600    0.0012    1.0000    0.0012    0.9091    0.0868 -999.0000    0.0000    0.0000    0.0000    0.0000    0.0000  100.0000    0.0000    0.0000    0.0000    0.0000    0.0000    0.0000    0.0000    0.0000  113.4260   10.1000 
