~VERSION INFORMATION
 VERS.                 2.0:   CWLS LOG ASCII STANDARD - VERSION 2.0
 WRAP.                  NO:   SINGLE LINE PER DEPTH STEP
 CREA.                 03/05/2017 12:05:25
#CREATED USING IP VERSION 4.2.2015.61 BY PANESSOR ON 03/05/2017 12:05:25
~WELL INFORMATION
#MNEM.UNIT       DATA                          DESCRIPTION MNEMONIC
#---------      ---------------------------   --------------------------
 STRT    .FT        500.0000                  : START DEPTH
 STOP    .FT        4532.0000                 : STOP DEPTH
 STEP    .FT        0.5000                    : STEP VALUE
 NULL    .      -999.0000                     : NULL VALUE
 DATE    .      03/05/2017                    : LAS file Creation Date
 WELL  .      CRISOL-1            : Well Name
 COMP  .      INTERCOL            : Company
 FLD   .      WILDCAT             : Field
 STATE .      CESAR               : State
 COUNT .      COLOMBIA            : Country
 API   .      CRIL0001            : API Number
 UWI   .      CRIL0001            : Unique Well Identifier (UWI)
 LOC   .      GAUSS ORIGIN BOGOTA : Location
 LATI  .      1.0147222222        : Latitude/Northing
 LONG  .      1.0086111111        : Longitude/Easting
 RWS   .      -999                : Def_Rw
 WST   .      -999                : Def_Rwt
 PROV  .                          : Province
 SRVC  .      SCH                 : Contractor
~CURVE INFORMATION
#MNEM                 UNIT       API CODE     Description
#----------     --------------- ----------  --------------
 DEPTH         .FT                        : 
 RM_IR         .OHMM                      : Medium Resistivity
 SPC_IR        .MV                        : Spontaneous Potential
 RD_E_IR       .OHMM                      : Formation Deep Resitivity
 PHIE_IR       .Dec                       : Effective Porosity
 SW_IR         .Dec                       : Effective Water Saturation
 BVW_IR        .Dec                       : Bulk Volume water (Phie x SW)
 VWCL_IR       .Dec                       : Volume wet Clay
 VSILT_IR      .Dec                       : Volume Silt
 Perfs_IR      .B/E                       : Photoelectric Factor
 Perm_IR       .md                        : Calculated Permeability
 CGL_IR        .%                         : Mudlog CONGLOMERATE
 SS_IR         .%                         : Mudlog SANDSTONE
 SLS_IR        .%                         : Mudlog SILSTONE
 CLST_IR       .%                         : Mudlog CLAYSTONE
 SH_IR         .%                         : Mudlog Shale
 MARL_IR       .%                         : Mudlog MARLSTONE
 LS_IR         .%                         : Mudlog LIMESTONE
 ResFlag_IR    .                          : Net Reservoir
 PayFlag_IR    .                          : Net Pay
 K_PHI_IR      .                          : K/PHI RATIO
 PayFlagRT_IR  .                          : Pay Flag Rock Type
 ResFlagRT_IR  .                          : Net Reservoir Rock Type
 Rock_Type_IR  .microns                   : Pore Throat Size - Rock Types
 Temp_IR       .F                         : Formation Temperature
 MUD_WEIGHT_IR .PPG                       : MUD_WEIGHT
~P Interactive Petrophysics parameters
#Name        Value                 Description
#----- --------------------------  -----------
#Logging Run 
 RUN  .     1                    : Run Number
 DATE .     24-OCT-1953          : Date                      | RUN[0]
 BLI  .     2565                 : Btm Log Interval          | RUN[1]
 TLI  .     517                  : Top Log Interval          | RUN[1]
 BS   .     8.625                : Bit Size                  | RUN[1]
 DFT  .     /                    : Type of Fluid in Hole     | RUN[1]
 RM   .     5.9                  : Rm                        | RUN[1]
 MST  .     84                   : at Meas Temp              | RUN[1]
 R1   .     SPS LTDA.            : Remark 1                  | RUN[1]
 R2   .     PLUG BACK 3808 FT.   : Remark 2                  | RUN[1]
 R3   .     ABANDONED GAS WELL.  : Remark 3                  | RUN[1]
#Logging Run 
 RUN  .     2                    : Run Number
 DATE .     14-NOV-1953          : Date                      | RUN[1]
 BLI  .     4053                 : Btm Log Interval          | RUN[2]
 TLI  .     3000                 : Top Log Interval          | RUN[2]
 BS   .     9.625                : Bit Size                  | RUN[2]
 RM   .     3.8                  : Rm                        | RUN[2]
 MST  .     87                   : at Meas Temp              | RUN[2]
 R1   .     SPS LTDA.            : Remark 1                  | RUN[2]
 R2   .     PLUG BACK 3808 FT.   : Remark 2                  | RUN[2]
 R3   .     ABANDONED GAS WELL.  : Remark 3                  | RUN[2]
~A  DEPTH   RM_IR     SPC_IR   RD_E_IR   PHIE_IR    SW_IR     BVW_IR   VWCL_IR   VSILT_IR  Perfs_IR  Perm_IR    CGL_IR    SS_IR     SLS_IR   CLST_IR    SH_IR    MARL_IR    LS_IR   ResFlag_~ PayFlag_~  K_PHI_IR PayFlagR~ ResFlagR~ Rock_Typ~  Temp_IR  MUD_WEIG~ 
# ...
 763.5000   13.9710  -25.9839    6.8910    0.0930    1.0000    0.0930    0.4833    0.0000 -999.0000    0.1119   25.1700    0.0000    0.0000    0.0000   74.8300    0.0000    0.0000    0.0000    0.0000    1.2031    0.0000    0.0000    0.2167   86.9700   10.1000 
 764.0000   13.9710  -25.3769    6.4700    0.0892    1.0000    0.0892    0.5042    0.0000 -999.0000    0.0917   25.1500    0.0000    0.0000    0.0000   74.8500    0.0000    0.0000    0.0000    0.0000    1.0281    0.0000    0.0000    0.1999   86.9746   10.1000 
 764.5000   13.9710  -24.8909    6.0770    0.0862    1.0000    0.0862    0.5210    0.0000 -999.0000    0.0778   25.1300    0.0000    0.0000    0.0000   74.8700    0.0000    0.0000    0.0000    0.0000    0.9022    0.0000    0.0000    0.1868   86.9791   10.1000 
 765.0000   13.9710  -24.1619    5.9250    0.0817    1.0000    0.0817    0.5461    0.0000 -999.0000    0.0601   25.1100    0.0000    0.0000    0.0000   74.8900    0.0000    0.0000    0.0000    0.0000    0.7351    0.0000    0.0000    0.1681   86.9837   10.1000 
 765.5000   13.8990  -23.5549    5.8420    0.0779    1.0000    0.0779    0.5671    0.0000 -999.0000    0.0479   25.0900    0.0000    0.0000    0.0000   74.9100    0.0000    0.0000    0.0000    0.0000    0.6143    0.0000    0.0000    0.1533   86.9883   10.1000 
 766.0000   13.8270  -22.7049    5.9870    0.0727    1.0000    0.0727    0.5964    0.0000 -999.0000    0.0342   25.0700    0.0000    0.0000    0.0000   74.9300    0.0000    0.0000    0.0000    0.0000    0.4707    0.0000    0.0000    0.1336   86.9928   10.1000 
 766.5000   13.6230  -21.4759    6.6040    0.0573    1.0000    0.0573    0.6388    0.0000 -999.0000    0.0109   25.0500    0.0000    0.0000    0.0000   74.9500    0.0000    0.0000    0.0000    0.0000    0.1906    0.0000    0.0000    0.0839   86.9974   10.1000 
 767.0000   13.3240  -20.2569    7.1300    0.0381    1.0000    0.0381    0.6808    0.0653 -999.0000    0.0015   25.0300    0.0000    0.0000    0.0000   74.9700    0.0000    0.0000    0.0000    0.0000    0.0404    0.0000    0.0000    0.0377   87.0020   10.1000 
 767.5000   12.9840  -19.3799    8.1540    0.0262    1.0000    0.0262    0.7110    0.1140 -999.0000    0.0003   25.0050    0.0000    0.0000    0.0000   74.9950    0.0000    0.0000    0.0000    0.0000    0.0098    0.0000    0.0000    0.0182   87.0065   10.1000 
 768.0000   12.9840  -18.7149    9.0100    0.0190    1.0000    0.0190    0.7340    0.1392 -999.0000    0.0001   24.9800    0.0000    0.0000    0.0000   75.0200    0.0000    0.0000    0.0000    0.0000    0.0029    0.0000    0.0000    0.0097   87.0111   10.1000 
 768.5000   12.5750  -18.2109    9.4540    0.0146    1.0000    0.0146    0.7513    0.1515 -999.0000    0.0000   24.9600    0.0000    0.0000    0.0000   75.0400    0.0000    0.0000    0.0000    0.0000    0.0010    0.0000    0.0000    0.0057   87.0157   10.1000 
 769.0000   12.5480  -18.5699    9.7060    0.0176    1.0000    0.0176    0.7390    0.1434 -999.0000    0.0000   24.9400    0.0000    0.0000    0.0000   75.0600    0.0000    0.0000    0.0000    0.0000    0.0022    0.0000    0.0000    0.0084   87.0202   10.1000 
 769.5000   12.5030  -18.9809    9.8950    0.0217    1.0000    0.0217    0.7248    0.1304 -999.0000    0.0001   24.9200    0.0000    0.0000    0.0000   75.0800    0.0000    0.0000    0.0000    0.0000    0.0048    0.0000    0.0000    0.0126   87.0248   10.1000 
 770.0000   12.2180  -19.3909    9.9160    0.0264    1.0000    0.0264    0.7107    0.1135 -999.0000    0.0003   24.9000    0.0000    0.0000    0.0000   75.1000    0.0000    0.0000    0.0000    0.0000    0.0100    0.0000    0.0000    0.0184   87.0294   10.1000 
 770.5000   11.9240  -19.6679    9.7690    0.0299    1.0000    0.0299    0.7011    0.0998 -999.0000    0.0005   30.5850    0.0000    0.0000    0.0000   69.4150    0.0000    0.0000    0.0000    0.0000    0.0161    0.0000    0.0000    0.0234   87.0339   10.1000 
 771.0000   11.6310  -19.8089    9.4150    0.0317    1.0000    0.0317    0.6962    0.0922 -999.0000    0.0006   36.2700    0.0000    0.0000    0.0000   63.7300    0.0000    0.0000    0.0000    0.0000    0.0202    0.0000    0.0000    0.0264   87.0385   10.1000 
 771.5000   11.3960  -19.9349    8.8440    0.0335    1.0000    0.0335    0.6919    0.0850 -999.0000    0.0008   36.4850    0.0000    0.0000    0.0000   63.5150    0.0000    0.0000    0.0000    0.0000    0.0247    0.0000    0.0000    0.0293   87.0431   10.1000 
 772.0000   11.5640  -19.9919    8.2860    0.0343    1.0000    0.0343    0.6899    0.0817 -999.0000    0.0009   36.7000    0.0000    0.0000    0.0000   63.3000    0.0000    0.0000    0.0000    0.0000    0.0270    0.0000    0.0000    0.0307   87.0476   10.1000 
 772.5000   11.6130  -19.9719    7.0980    0.0340    1.0000    0.0340    0.6906    0.0829 -999.0000    0.0009   36.6700    0.0000    0.0000    0.0000   63.3300    0.0000    0.0000    0.0000    0.0000    0.0262    0.0000    0.0000    0.0302   87.0522   10.1000 
 773.0000   11.4360  -19.7899    5.9290    0.0315    1.0000    0.0315    0.6969    0.0932 -999.0000    0.0006   36.6400    0.0000    0.0000    0.0000   63.3600    0.0000    0.0000    0.0000    0.0000    0.0196    0.0000    0.0000    0.0260   87.0567   10.1000 
 773.5000   11.1350  -19.3039    5.2440    0.0253    1.0000    0.0253    0.7137    0.1174 -999.0000    0.0002   36.6250    0.0000    0.0000    0.0000   63.3750    0.0000    0.0000    0.0000    0.0000    0.0086    0.0000    0.0000    0.0170   87.0613   10.1000 
 774.0000   10.1810  -18.5509    4.6900    0.0175    1.0000    0.0175    0.7396    0.1439 -999.0000    0.0000   36.6100    0.0000    0.0000    0.0000   63.3900    0.0000    0.0000    0.0000    0.0000    0.0021    0.0000    0.0000    0.0082   87.0659   10.1000 
 774.5000    8.9350  -17.3599    4.6780    0.0089    1.0000    0.0089    0.7807    0.1600 -999.0000    0.0000   36.5950    0.0000    0.0000    0.0000   63.4050    0.0000    0.0000    0.0000    0.0000    0.0002    0.0000    0.0000    0.0022   87.0704   10.1000 
 775.0000    7.7620  -15.9029    4.9720    0.0033    1.0000    0.0033    0.8309    0.1467 -999.0000    0.0000   36.5800    0.0000    0.0000    0.0000   63.4200    0.0000    0.0000    0.0000    0.0000    0.0000    0.0000    0.0000    0.0003   87.0750   10.1000 
 775.5000    6.7040  -14.8099    5.2770    0.0014    1.0000    0.0014    0.8686    0.1219 -999.0000    0.0000   36.5650    0.0000    0.0000    0.0000   63.4350    0.0000    0.0000    0.0000    0.0000    0.0000    0.0000    0.0000    0.0001   87.0796   10.1000 
 776.0000    6.0290  -13.1089    5.4750    0.0003    1.0000    0.0003    0.9273    0.0709 -999.0000    0.0000   36.5500    0.0000    0.0000    0.0000   63.4500    0.0000    0.0000    0.0000    0.0000    0.0000    0.0000    0.0000    0.0000   87.0841   10.1000 
 776.5000    5.7070  -11.6069    5.8470    0.0001    1.0000    0.0001    0.9791    0.0203 -999.0000    0.0000   36.5300    0.0000    0.0000    0.0000   63.4700    0.0000    0.0000    0.0000    0.0000    0.0000    0.0000    0.0000    0.0000   87.0887   10.1000 
 777.0000    5.3360  -10.4369    6.1960    0.0001    1.0000    0.0001    1.0000    0.0000 -999.0000    0.0000   36.5100    0.0000    0.0000    0.0000   63.4900    0.0000    0.0000    0.0000    0.0000    0.0000    0.0000    0.0000    0.0000   87.0933   10.1000 
 777.5000    5.0820  -10.3159    6.4390    0.0001    1.0000    0.0001    1.0000    0.0000 -999.0000    0.0000   36.5000    0.0000    0.0000    0.0000   63.5000    0.0000    0.0000    0.0000    0.0000    0.0000    0.0000    0.0000    0.0000   87.0978   10.1000 
 778.0000    5.0300  -10.5949    6.7830    0.0001    1.0000    0.0001    1.0000    0.0000 -999.0000    0.0000   36.4900    0.0000    0.0000    0.0000   63.5100    0.0000    0.0000    0.0000    0.0000    0.0000    0.0000    0.0000    0.0000   87.1024   10.1000 
 778.5000    5.1140  -11.4299    6.7980    0.0001    1.0000    0.0001    0.9852    0.0142 -999.0000    0.0000   36.4750    0.0000    0.0000    0.0000   63.5250    0.0000    0.0000    0.0000    0.0000    0.0000    0.0000    0.0000    0.0000   87.1070   10.1000 
