~VERSION INFORMATION
 VERS.                 2.0:   CWLS LOG ASCII STANDARD - VERSION 2.0
 WRAP.                  NO:   SINGLE LINE PER DEPTH STEP
 CREA.                 03/05/2017 12:05:25
#CREATED USING IP VERSION 4.2.2015.61 BY PANESSOR ON 03/05/2017 12:05:25
~WELL INFORMATION
#MNEM.UNIT       DATA                          DESCRIPTION MNEMONIC
#---------      ---------------------------   --------------------------
 STRT    .FT        500.0000                  : START DEPTH
 STOP    .FT        4532.0000                 : STOP DEPTH
 STEP    .FT        0.5000                    : STEP VALUE
 NULL    .      -999.0000                     : NULL VALUE
 DATE    .      03/05/2017                    : LAS file Creation Date
 WELL  .      CRISOL-1            : Well Name
 COMP  .      INTERCOL            : Company
 FLD   .      WILDCAT             : Field
 STATE .      CESAR               : State
 COUNT .      COLOMBIA            : Country
 API   .      CRIL0001            : API Number
 UWI   .      CRIL0001            : Unique Well Identifier (UWI)
 LOC   .      GAUSS ORIGIN BOGOTA : Location
 LATI  .      1.0147222222        : Latitude/Northing
 LONG  .      1.0086111111        : Longitude/Easting
 RWS   .      -999                : Def_Rw
 WST   .      -999                : Def_Rwt
 PROV  .                          : Province
 SRVC  .      SCH                 : Contractor
~CURVE INFORMATION
#MNEM                 UNIT       API CODE     Description
#----------     --------------- ----------  --------------
 DEPTH         .FT                        : 
 RM_IR         .OHMM                      : Medium Resistivity
 SPC_IR        .MV                        : Spontaneous Potential
 RD_E_IR       .OHMM                      : Formation Deep Resitivity
 PHIE_IR       .Dec                       : Effective Porosity
 SW_IR         .Dec                       : Effective Water Saturation
 BVW_IR        .Dec                       : Bulk Volume water (Phie x SW)
 VWCL_IR       .Dec                       : Volume wet Clay
 VSILT_IR      .Dec                       : Volume Silt
 Perfs_IR      .B/E                       : Photoelectric Factor
 Perm_IR       .md                        : Calculated Permeability
 CGL_IR        .%                         : Mudlog CONGLOMERATE
 SS_IR         .%                         : Mudlog SANDSTONE
 SLS_IR        .%                         : Mudlog SILSTONE
 CLST_IR       .%                         : Mudlog CLAYSTONE
 SH_IR         .%                         : Mudlog Shale
 MARL_IR       .%                         : Mudlog MARLSTONE
 LS_IR         .%                         : Mudlog LIMESTONE
 ResFlag_IR    .                          : Net Reservoir
 PayFlag_IR    .                          : Net Pay
 K_PHI_IR      .                          : K/PHI RATIO
 PayFlagRT_IR  .                          : Pay Flag Rock Type
 ResFlagRT_IR  .                          : Net Reservoir Rock Type
 Rock_Type_IR  .microns                   : Pore Throat Size - Rock Types
 Temp_IR       .F                         : Formation Temperature
 MUD_WEIGHT_IR .PPG                       : MUD_WEIGHT
~P Interactive Petrophysics parameters
#Name        Value                 Description
#----- --------------------------  -----------
#Logging Run 
 RUN  .     1                    : Run Number
 DATE .     24-OCT-1953          : Date                      | RUN[0]
 BLI  .     2565                 : Btm Log Interval          | RUN[1]
 TLI  .     517                  : Top Log Interval          | RUN[1]
 BS   .     8.625                : Bit Size                  | RUN[1]
 DFT  .     /                    : Type of Fluid in Hole     | RUN[1]
 RM   .     5.9                  : Rm                        | RUN[1]
 MST  .     84                   : at Meas Temp              | RUN[1]
 R1   .     SPS LTDA.            : Remark 1                  | RUN[1]
 R2   .     PLUG BACK 3808 FT.   : Remark 2                  | RUN[1]
 R3   .     ABANDONED GAS WELL.  : Remark 3                  | RUN[1]
#Logging Run 
 RUN  .     2                    : Run Number
 DATE .     14-NOV-1953          : Date                      | RUN[1]
 BLI  .     4053                 : Btm Log Interval          | RUN[2]
 TLI  .     3000                 : Top Log Interval          | RUN[2]
 BS   .     9.625                : Bit Size                  | RUN[2]
 RM   .     3.8                  : Rm                        | RUN[2]
 MST  .     87                   : at Meas Temp              | RUN[2]
 R1   .     SPS LTDA.            : Remark 1                  | RUN[2]
 R2   .     PLUG BACK 3808 FT.   : Remark 2                  | RUN[2]
 R3   .     ABANDONED GAS WELL.  : Remark 3                  | RUN[2]
~A  DEPTH   RM_IR     SPC_IR   RD_E_IR   PHIE_IR    SW_IR     BVW_IR   VWCL_IR   VSILT_IR  Perfs_IR  Perm_IR    CGL_IR    SS_IR     SLS_IR   CLST_IR    SH_IR    MARL_IR    LS_IR   ResFlag_~ PayFlag_~  K_PHI_IR PayFlagR~ ResFlagR~ Rock_Typ~  Temp_IR  MUD_WEIG~ 
# ...
4189.0000 -999.0000 -999.0000 -999.0000 -999.0000 -999.0000 -999.0000 -999.0000 -999.0000    1.0000 -999.0000    0.0000    0.0000    0.0000    0.0000    0.0000    0.0000  100.0000    0.0000    0.0000 -999.0000    0.0000    0.0000 -999.0000 -999.0000   10.1000 
4189.5000 -999.0000 -999.0000 -999.0000 -999.0000 -999.0000 -999.0000 -999.0000 -999.0000    1.0000 -999.0000    0.0000    0.0000    0.0000    0.0000    0.0000    0.0000  100.0000    0.0000    0.0000 -999.0000    0.0000    0.0000 -999.0000 -999.0000   10.1000 
4190.0000 -999.0000 -999.0000 -999.0000 -999.0000 -999.0000 -999.0000 -999.0000 -999.0000    1.0000 -999.0000    0.0000    0.0000    0.0000    0.0000    0.0000    0.0000  100.0000    0.0000    0.0000 -999.0000    0.0000    0.0000 -999.0000 -999.0000   10.1000 
4190.5000 -999.0000 -999.0000 -999.0000 -999.0000 -999.0000 -999.0000 -999.0000 -999.0000    1.0000 -999.0000    0.0000    0.0000    0.0000    0.0000    0.0000    0.0000  100.0000    0.0000    0.0000 -999.0000    0.0000    0.0000 -999.0000 -999.0000   10.1000 
4191.0000 -999.0000 -999.0000 -999.0000 -999.0000 -999.0000 -999.0000 -999.0000 -999.0000    1.0000 -999.0000    0.0000    0.0000    0.0000    0.0000    0.0000    0.0000  100.0000    0.0000    0.0000 -999.0000    0.0000    0.0000 -999.0000 -999.0000   10.1000 
4191.5000 -999.0000 -999.0000 -999.0000 -999.0000 -999.0000 -999.0000 -999.0000 -999.0000    1.0000 -999.0000    0.0000    0.0000    0.0000    0.0000    0.0000    0.0000  100.0000    0.0000    0.0000 -999.0000    0.0000    0.0000 -999.0000 -999.0000   10.1000 
4192.0000 -999.0000 -999.0000 -999.0000 -999.0000 -999.0000 -999.0000 -999.0000 -999.0000    1.0000 -999.0000    0.0000    0.0000    0.0000    0.0000    0.0000    0.0000  100.0000    0.0000    0.0000 -999.0000    0.0000    0.0000 -999.0000 -999.0000   10.1000 
4192.5000 -999.0000 -999.0000 -999.0000 -999.0000 -999.0000 -999.0000 -999.0000 -999.0000    1.0000 -999.0000    0.0000    0.0000    0.0000    0.0000    0.0000    0.0000  100.0000    0.0000    0.0000 -999.0000    0.0000    0.0000 -999.0000 -999.0000   10.1000 
4193.0000 -999.0000 -999.0000 -999.0000 -999.0000 -999.0000 -999.0000 -999.0000 -999.0000    1.0000 -999.0000    0.0000    0.0000    0.0000    0.0000    0.0000    0.0000  100.0000    0.0000    0.0000 -999.0000    0.0000    0.0000 -999.0000 -999.0000   10.1000 
4193.5000 -999.0000 -999.0000 -999.0000 -999.0000 -999.0000 -999.0000 -999.0000 -999.0000    1.0000 -999.0000    0.0000    0.0000    0.0000    0.0000    0.0000    0.0000  100.0000    0.0000    0.0000 -999.0000    0.0000    0.0000 -999.0000 -999.0000   10.1000 
4194.0000 -999.0000 -999.0000 -999.0000 -999.0000 -999.0000 -999.0000 -999.0000 -999.0000    1.0000 -999.0000    0.0000    0.0000    0.0000    0.0000    0.0000    0.0000  100.0000    0.0000    0.0000 -999.0000    0.0000    0.0000 -999.0000 -999.0000   10.1000 
4194.5000 -999.0000 -999.0000 -999.0000 -999.0000 -999.0000 -999.0000 -999.0000 -999.0000    1.0000 -999.0000    0.0000    0.0000    0.0000    0.0000    0.0000    0.0000  100.0000    0.0000    0.0000 -999.0000    0.0000    0.0000 -999.0000 -999.0000   10.1000 
4195.0000 -999.0000 -999.0000 -999.0000 -999.0000 -999.0000 -999.0000 -999.0000 -999.0000    1.0000 -999.0000    0.0000    0.0000    0.0000    0.0000    0.0000    0.0000  100.0000    0.0000    0.0000 -999.0000    0.0000    0.0000 -999.0000 -999.0000   10.1000 
4195.5000 -999.0000 -999.0000 -999.0000 -999.0000 -999.0000 -999.0000 -999.0000 -999.0000    1.0000 -999.0000    0.0000    0.0000    0.0000    0.0000    0.0000    0.0000  100.0000    0.0000    0.0000 -999.0000    0.0000    0.0000 -999.0000 -999.0000   10.1000 
4196.0000 -999.0000 -999.0000 -999.0000 -999.0000 -999.0000 -999.0000 -999.0000 -999.0000    1.0000 -999.0000    0.0000    0.0000    0.0000    0.0000    0.0000    0.0000  100.0000    0.0000    0.0000 -999.0000    0.0000    0.0000 -999.0000 -999.0000   10.1000 
4196.5000 -999.0000 -999.0000 -999.0000 -999.0000 -999.0000 -999.0000 -999.0000 -999.0000    1.0000 -999.0000    0.0000    0.0000    0.0000    0.0000    0.0000    0.0000  100.0000    0.0000    0.0000 -999.0000    0.0000    0.0000 -999.0000 -999.0000   10.1000 
4197.0000 -999.0000 -999.0000 -999.0000 -999.0000 -999.0000 -999.0000 -999.0000 -999.0000    1.0000 -999.0000    0.0000    0.0000    0.0000    0.0000    0.0000    0.0000  100.0000    0.0000    0.0000 -999.0000    0.0000    0.0000 -999.0000 -999.0000   10.1000 
4197.5000 -999.0000 -999.0000 -999.0000 -999.0000 -999.0000 -999.0000 -999.0000 -999.0000    1.0000 -999.0000    0.0000    0.0000    0.0000    0.0000    0.0000    0.0000  100.0000    0.0000    0.0000 -999.0000    0.0000    0.0000 -999.0000 -999.0000   10.1000 
4198.0000 -999.0000 -999.0000 -999.0000 -999.0000 -999.0000 -999.0000 -999.0000 -999.0000    1.0000 -999.0000    0.0000    0.0000    0.0000    0.0000    0.0000    0.0000  100.0000    0.0000    0.0000 -999.0000    0.0000    0.0000 -999.0000 -999.0000   10.1000 
4198.5000 -999.0000 -999.0000 -999.0000 -999.0000 -999.0000 -999.0000 -999.0000 -999.0000    1.0000 -999.0000    0.0000    0.0000    0.0000    0.0000    0.0000    0.0000  100.0000    0.0000    0.0000 -999.0000    0.0000    0.0000 -999.0000 -999.0000   10.1000 
4199.0000 -999.0000 -999.0000 -999.0000 -999.0000 -999.0000 -999.0000 -999.0000 -999.0000    1.0000 -999.0000    0.0000    0.0000    0.0000    0.0000    0.0000    0.0000  100.0000    0.0000    0.0000 -999.0000    0.0000    0.0000 -999.0000 -999.0000   10.1000 
4199.5000 -999.0000 -999.0000 -999.0000 -999.0000 -999.0000 -999.0000 -999.0000 -999.0000    1.0000 -999.0000    0.0000    0.0000    0.0000    0.0000    0.0000    0.0000  100.0000    0.0000    0.0000 -999.0000    0.0000    0.0000 -999.0000 -999.0000   10.1000 
4200.0000 -999.0000 -999.0000 -999.0000 -999.0000 -999.0000 -999.0000 -999.0000 -999.0000    1.0000 -999.0000    0.0000    0.0000    0.0000    0.0000    0.0000    0.0000  100.0000    0.0000    0.0000 -999.0000    0.0000    0.0000 -999.0000 -999.0000   10.1000 
4200.5000 -999.0000 -999.0000 -999.0000 -999.0000 -999.0000 -999.0000 -999.0000 -999.0000    1.0000 -999.0000    0.0000    0.0000    0.0000    0.0000    0.0000    0.0000  100.0000    0.0000    0.0000 -999.0000    0.0000    0.0000 -999.0000 -999.0000   10.1000 
4201.0000 -999.0000 -999.0000 -999.0000 -999.0000 -999.0000 -999.0000 -999.0000 -999.0000    1.0000 -999.0000    0.0000    0.0000    0.0000    0.0000    0.0000    0.0000  100.0000    0.0000    0.0000 -999.0000    0.0000    0.0000 -999.0000 -999.0000   10.1000 
4201.5000 -999.0000 -999.0000 -999.0000 -999.0000 -999.0000 -999.0000 -999.0000 -999.0000    1.0000 -999.0000    0.0000    0.0000    0.0000    0.0000    0.0000    0.0000  100.0000    0.0000    0.0000 -999.0000    0.0000    0.0000 -999.0000 -999.0000   10.1000 
4202.0000 -999.0000 -999.0000 -999.0000 -999.0000 -999.0000 -999.0000 -999.0000 -999.0000    1.0000 -999.0000    0.0000    0.0000    0.0000    0.0000    0.0000    0.0000  100.0000    0.0000    0.0000 -999.0000    0.0000    0.0000 -999.0000 -999.0000   10.1000 
4202.5000 -999.0000 -999.0000 -999.0000 -999.0000 -999.0000 -999.0000 -999.0000 -999.0000    1.0000 -999.0000    0.0000    0.0000    0.0000    0.0000    0.0000    0.0000  100.0000    0.0000    0.0000 -999.0000    0.0000    0.0000 -999.0000 -999.0000   10.1000 
4203.0000 -999.0000 -999.0000 -999.0000 -999.0000 -999.0000 -999.0000 -999.0000 -999.0000    1.0000 -999.0000    0.0000    0.0000    0.0000    0.0000    0.0000    0.0000  100.0000    0.0000    0.0000 -999.0000    0.0000    0.0000 -999.0000 -999.0000   10.1000 
4203.5000 -999.0000 -999.0000 -999.0000 -999.0000 -999.0000 -999.0000 -999.0000 -999.0000    1.0000 -999.0000    0.0000    0.0000    0.0000    0.0000    0.0000    0.0000  100.0000    0.0000    0.0000 -999.0000    0.0000    0.0000 -999.0000 -999.0000   10.1000 
4204.0000 -999.0000 -999.0000 -999.0000 -999.0000 -999.0000 -999.0000 -999.0000 -999.0000    1.0000 -999.0000    0.0000    0.0000    0.0000    0.0000    0.0000    0.0000  100.0000    0.0000    0.0000 -999.0000    0.0000    0.0000 -999.0000 -999.0000   10.1000 
