~VERSION INFORMATION
 VERS.                 2.0:   CWLS LOG ASCII STANDARD - VERSION 2.0
 WRAP.                  NO:   SINGLE LINE PER DEPTH STEP
 CREA.                 16/2/2017 12:08:22 p. m.
#CREATED USING IP VERSION 4.2.2015.61 BY PANESSOR ON 16/2/2017 12:08:22 p. m.
~WELL INFORMATION
#MNEM.UNIT       DATA                          DESCRIPTION MNEMONIC
#---------      ---------------------------   --------------------------
 STRT    .FT        470.0000                  : START DEPTH
 STOP    .FT        5740.0000                 : STOP DEPTH
 STEP    .FT        0.5000                    : STEP VALUE
 NULL    .      -999.0000                     : NULL VALUE
 DATE    .      16/2/2017                     : LAS file Creation Date
 WELL  .      CRISOL-2      : Well Name
 COMP  .      INTERCOL      : Company
 FLD   .      141-AGUACHICA : Field
 STATE .      MAGDALENA     : State
 COUNT .      COLOMBIA      : Country
 API   .      CRIL0002      : API Number
 UWI   .      100000000372  : Unique Well Identifier (UWI)
 LOC   .                    : Location
 LATI  .      1.0038888889  : Latitude/Northing
 LONG  .      1.0080555556  : Longitude/Easting
 RWS   .      -999          : Def_Rw
 WST   .      -999          : Def_Rwt
 PROV  .                    : Province
 SRVC  .      SCH           : Contractor
~CURVE INFORMATION
#MNEM                UNIT       API CODE     Description
#----------    --------------- ----------  --------------
 DEPTH        .FT                        : 
 RM_IR        .OHMM                      : Resistivity AM 16"
 SPC_IR       .MV                        : Spontaneous Potential
 RD_E_IR      .OHMM                      : Formation Resitivity
 PHIE_IR      .Dec                       : Effective Porosity
 SW_IR        .Dec                       : Water Saturation
 BVW_IR       .Dec                       : Bulk Volume water (Phie x SW)
 VWCL_IR      .Dec                       : Volume wet Clay
 VSILT_IR     .Dec                       : Volume Silt
 CONG_IR      .%                         : Mudlog CONGLOMERATE
 SS_IR        .%                         : Mudlog SANDSTONE
 LS_IR        .%                         : Mudlog LIMESTONE
 MARL_IR      .%                         : Mudlog MARLSTONE
 SLST_IR      .%                         : Mudlog SILSTONE
 SH_IR        .%                         : Mudlog SHALE
 COAL_IR      .%                         : Mudlog  COAL
 IGNEOUS_IR   .%                         : Mudlog IGNEOUS
 ResFlag_IR   .                          : Net Reservoir
 PayFlag_IR   .                          : Net Pay
 PERFS_IR     .B/E                       : Perforations
 Perm_IR      .md                        : Calculated Permeability
 PayFlagRT_IR .                          : Pay Flag Rock Type
 K_PHI_IR     .                          : K/PHI RATIO
 ResFlagRT_IR .                          : Net Reservoir Rock Type
 Rock_Type_IR .microns                   : Pore Throat Size - Rock Types
 Temp_IR      .F                         : Formation Temperature
~P Interactive Petrophysics parameters
#Name        Value                 Description
#----- --------------------------  -----------
#Logging Run 
 RUN  .     1           : Run Number
 DATE .     27/02/1954  : Date                      | RUN[0]
 DFT  .     /           : Type of Fluid in Hole     | RUN[1]
~A  DEPTH   RM_IR     SPC_IR   RD_E_IR   PHIE_IR    SW_IR     BVW_IR   VWCL_IR   VSILT_IR  CONG_IR    SS_IR     LS_IR    MARL_IR   SLST_IR    SH_IR    COAL_IR  IGNEOUS_~ ResFlag_~ PayFlag_~  PERFS_IR  Perm_IR  PayFlagR~  K_PHI_IR ResFlagR~ Rock_Typ~  Temp_IR  
# ...
5383.5000  331.2650  -46.7816  876.9780    0.0618    0.3501    0.0217    0.5047    0.2891    0.0000    0.0000  100.0000    0.0000    0.0000    0.0000    0.0000    0.0000    0.0000    0.0000    1.0000    0.0451    0.0000    0.7287    0.0000    0.1806  134.0872 
5384.0000  333.4400  -47.5476  893.8850    0.0638    0.3363    0.0214    0.4881    0.2994    0.0000    0.0000  100.0000    0.0000    0.0000    0.0000    0.0000    0.0000    0.0000    0.0000    1.0000    0.0544    0.0000    0.8524    0.0000    0.1964  134.0927 
5384.5000  336.8880  -48.3346  908.2730    0.0657    0.3236    0.0213    0.4710    0.3099    0.0000    0.0000  100.0000    0.0000    0.0000    0.0000    0.0000    0.0000    0.0000    0.0000    1.0000    0.0654    0.0000    0.9953    0.0000    0.2133  134.0982 
5385.0000  340.3690  -49.3116  915.4680    0.0682    0.3107    0.0212    0.4497    0.3229    0.0000    0.0000  100.0000    0.0000    0.0000    0.0000    0.0000    0.0000    0.0000    0.0000    1.0000    0.0813    0.0000    1.1923    0.0000    0.2348  134.1037 
5385.5000  344.6330  -50.7946  915.4680    0.0720    0.2945    0.0212    0.4175    0.3426    0.0000    0.0000  100.0000    0.0000    0.0000    0.0000    0.0000    0.0000    0.0000    0.0000    1.0000    0.1109    0.0000    1.5411    0.0000    0.2691  134.1091 
5386.0000  347.5420  -51.9756  915.4680    0.0749    0.2827    0.0212    0.3918    0.3584    0.0000    0.0000  100.0000    0.0000    0.0000    0.0000    0.0000    0.0000    0.0000    0.0000    1.0000    0.1404    0.0000    1.8730    0.0000    0.2984  134.1146 
5386.5000  350.3810  -53.3226  908.2730    0.0783    0.2715    0.0213    0.3626    0.3763    0.0000    0.0000  100.0000    0.0000    0.0000    0.0000    0.0000    0.0000    0.0000    0.0000    1.0000    0.1809    0.0000    2.3092    0.0000    0.3334  134.1201 
5387.0000  350.6970  -53.5376  908.2730    0.0789    0.2696    0.0213    0.3579    0.3792    0.0000    0.0000  100.0000    0.0000    0.0000    0.0000    0.0000    0.0000    0.0000    0.0000    1.0000    0.1883    0.0000    2.3871    0.0000    0.3393  134.1256 
5387.5000  350.8430  -53.1506  919.0650    0.0779    0.2714    0.0211    0.3663    0.3740    0.0000    0.0000  100.0000    0.0000    0.0000    0.0000    0.0000    0.0000    0.0000    0.0000    1.0000    0.1762    0.0000    2.2612    0.0000    0.3298  134.1311 
5388.0000  350.4310  -52.8156  933.4530    0.0771    0.2723    0.0210    0.3736    0.3696    0.0000    0.0000  100.0000    0.0000    0.0000    0.0000    0.0000    0.0000    0.0000    0.0000    1.0000    0.1666    0.0000    2.1616    0.0000    0.3222  134.1366 
5388.5000  352.8550  -52.6506  939.3880    0.0766    0.2729    0.0209    0.3772    0.3674    0.0000    0.0000  100.0000    0.0000    0.0000    0.0000    0.0000    0.0000    0.0000    0.0000    1.0000    0.1619    0.0000    2.1125    0.0000    0.3183  134.1421 
5389.0000  354.4520  -52.5576  947.8420    0.0764    0.2725    0.0208    0.3792    0.3662    0.0000    0.0000  100.0000    0.0000    0.0000    0.0000    0.0000    0.0000    0.0000    0.0000    1.0000    0.1597    0.0000    2.0905    0.0000    0.3166  134.1476 
5389.5000  354.2950  -52.3976  955.0360    0.0760    0.2730    0.0207    0.3827    0.3640    0.0000    0.0000  100.0000    0.0000    0.0000    0.0000    0.0000    0.0000    0.0000    0.0000    1.0000    0.1554    0.0000    2.0453    0.0000    0.3131  134.1530 
5390.0000  354.2950  -52.4606  962.7000    0.0761    0.2713    0.0207    0.3813    0.3649    0.0000    0.0000  100.0000    0.0000    0.0000    0.0000    0.0000    0.0000    0.0000    0.0000    1.0000    0.1579    0.0000    2.0739    0.0000    0.3155  134.1585 
5390.5000  354.3370  -52.2316  961.4750    0.0756    0.2736    0.0207    0.3863    0.3618    0.0000    0.0000  100.0000    0.0000    0.0000    0.0000    0.0000    0.0000    0.0000    0.0000    1.0000    0.1510    0.0000    1.9982    0.0000    0.3093  134.1640 
5391.0000  354.3030  -52.0316  969.5000    0.0751    0.2743    0.0206    0.3906    0.3592    0.0000    0.0000  100.0000    0.0000    0.0000    0.0000    0.0000    0.0000    0.0000    0.0000    1.0000    0.1458    0.0000    1.9426    0.0000    0.3048  134.1695 
5391.5000  354.3190  -51.7686  977.7550    0.0744    0.2756    0.0205    0.3963    0.3557    0.0000    0.0000  100.0000    0.0000    0.0000    0.0000    0.0000    0.0000    0.0000    0.0000    1.0000    0.1390    0.0000    1.8690    0.0000    0.2986  134.1750 
5392.0000  354.3090  -51.5246  975.6800    0.0738    0.2781    0.0205    0.4016    0.3524    0.0000    0.0000  100.0000    0.0000    0.0000    0.0000    0.0000    0.0000    0.0000    0.0000    1.0000    0.1324    0.0000    1.7940    0.0000    0.2922  134.1805 
5392.5000  354.3250  -51.2936  978.1020    0.0732    0.2800    0.0205    0.4067    0.3494    0.0000    0.0000  100.0000    0.0000    0.0000    0.0000    0.0000    0.0000    0.0000    0.0000    1.0000    0.1265    0.0000    1.7290    0.0000    0.2866  134.1860 
5393.0000  354.2850  -51.0386  984.4700    0.0725    0.2816    0.0204    0.4122    0.3460    0.0000    0.0000  100.0000    0.0000    0.0000    0.0000    0.0000    0.0000    0.0000    0.0000    1.0000    0.1206    0.0000    1.6623    0.0000    0.2807  134.1915 
5393.5000  354.3360  -50.6886  983.4290    0.0717    0.2852    0.0204    0.4198    0.3413    0.0000    0.0000  100.0000    0.0000    0.0000    0.0000    0.0000    0.0000    0.0000    0.0000    1.0000    0.1123    0.0000    1.5666    0.0000    0.2720  134.1970 
5394.0000  354.3120  -49.9276  983.9890    0.0697    0.2930    0.0204    0.4364    0.3312    0.0000    0.0000  100.0000    0.0000    0.0000    0.0000    0.0000    0.0000    0.0000    0.0000    1.0000    0.0959    0.0000    1.3753    0.0000    0.2538  134.2024 
5394.5000  354.1970  -49.1846  983.9260    0.0679    0.3011    0.0204    0.4525    0.3213    0.0000    0.0000  100.0000    0.0000    0.0000    0.0000    0.0000    0.0000    0.0000    0.0000    1.0000    0.0819    0.0000    1.2065    0.0000    0.2368  134.2079 
5395.0000  354.6630  -49.0616  982.2140    0.0676    0.3027    0.0204    0.4552    0.3196    0.0000    0.0000  100.0000    0.0000    0.0000    0.0000    0.0000    0.0000    0.0000    0.0000    1.0000    0.0797    0.0000    1.1792    0.0000    0.2339  134.2134 
5395.5000  350.8170  -49.0536  976.2110    0.0675    0.3037    0.0205    0.4554    0.3195    0.0000    0.0000  100.0000    0.0000    0.0000    0.0000    0.0000    0.0000    0.0000    0.0000    1.0000    0.0793    0.0000    1.1741    0.0000    0.2334  134.2189 
5396.0000  346.3350  -48.9886  977.2420    0.0674    0.3043    0.0205    0.4568    0.3187    0.0000    0.0000  100.0000    0.0000    0.0000    0.0000    0.0000    0.0000    0.0000    0.0000    1.0000    0.0782    0.0000    1.1611    0.0000    0.2320  134.2244 
5396.5000  343.4660  -48.3336  975.0910    0.0657    0.3123    0.0205    0.4710    0.3099    0.0000    0.0000  100.0000    0.0000    0.0000    0.0000    0.0000    0.0000    0.0000    0.0000    1.0000    0.0676    0.0000    1.0294    0.0000    0.2176  134.2299 
5397.0000  336.9830  -47.9746  968.7320    0.0648    0.3177    0.0206    0.4788    0.3051    0.0000    0.0000  100.0000    0.0000    0.0000    0.0000    0.0000    0.0000    0.0000    0.0000    1.0000    0.0622    0.0000    0.9600    0.0000    0.2097  134.2354 
5397.5000  333.8390  -47.8196  969.6370    0.0644    0.3195    0.0206    0.4822    0.3031    0.0000    0.0000  100.0000    0.0000    0.0000    0.0000    0.0000    0.0000    0.0000    0.0000    1.0000    0.0601    0.0000    0.9329    0.0000    0.2065  134.2408 
5398.0000  328.6490  -47.6216  969.7470    0.0639    0.3219    0.0206    0.4865    0.3004    0.0000    0.0000  100.0000    0.0000    0.0000    0.0000    0.0000    0.0000    0.0000    0.0000    1.0000    0.0574    0.0000    0.8988    0.0000    0.2025  134.2463 
5398.5000  327.4920  -47.4416  965.2040    0.0635    0.3250    0.0206    0.4904    0.2980    0.0000    0.0000  100.0000    0.0000    0.0000    0.0000    0.0000    0.0000    0.0000    0.0000    1.0000    0.0550    0.0000    0.8666    0.0000    0.1986  134.2518 
