~VERSION INFORMATION
 VERS.                 2.0:   CWLS LOG ASCII STANDARD - VERSION 2.0
 WRAP.                  NO:   SINGLE LINE PER DEPTH STEP
 CREA.                 03/05/2017 10:34:44
#CREATED USING IP VERSION 4.2.2015.61 BY PANESSOR ON 03/05/2017 10:34:44
~WELL INFORMATION
#MNEM.UNIT       DATA                          DESCRIPTION MNEMONIC
#---------      ---------------------------   --------------------------
 STRT    .FT        500.0000                  : START DEPTH
 STOP    .FT        5680.0000                 : STOP DEPTH
 STEP    .FT        0.5000                    : STEP VALUE
 NULL    .      -999.0000                     : NULL VALUE
 DATE    .      03/05/2017                    : LAS file Creation Date
 WELL  .      CRISOL-3            : Well Name
 COMP  .      INTERCOL            : Company
 FLD   .      WILDCAT             : Field
 STATE .      MAGDALENA           : State
 COUNT .      COLOMBIA            : Country
 API   .      CRIL0003            : API Number
 UWI   .      100000000377        : Unique Well Identifier (UWI)
 LOC   .      GAUSS ORIGIN BOGOTA : Location
 LATI  .      1                   : Latitude/Northing
 LONG  .      1                   : Longitude/Easting
 RWS   .      -999                : Def_Rw
 WST   .      -999                : Def_Rwt
 CNTY  .      N/A                 : County
 PROV  .                          : Province
 SRVC  .      SCH                 : Contractor
~CURVE INFORMATION
#MNEM                UNIT       API CODE     Description
#----------    --------------- ----------  --------------
 DEPTH        .FT                        : 
 RM_IR        .OHMM                      : Medium Resistivity
 RD_IR        .OHMM                      : Formation Deep Resitivity
 LAT_E_IR     .OHMM                      : Lateral AO18'8"
 SPC_IR       .MV                        : Spontaneous Potential
 PHIE_IR      .Dec                       : Effective Porosity
 SW_IR        .Dec                       : Effective Water Saturation
 BVW_IR       .Dec                       : Bulk Volume water (Phie x SW)
 VWCL_IR      .Dec                       : Volume wet Clay
 VSILT_IR     .Dec                       : Volume Silt
 SLST_IR      .%                         : Mudlog SILSTONE
 SS_IR        .%                         : Mudlog SANDSTONE
 CONG_IR      .%                         : Mudlog CONGLOMERATE
 MARL_IR      .%                         : Mudlog MARLSTONE
 ResFlag_IR   .                          : Net Reservoir
 IGNEOUS_IR   .us/ft                     : Mudlog IGNEOUS
 LS_IR        .us/ft                     : Mudlog LIMESTONE
 SH_IR        .%                         : Mudlog SHALE
 PayFlag_IR   .                          : Net Pay
 Perm_IR      .md                        : Calculated Permeability
 PayFlagRT_IR .                          : Pay Flag Rock Type
 ResFlagRT_IR .                          : Net Reservoir Rock Type
 K_PHI_IR     .                          : K/PHI RATIO
 Rock_Type_IR .microns                   : Pore Throat Size - Rock Types
 Temp_IR      .F                         : Formation Temperature
~P Interactive Petrophysics parameters
#Name        Value                 Description
#----- --------------------------  -----------
#Logging Run 
 RUN  .     1           : Run Number
 DATE .     23/04/1954  : Date                      | RUN[0]
 DFT  .     /           : Type of Fluid in Hole     | RUN[1]
~A  DEPTH   RM_IR     RD_IR    LAT_E_IR   SPC_IR   PHIE_IR    SW_IR     BVW_IR   VWCL_IR   VSILT_IR  SLST_IR    SS_IR    CONG_IR   MARL_IR  ResFlag_~ IGNEOUS_~   LS_IR     SH_IR   PayFlag_~  Perm_IR  PayFlagR~ ResFlagR~  K_PHI_IR Rock_Typ~  Temp_IR  
# ...
3588.0000   50.9060  111.5940  273.4450  -27.8707    0.0027    1.0000    0.0027    0.8801    0.1110    0.0000    0.0000    0.0000  100.0000    0.0000    0.0000    0.0000    0.0000    0.0000    0.0000    0.0000    0.0000    0.0000    0.0001  112.5407 
3588.5000   50.9060  113.0310  273.7610  -26.7401    0.0018    1.0000    0.0018    0.8954    0.0986    0.0000    0.0000    0.0000  100.0000    0.0000    0.0000    0.0000    0.0000    0.0000    0.0000    0.0000    0.0000    0.0000    0.0000  112.5459 
3589.0000   51.2680  114.4630  266.3190  -26.6436    0.0017    1.0000    0.0017    0.8967    0.0976    0.0000    0.0000    0.0000  100.0000    0.0000    0.0000    0.0000    0.0000    0.0000    0.0000    0.0000    0.0000    0.0000    0.0000  112.5512 
3589.5000   51.9930  117.3430  259.1600  -26.6119    0.0017    1.0000    0.0017    0.8971    0.0972    0.0000    0.0000    0.0000  100.0000    0.0000    0.0000    0.0000    0.0000    0.0000    0.0000    0.0000    0.0000    0.0000    0.0000  112.5564 
3590.0000   53.4560  119.8660  244.7380  -26.7075    0.0018    1.0000    0.0018    0.8958    0.0983    0.0000    0.0000    0.0000  100.0000    0.0000    0.0000    0.0000    0.0000    0.0000    0.0000    0.0000    0.0000    0.0000    0.0000  112.5616 
3590.5000   55.2540  123.4820  223.0210  -26.7205    0.0018    1.0000    0.0018    0.8957    0.0984    0.0000    0.0000    0.0000   93.0025    0.0000    0.0000    6.9974    0.0000    0.0000    0.0000    0.0000    0.0000    0.0000    0.0000  112.5669 
3591.0000   57.0650  126.0180  215.7740  -26.7193    0.0018    1.0000    0.0018    0.8957    0.0984    0.0000    0.0000    0.0000   86.0051    0.0000    0.0000   13.9949    0.0000    0.0000    0.0000    0.0000    0.0000    0.0000    0.0000  112.5721 
3591.5000   59.5430  130.0180  204.8700  -26.7155    0.0018    1.0000    0.0018    0.8957    0.0984    0.0000    0.0000    0.0000   85.9892    0.0000    0.0000   14.0108    0.0000    0.0000    0.0000    0.0000    0.0000    0.0000    0.0000  112.5773 
3592.0000   61.6740  133.6350  198.0070  -26.7180    0.0018    1.0000    0.0018    0.8957    0.0984    0.0000    0.0000    0.0000   85.9733    0.0000    0.0000   14.0267    0.0000    0.0000    0.0000    0.0000    0.0000    0.0000    0.0000  112.5826 
3592.5000   63.8040  137.6130  198.0070  -26.6936    0.0018    1.0000    0.0018    0.8960    0.0981    0.0000    0.0000    0.0000   85.9574    0.0000    0.0000   14.0426    0.0000    0.0000    0.0000    0.0000    0.0000    0.0000    0.0000  112.5878 
3593.0000   65.7610  141.5910  198.0070  -26.6014    0.0017    1.0000    0.0017    0.8973    0.0971    0.0000    0.0000    0.0000   85.9415    0.0000    0.0000   14.0585    0.0000    0.0000    0.0000    0.0000    0.0000    0.0000    0.0000  112.5930 
3593.5000   67.9260  145.5700  198.0070  -26.6491    0.0017    1.0000    0.0017    0.8966    0.0976    0.0000    0.0000    0.0000   85.9256    0.0000    0.0000   14.0744    0.0000    0.0000    0.0000    0.0000    0.0000    0.0000    0.0000  112.5982 
3594.0000   69.7460  149.1860  198.0070  -26.7079    0.0018    1.0000    0.0018    0.8958    0.0983    0.0000    0.0000    0.0000   85.9097    0.0000    0.0000   14.0903    0.0000    0.0000    0.0000    0.0000    0.0000    0.0000    0.0000  112.6035 
3594.5000   71.0330  153.5260  208.3330  -27.0362    0.0020    1.0000    0.0020    0.8914    0.1020    0.0000    0.0000    0.0000   85.8938    0.0000    0.0000   14.1062    0.0000    0.0000    0.0000    0.0000    0.0000    0.0000    0.0000  112.6087 
3595.0000   72.6450  157.5050  219.2030  -27.3518    0.0022    1.0000    0.0022    0.8871    0.1054    0.0000    0.0000    0.0000   85.8779    0.0000    0.0000   14.1221    0.0000    0.0000    0.0000    0.0000    0.0000    0.0000    0.0000  112.6139 
3595.5000   73.3700  161.4830  226.4490  -27.7296    0.0025    1.0000    0.0025    0.8820    0.1095    0.0000    0.0000    0.0000   85.8620    0.0000    0.0000   14.1380    0.0000    0.0000    0.0000    0.0000    0.0000    0.0000    0.0001  112.6192 
3596.0000   74.0940  165.4610  237.3190  -27.9199    0.0027    1.0000    0.0027    0.8795    0.1115    0.0000    0.0000    0.0000   85.8461    0.0000    0.0000   14.1539    0.0000    0.0000    0.0000    0.0000    0.0000    0.0000    0.0001  112.6244 
3596.5000   74.4570  169.4390  244.5650  -28.0103    0.0028    1.0000    0.0028    0.8782    0.1124    0.0000    0.0000    0.0000   85.8302    0.0000    0.0000   14.1698    0.0000    0.0000    0.0000    0.0000    0.0000    0.0000    0.0001  112.6296 
3597.0000   74.4570  173.0560  251.8120  -27.8944    0.0027    1.0000    0.0027    0.8798    0.1112    0.0000    0.0000    0.0000   85.8142    0.0000    0.0000   14.1858    0.0000    0.0000    0.0000    0.0000    0.0000    0.0000    0.0001  112.6349 
3597.5000   74.8190  177.0340  259.0580  -27.9979    0.0028    1.0000    0.0028    0.8784    0.1123    0.0000    0.0000    0.0000   85.7983    0.0000    0.0000   14.2017    0.0000    0.0000    0.0000    0.0000    0.0000    0.0000    0.0001  112.6401 
3598.0000   75.1810  179.2040  266.3040  -28.2420    0.0030    1.0000    0.0030    0.8751    0.1148    0.0000    0.0000    0.0000   85.7824    0.0000    0.0000   14.2176    0.0000    0.0000    0.0000    0.0000    0.0000    0.0000    0.0001  112.6453 
3598.5000   75.1810  179.9280  269.9280  -28.5950    0.0034    1.0000    0.0034    0.8703    0.1183    0.0000    0.0000    0.0000   85.7665    0.0000    0.0000   14.2335    0.0000    0.0000    0.0000    0.0000    0.0000    0.0000    0.0001  112.6506 
3599.0000   75.1810  181.0130  277.1740  -29.1948    0.0041    1.0000    0.0041    0.8622    0.1239    0.0000    0.0000    0.0000   85.7506    0.0000    0.0000   14.2494    0.0000    0.0000    0.0000    0.0000    0.0000    0.0000    0.0002  112.6558 
3599.5000   75.5430  181.7360  280.7970  -29.5036    0.0046    1.0000    0.0046    0.8581    0.1267    0.0000    0.0000    0.0000   92.8753    0.0000    0.0000    7.1247    0.0000    0.0000    0.0000    0.0000    0.0000    0.0000    0.0002  112.6610 
3600.0000   75.2380  182.0980  284.2360  -29.7014    0.0049    1.0000    0.0049    0.8554    0.1284    0.0000    0.0000    0.0000  100.0000    0.0000    0.0000    0.0000    0.0000    0.0000    0.0000    0.0000    0.0000    0.0000    0.0003  112.6663 
3600.5000   74.9390  182.0980  302.3490  -29.7739    0.0050    1.0000    0.0050    0.8544    0.1290    0.0000    0.0000    0.0000  100.0000    0.0000    0.0000    0.0000    0.0000    0.0000    0.0000    0.0000    0.0000    0.0000    0.0003  112.6715 
3601.0000   74.4570  182.0980  309.6080  -29.8495    0.0051    1.0000    0.0051    0.8534    0.1296    0.0000    0.0000    0.0000  100.0000    0.0000    0.0000    0.0000    0.0000    0.0000    0.0000    0.0000    0.0000    0.0000    0.0003  112.6767 
3601.5000   74.0940  182.0980  316.8870  -29.8599    0.0051    1.0000    0.0051    0.8532    0.1297    0.0000    0.0000    0.0000  100.0000    0.0000    0.0000    0.0000    0.0000    0.0000    0.0000    0.0000    0.0000    0.0000    0.0003  112.6819 
3602.0000   73.7320  182.0980  320.5500  -29.6550    0.0048    1.0000    0.0048    0.8560    0.1280    0.0000    0.0000    0.0000  100.0000    0.0000    0.0000    0.0000    0.0000    0.0000    0.0000    0.0000    0.0000    0.0000    0.0002  112.6872 
3602.5000   73.3700  182.8210  324.2140  -29.0796    0.0040    1.0000    0.0040    0.8638    0.1229    0.0000    0.0000    0.0000  100.0000    0.0000    0.0000    0.0000    0.0000    0.0000    0.0000    0.0000    0.0000    0.0000    0.0002  112.6924 
3603.0000   73.3700  183.5020  327.8720  -28.2763    0.0031    1.0000    0.0031    0.8746    0.1151    0.0000    0.0000    0.0000  100.0000    0.0000    0.0000    0.0000    0.0000    0.0000    0.0000    0.0000    0.0000    0.0000    0.0001  112.6976 
3603.5000   73.3700  184.2360  331.5220  -27.5598    0.0024    1.0000    0.0024    0.8843    0.1077    0.0000    0.0000    0.0000  100.0000    0.0000    0.0000    0.0000    0.0000    0.0000    0.0000    0.0000    0.0000    0.0000    0.0001  112.7029 
