~VERSION INFORMATION
 VERS.                 2.0:   CWLS LOG ASCII STANDARD - VERSION 2.0
 WRAP.                  NO:   SINGLE LINE PER DEPTH STEP
 CREA.                 03/05/2017 12:05:25
#CREATED USING IP VERSION 4.2.2015.61 BY PANESSOR ON 03/05/2017 12:05:25
~WELL INFORMATION
#MNEM.UNIT       DATA                          DESCRIPTION MNEMONIC
#---------      ---------------------------   --------------------------
 STRT    .FT        500.0000                  : START DEPTH
 STOP    .FT        4532.0000                 : STOP DEPTH
 STEP    .FT        0.5000                    : STEP VALUE
 NULL    .      -999.0000                     : NULL VALUE
 DATE    .      03/05/2017                    : LAS file Creation Date
 WELL  .      CRISOL-1            : Well Name
 COMP  .      INTERCOL            : Company
 FLD   .      WILDCAT             : Field
 STATE .      CESAR               : State
 COUNT .      COLOMBIA            : Country
 API   .      CRIL0001            : API Number
 UWI   .      CRIL0001            : Unique Well Identifier (UWI)
 LOC   .      GAUSS ORIGIN BOGOTA : Location
 LATI  .      1.0147222222        : Latitude/Northing
 LONG  .      1.0086111111        : Longitude/Easting
 RWS   .      -999                : Def_Rw
 WST   .      -999                : Def_Rwt
 PROV  .                          : Province
 SRVC  .      SCH                 : Contractor
~CURVE INFORMATION
#MNEM                 UNIT       API CODE     Description
#----------     --------------- ----------  --------------
 DEPTH         .FT                        : 
 RM_IR         .OHMM                      : Medium Resistivity
 SPC_IR        .MV                        : Spontaneous Potential
 RD_E_IR       .OHMM                      : Formation Deep Resitivity
 PHIE_IR       .Dec                       : Effective Porosity
 SW_IR         .Dec                       : Effective Water Saturation
 BVW_IR        .Dec                       : Bulk Volume water (Phie x SW)
 VWCL_IR       .Dec                       : Volume wet Clay
 VSILT_IR      .Dec                       : Volume Silt
 Perfs_IR      .B/E                       : Photoelectric Factor
 Perm_IR       .md                        : Calculated Permeability
 CGL_IR        .%                         : Mudlog CONGLOMERATE
 SS_IR         .%                         : Mudlog SANDSTONE
 SLS_IR        .%                         : Mudlog SILSTONE
 CLST_IR       .%                         : Mudlog CLAYSTONE
 SH_IR         .%                         : Mudlog Shale
 MARL_IR       .%                         : Mudlog MARLSTONE
 LS_IR         .%                         : Mudlog LIMESTONE
 ResFlag_IR    .                          : Net Reservoir
 PayFlag_IR    .                          : Net Pay
 K_PHI_IR      .                          : K/PHI RATIO
 PayFlagRT_IR  .                          : Pay Flag Rock Type
 ResFlagRT_IR  .                          : Net Reservoir Rock Type
 Rock_Type_IR  .microns                   : Pore Throat Size - Rock Types
 Temp_IR       .F                         : Formation Temperature
 MUD_WEIGHT_IR .PPG                       : MUD_WEIGHT
~P Interactive Petrophysics parameters
#Name        Value                 Description
#----- --------------------------  -----------
#Logging Run 
 RUN  .     1                    : Run Number
 DATE .     24-OCT-1953          : Date                      | RUN[0]
 BLI  .     2565                 : Btm Log Interval          | RUN[1]
 TLI  .     517                  : Top Log Interval          | RUN[1]
 BS   .     8.625                : Bit Size                  | RUN[1]
 DFT  .     /                    : Type of Fluid in Hole     | RUN[1]
 RM   .     5.9                  : Rm                        | RUN[1]
 MST  .     84                   : at Meas Temp              | RUN[1]
 R1   .     SPS LTDA.            : Remark 1                  | RUN[1]
 R2   .     PLUG BACK 3808 FT.   : Remark 2                  | RUN[1]
 R3   .     ABANDONED GAS WELL.  : Remark 3                  | RUN[1]
#Logging Run 
 RUN  .     2                    : Run Number
 DATE .     14-NOV-1953          : Date                      | RUN[1]
 BLI  .     4053                 : Btm Log Interval          | RUN[2]
 TLI  .     3000                 : Top Log Interval          | RUN[2]
 BS   .     9.625                : Bit Size                  | RUN[2]
 RM   .     3.8                  : Rm                        | RUN[2]
 MST  .     87                   : at Meas Temp              | RUN[2]
 R1   .     SPS LTDA.            : Remark 1                  | RUN[2]
 R2   .     PLUG BACK 3808 FT.   : Remark 2                  | RUN[2]
 R3   .     ABANDONED GAS WELL.  : Remark 3                  | RUN[2]
~A  DEPTH   RM_IR     SPC_IR   RD_E_IR   PHIE_IR    SW_IR     BVW_IR   VWCL_IR   VSILT_IR  Perfs_IR  Perm_IR    CGL_IR    SS_IR     SLS_IR   CLST_IR    SH_IR    MARL_IR    LS_IR   ResFlag_~ PayFlag_~  K_PHI_IR PayFlagR~ ResFlagR~ Rock_Typ~  Temp_IR  MUD_WEIG~ 
# ...
3119.5000    4.4050  -15.2863    4.4050    0.0052    1.0000    0.0052    0.8522    0.1303 -999.0000    0.0000    0.0000    0.0000   18.0000    0.0000   82.0000    0.0000    0.0000    0.0000    0.0000    0.0000    0.0000    0.0000    0.0008  108.4780   10.1000 
3120.0000    4.3790  -15.4532    4.3790    0.0060    1.0000    0.0060    0.8464    0.1337 -999.0000    0.0000    0.0000    0.0000   18.0000    0.0000   82.0000    0.0000    0.0000    0.0000    0.0000    0.0000    0.0000    0.0000    0.0010  108.4826   10.1000 
3120.5000    4.3515  -15.6020    4.3515    0.0067    1.0000    0.0067    0.8413    0.1364 -999.0000    0.0000    0.0000    0.0000   19.0000    0.0000   81.0000    0.0000    0.0000    0.0000    0.0000    0.0001    0.0000    0.0000    0.0013  108.4872   10.1000 
3121.0000    4.3240  -15.7509    4.3240    0.0075    1.0000    0.0075    0.8362    0.1389 -999.0000    0.0000    0.0000    0.0000   20.0000    0.0000   80.0000    0.0000    0.0000    0.0000    0.0000    0.0001    0.0000    0.0000    0.0016  108.4917   10.1000 
3121.5000    4.3575  -15.8173    4.3575    0.0079    1.0000    0.0079    0.8339    0.1399 -999.0000    0.0000    0.0000    0.0000   20.0000    0.0000   80.0000    0.0000    0.0000    0.0000    0.0000    0.0001    0.0000    0.0000    0.0017  108.4963   10.1000 
3122.0000    4.3910  -15.8836    4.3910    0.0083    1.0000    0.0083    0.8316    0.1409 -999.0000    0.0000    0.0000    0.0000   20.0000    0.0000   80.0000    0.0000    0.0000    0.0000    0.0000    0.0001    0.0000    0.0000    0.0019  108.5009   10.1000 
3122.5000    4.3945  -15.7325    4.3945    0.0074    1.0000    0.0074    0.8368    0.1386 -999.0000    0.0000    0.0000    0.0000   20.0000    0.0000   80.0000    0.0000    0.0000    0.0000    0.0000    0.0001    0.0000    0.0000    0.0015  108.5054   10.1000 
3123.0000    4.3980  -15.5814    4.3980    0.0066    1.0000    0.0066    0.8420    0.1360 -999.0000    0.0000    0.0000    0.0000   20.0000    0.0000   80.0000    0.0000    0.0000    0.0000    0.0000    0.0001    0.0000    0.0000    0.0012  108.5100   10.1000 
3123.5000    4.4130  -15.0832    4.4130    0.0045    1.0000    0.0045    0.8592    0.1259 -999.0000    0.0000    0.0000    0.0000   20.0000    0.0000   80.0000    0.0000    0.0000    0.0000    0.0000    0.0000    0.0000    0.0000    0.0006  108.5146   10.1000 
3124.0000    4.4280  -14.5851    4.4280    0.0029    1.0000    0.0029    0.8764    0.1138 -999.0000    0.0000    0.0000    0.0000   20.0000    0.0000   80.0000    0.0000    0.0000    0.0000    0.0000    0.0000    0.0000    0.0000    0.0002  108.5191   10.1000 
3124.5000    4.5085  -14.2614    4.5085    0.0022    1.0000    0.0022    0.8875    0.1051 -999.0000    0.0000    0.0000    0.0000   20.0000    0.0000   80.0000    0.0000    0.0000    0.0000    0.0000    0.0000    0.0000    0.0000    0.0001  108.5237   10.1000 
3125.0000    4.5890  -13.9378    4.5890    0.0016    1.0000    0.0016    0.8987    0.0959 -999.0000    0.0000    0.0000    0.0000   20.0000    0.0000   80.0000    0.0000    0.0000    0.0000    0.0000    0.0000    0.0000    0.0000    0.0001  108.5283   10.1000 
3125.5000    4.5625  -14.0282    4.5625    0.0018    1.0000    0.0018    0.8956    0.0985 -999.0000    0.0000    0.0000    0.0000   20.0000    0.0000   80.0000    0.0000    0.0000    0.0000    0.0000    0.0000    0.0000    0.0000    0.0001  108.5328   10.1000 
3126.0000    4.5360  -14.1185    4.5360    0.0019    1.0000    0.0019    0.8925    0.1011 -999.0000    0.0000    0.0000    0.0000   20.0000    0.0000   80.0000    0.0000    0.0000    0.0000    0.0000    0.0000    0.0000    0.0000    0.0001  108.5374   10.1000 
3126.5000    4.4755  -13.8224    4.4755    0.0015    1.0000    0.0015    0.9027    0.0925 -999.0000    0.0000    0.0000    0.0000   20.0000    0.0000   80.0000    0.0000    0.0000    0.0000    0.0000    0.0000    0.0000    0.0000    0.0001  108.5419   10.1000 
3127.0000    4.4150  -13.5263    4.4150    0.0011    1.0000    0.0011    0.9129    0.0835 -999.0000    0.0000    0.0000    0.0000   20.0000    0.0000   80.0000    0.0000    0.0000    0.0000    0.0000    0.0000    0.0000    0.0000    0.0000  108.5465   10.1000 
3127.5000    4.3540  -13.5456    4.3540    0.0011    1.0000    0.0011    0.9122    0.0841 -999.0000    0.0000    0.0000    0.0000   20.0000    0.0000   80.0000    0.0000    0.0000    0.0000    0.0000    0.0000    0.0000    0.0000    0.0000  108.5511   10.1000 
3128.0000    4.2930  -13.5650    4.2930    0.0011    1.0000    0.0011    0.9116    0.0847 -999.0000    0.0000    0.0000    0.0000   20.0000    0.0000   80.0000    0.0000    0.0000    0.0000    0.0000    0.0000    0.0000    0.0000    0.0000  108.5556   10.1000 
3128.5000    4.2725  -13.5574    4.2725    0.0011    1.0000    0.0011    0.9118    0.0845 -999.0000    0.0000    0.0000    0.0000   20.0000    0.0000   80.0000    0.0000    0.0000    0.0000    0.0000    0.0000    0.0000    0.0000    0.0000  108.5602   10.1000 
3129.0000    4.2520  -13.5497    4.2520    0.0011    1.0000    0.0011    0.9121    0.0842 -999.0000    0.0000    0.0000    0.0000   20.0000    0.0000   80.0000    0.0000    0.0000    0.0000    0.0000    0.0000    0.0000    0.0000    0.0000  108.5648   10.1000 
3129.5000    4.3220  -13.2916    4.3220    0.0008    1.0000    0.0008    0.9210    0.0762 -999.0000    0.0000    0.0000    0.0000   20.0000    0.0000   80.0000    0.0000    0.0000    0.0000    0.0000    0.0000    0.0000    0.0000    0.0000  108.5693   10.1000 
3130.0000    4.3920  -13.0335    4.3920    0.0006    1.0000    0.0006    0.9299    0.0680 -999.0000    0.0000    0.0000    0.0000   20.0000    0.0000   80.0000    0.0000    0.0000    0.0000    0.0000    0.0000    0.0000    0.0000    0.0000  108.5739   10.1000 
3130.5000    4.3855  -12.6648    4.3855    0.0004    1.0000    0.0004    0.9426    0.0560 -999.0000    0.0000    0.0000    0.0000   20.0000    0.0000   80.0000    0.0000    0.0000    0.0000    0.0000    0.0000    0.0000    0.0000    0.0000  108.5785   10.1000 
3131.0000    4.3790  -12.2962    4.3790    0.0002    1.0000    0.0002    0.9553    0.0439 -999.0000    0.0000    0.0000    0.0000   20.0000    0.0000   80.0000    0.0000    0.0000    0.0000    0.0000    0.0000    0.0000    0.0000    0.0000  108.5830   10.1000 
3131.5000    4.3385  -11.9461    4.3385    0.0001    1.0000    0.0001    0.9674    0.0322 -999.0000    0.0000    0.0000    0.0000   20.0000    0.0000   80.0000    0.0000    0.0000    0.0000    0.0000    0.0000    0.0000    0.0000    0.0000  108.5876   10.1000 
3132.0000    4.2980  -11.5959    4.2980    0.0001    1.0000    0.0001    0.9795    0.0202 -999.0000    0.0000    0.0000    0.0000   20.0000    0.0000   80.0000    0.0000    0.0000    0.0000    0.0000    0.0000    0.0000    0.0000    0.0000  108.5922   10.1000 
3132.5000    4.2580  -11.4283    4.2580    0.0001    1.0000    0.0001    0.9852    0.0144 -999.0000    0.0000    0.0000    0.0000   20.0000    0.0000   80.0000    0.0000    0.0000    0.0000    0.0000    0.0000    0.0000    0.0000    0.0000  108.5967   10.1000 
3133.0000    4.2180  -11.2607    4.2180    0.0001    1.0000    0.0001    0.9910    0.0087 -999.0000    0.0000    0.0000    0.0000   20.0000    0.0000   80.0000    0.0000    0.0000    0.0000    0.0000    0.0000    0.0000    0.0000    0.0000  108.6013   10.1000 
3133.5000    4.1740  -11.3505    4.1740    0.0001    1.0000    0.0001    0.9879    0.0118 -999.0000    0.0000    0.0000    0.0000   20.0000    0.0000   80.0000    0.0000    0.0000    0.0000    0.0000    0.0000    0.0000    0.0000    0.0000  108.6059   10.1000 
3134.0000    4.1300  -11.4404    4.1300    0.0001    1.0000    0.0001    0.9848    0.0149 -999.0000    0.0000    0.0000    0.0000   20.0000    0.0000   80.0000    0.0000    0.0000    0.0000    0.0000    0.0000    0.0000    0.0000    0.0000  108.6104   10.1000 
3134.5000    4.1300  -11.1302    4.1300    0.0001    1.0000    0.0001    0.9955    0.0042 -999.0000    0.0000    0.0000    0.0000   20.0000    0.0000   80.0000    0.0000    0.0000    0.0000    0.0000    0.0000    0.0000    0.0000    0.0000  108.6150   10.1000 
