~VERSION INFORMATION
 VERS.                 2.0:   CWLS LOG ASCII STANDARD - VERSION 2.0
 WRAP.                  NO:   SINGLE LINE PER DEPTH STEP
 CREA.                 03/05/2017 10:34:44
#CREATED USING IP VERSION 4.2.2015.61 BY PANESSOR ON 03/05/2017 10:34:44
~WELL INFORMATION
#MNEM.UNIT       DATA                          DESCRIPTION MNEMONIC
#---------      ---------------------------   --------------------------
 STRT    .FT        500.0000                  : START DEPTH
 STOP    .FT        5680.0000                 : STOP DEPTH
 STEP    .FT        0.5000                    : STEP VALUE
 NULL    .      -999.0000                     : NULL VALUE
 DATE    .      03/05/2017                    : LAS file Creation Date
 WELL  .      CRISOL-3            : Well Name
 COMP  .      INTERCOL            : Company
 FLD   .      WILDCAT             : Field
 STATE .      MAGDALENA           : State
 COUNT .      COLOMBIA            : Country
 API   .      CRIL0003            : API Number
 UWI   .      100000000377        : Unique Well Identifier (UWI)
 LOC   .      GAUSS ORIGIN BOGOTA : Location
 LATI  .      1                   : Latitude/Northing
 LONG  .      1                   : Longitude/Easting
 RWS   .      -999                : Def_Rw
 WST   .      -999                : Def_Rwt
 CNTY  .      N/A                 : County
 PROV  .                          : Province
 SRVC  .      SCH                 : Contractor
~CURVE INFORMATION
#MNEM                UNIT       API CODE     Description
#----------    --------------- ----------  --------------
 DEPTH        .FT                        : 
 RM_IR        .OHMM                      : Medium Resistivity
 RD_IR        .OHMM                      : Formation Deep Resitivity
 LAT_E_IR     .OHMM                      : Lateral AO18'8"
 SPC_IR       .MV                        : Spontaneous Potential
 PHIE_IR      .Dec                       : Effective Porosity
 SW_IR        .Dec                       : Effective Water Saturation
 BVW_IR       .Dec                       : Bulk Volume water (Phie x SW)
 VWCL_IR      .Dec                       : Volume wet Clay
 VSILT_IR     .Dec                       : Volume Silt
 SLST_IR      .%                         : Mudlog SILSTONE
 SS_IR        .%                         : Mudlog SANDSTONE
 CONG_IR      .%                         : Mudlog CONGLOMERATE
 MARL_IR      .%                         : Mudlog MARLSTONE
 ResFlag_IR   .                          : Net Reservoir
 IGNEOUS_IR   .us/ft                     : Mudlog IGNEOUS
 LS_IR        .us/ft                     : Mudlog LIMESTONE
 SH_IR        .%                         : Mudlog SHALE
 PayFlag_IR   .                          : Net Pay
 Perm_IR      .md                        : Calculated Permeability
 PayFlagRT_IR .                          : Pay Flag Rock Type
 ResFlagRT_IR .                          : Net Reservoir Rock Type
 K_PHI_IR     .                          : K/PHI RATIO
 Rock_Type_IR .microns                   : Pore Throat Size - Rock Types
 Temp_IR      .F                         : Formation Temperature
~P Interactive Petrophysics parameters
#Name        Value                 Description
#----- --------------------------  -----------
#Logging Run 
 RUN  .     1           : Run Number
 DATE .     23/04/1954  : Date                      | RUN[0]
 DFT  .     /           : Type of Fluid in Hole     | RUN[1]
~A  DEPTH   RM_IR     RD_IR    LAT_E_IR   SPC_IR   PHIE_IR    SW_IR     BVW_IR   VWCL_IR   VSILT_IR  SLST_IR    SS_IR    CONG_IR   MARL_IR  ResFlag_~ IGNEOUS_~   LS_IR     SH_IR   PayFlag_~  Perm_IR  PayFlagR~ ResFlagR~  K_PHI_IR Rock_Typ~  Temp_IR  
# ...
5636.0000  102.8500  151.3560  290.8800  -55.7159    0.0577    0.9459    0.0545    0.4669    0.3409    0.0000    0.0000    0.0000    0.0000    0.0000  100.0000    0.0000    0.0000    0.0000    0.0119    0.0000    0.0000    0.2067    0.0878  133.9686 
5636.5000  107.7780  154.6110  273.6670  -55.7032    0.0576    0.9366    0.0540    0.4671    0.3409    0.0000    0.0000    0.0000    0.0000    0.0000  100.0000    0.0000    0.0000    0.0000    0.0120    0.0000    0.0000    0.2081    0.0881  133.9738 
5637.0000  112.5000  157.1430  256.4640  -55.7906    0.0578    0.9264    0.0535    0.4658    0.3416    0.0000    0.0000    0.0000    0.0000    0.0000  100.0000    0.0000    0.0000    0.0000    0.0123    0.0000    0.0000    0.2126    0.0892  133.9791 
5637.5000  116.8480  157.5050  241.0670  -55.7953    0.0578    0.9252    0.0535    0.4657    0.3417    0.0000    0.0000    0.0000    0.0000    0.0000  100.0000    0.0000    0.0000    0.0000    0.0123    0.0000    0.0000    0.2130    0.0893  133.9843 
5638.0000  118.6230  157.8660  233.9150  -55.9037    0.0580    0.9207    0.0534    0.4641    0.3426    0.0000    0.0000    0.0000    0.0000    0.0000  100.0000    0.0000    0.0000    0.0000    0.0126    0.0000    0.0000    0.2171    0.0902  133.9895 
5638.5000  119.4930  158.5900  226.7200  -55.9969    0.0582    0.9156    0.0533    0.4627    0.3433    0.0000    0.0000    0.0000    0.0000    0.0000  100.0000    0.0000    0.0000    0.0000    0.0129    0.0000    0.0000    0.2210    0.0911  133.9948 
5639.0000 -999.0000  158.5900  222.4510  -56.0569    0.0583    0.9137    0.0533    0.4618    0.3438    0.0000    0.0000    0.0000    0.0000    0.0000  100.0000    0.0000    0.0000    0.0000    0.0130    0.0000    0.0000    0.2233    0.0916  134.0000 
5639.5000 -999.0000  158.2280  223.0840  -56.1606    0.0585    0.9113    0.0533    0.4603    0.3447    0.0000    0.0000    0.0000    0.0000    0.0000  100.0000    0.0000    0.0000    0.0000    0.0133    0.0000    0.0000    0.2270    0.0924  134.0052 
5640.0000 -999.0000  157.8660  222.5070  -56.1880    0.0586    0.9114    0.0534    0.4599    0.3449    0.0000    0.0000    0.0000    0.0000    0.0000  100.0000    0.0000    0.0000    0.0000    0.0133    0.0000    0.0000    0.2278    0.0925  134.0105 
5640.5000 -999.0000  157.5050  222.5650  -56.1685    0.0585    0.9131    0.0534    0.4602    0.3447 -999.0000 -999.0000 -999.0000 -999.0000    0.0000  100.0000    0.0000 -999.0000    0.0000    0.0133    0.0000    0.0000    0.2269    0.0923  134.0157 
5641.0000 -999.0000  157.1430  222.6100  -56.2595    0.0587    0.9112    0.0535    0.4588    0.3454 -999.0000 -999.0000 -999.0000 -999.0000    0.0000  100.0000    0.0000 -999.0000    0.0000    0.0135    0.0000    0.0000    0.2301    0.0930  134.0209 
5641.5000 -999.0000  157.0780  226.6080  -56.2659    0.0587    0.9111    0.0535    0.4587    0.3455 -999.0000 -999.0000 -999.0000 -999.0000    0.0000  100.0000    0.0000 -999.0000    0.0000    0.0135    0.0000    0.0000    0.2303    0.0931  134.0262 
5642.0000 -999.0000 -999.0000  226.2880  -56.3490 -999.0000 -999.0000 -999.0000 -999.0000 -999.0000 -999.0000 -999.0000 -999.0000 -999.0000    0.0000  100.0000    0.0000 -999.0000    0.0000 -999.0000    0.0000    0.0000 -999.0000 -999.0000  134.0314 
5642.5000 -999.0000 -999.0000  226.3130  -56.3716 -999.0000 -999.0000 -999.0000 -999.0000 -999.0000 -999.0000 -999.0000 -999.0000 -999.0000    0.0000  100.0000    0.0000 -999.0000    0.0000 -999.0000    0.0000    0.0000 -999.0000 -999.0000  134.0366 
5643.0000 -999.0000 -999.0000  226.7110  -56.3627 -999.0000 -999.0000 -999.0000 -999.0000 -999.0000 -999.0000 -999.0000 -999.0000 -999.0000    0.0000  100.0000    0.0000 -999.0000    0.0000 -999.0000    0.0000    0.0000 -999.0000 -999.0000  134.0419 
5643.5000 -999.0000 -999.0000  224.1530  -56.4411 -999.0000 -999.0000 -999.0000 -999.0000 -999.0000 -999.0000 -999.0000 -999.0000 -999.0000    0.0000  100.0000    0.0000 -999.0000    0.0000 -999.0000    0.0000    0.0000 -999.0000 -999.0000  134.0471 
5644.0000 -999.0000 -999.0000  222.6950  -56.4653 -999.0000 -999.0000 -999.0000 -999.0000 -999.0000 -999.0000 -999.0000 -999.0000 -999.0000    0.0000  100.0000    0.0000 -999.0000    0.0000 -999.0000    0.0000    0.0000 -999.0000 -999.0000  134.0523 
5644.5000 -999.0000 -999.0000  222.8570  -56.4711 -999.0000 -999.0000 -999.0000 -999.0000 -999.0000 -999.0000 -999.0000 -999.0000 -999.0000    0.0000  100.0000    0.0000 -999.0000    0.0000 -999.0000    0.0000    0.0000 -999.0000 -999.0000  134.0575 
5645.0000 -999.0000 -999.0000  222.6690  -56.6043 -999.0000 -999.0000 -999.0000 -999.0000 -999.0000 -999.0000 -999.0000 -999.0000 -999.0000    0.0000  100.0000    0.0000 -999.0000    0.0000 -999.0000    0.0000    0.0000 -999.0000 -999.0000  134.0628 
5645.5000 -999.0000 -999.0000  222.8230  -56.8706 -999.0000 -999.0000 -999.0000 -999.0000 -999.0000 -999.0000 -999.0000 -999.0000 -999.0000    0.0000  100.0000    0.0000 -999.0000    0.0000 -999.0000    0.0000    0.0000 -999.0000 -999.0000  134.0680 
5646.0000 -999.0000 -999.0000  222.3950  -57.7806 -999.0000 -999.0000 -999.0000 -999.0000 -999.0000 -999.0000 -999.0000 -999.0000 -999.0000    0.0000  100.0000    0.0000 -999.0000    0.0000 -999.0000    0.0000    0.0000 -999.0000 -999.0000  134.0732 
5646.5000 -999.0000 -999.0000 -999.0000  -58.6374 -999.0000 -999.0000 -999.0000 -999.0000 -999.0000 -999.0000 -999.0000 -999.0000 -999.0000    0.0000  100.0000    0.0000 -999.0000    0.0000 -999.0000    0.0000    0.0000 -999.0000 -999.0000  134.0785 
5647.0000 -999.0000 -999.0000 -999.0000  -59.4537 -999.0000 -999.0000 -999.0000 -999.0000 -999.0000 -999.0000 -999.0000 -999.0000 -999.0000    0.0000  100.0000    0.0000 -999.0000    0.0000 -999.0000    0.0000    0.0000 -999.0000 -999.0000  134.0837 
5647.5000 -999.0000 -999.0000 -999.0000  -60.2453 -999.0000 -999.0000 -999.0000 -999.0000 -999.0000 -999.0000 -999.0000 -999.0000 -999.0000    0.0000  100.0000    0.0000 -999.0000    0.0000 -999.0000    0.0000    0.0000 -999.0000 -999.0000  134.0889 
5648.0000 -999.0000 -999.0000 -999.0000 -999.0000 -999.0000 -999.0000 -999.0000 -999.0000 -999.0000 -999.0000 -999.0000 -999.0000 -999.0000    0.0000  100.0000    0.0000 -999.0000    0.0000 -999.0000    0.0000    0.0000 -999.0000 -999.0000  134.0942 
5648.5000 -999.0000 -999.0000 -999.0000 -999.0000 -999.0000 -999.0000 -999.0000 -999.0000 -999.0000 -999.0000 -999.0000 -999.0000 -999.0000    0.0000  100.0000    0.0000 -999.0000    0.0000 -999.0000    0.0000    0.0000 -999.0000 -999.0000  134.0994 
5649.0000 -999.0000 -999.0000 -999.0000 -999.0000 -999.0000 -999.0000 -999.0000 -999.0000 -999.0000 -999.0000 -999.0000 -999.0000 -999.0000    0.0000  100.0000    0.0000 -999.0000    0.0000 -999.0000    0.0000    0.0000 -999.0000 -999.0000  134.1046 
5649.5000 -999.0000 -999.0000 -999.0000 -999.0000 -999.0000 -999.0000 -999.0000 -999.0000 -999.0000 -999.0000 -999.0000 -999.0000 -999.0000    0.0000  100.0000    0.0000 -999.0000    0.0000 -999.0000    0.0000    0.0000 -999.0000 -999.0000  134.1099 
5650.0000 -999.0000 -999.0000 -999.0000 -999.0000 -999.0000 -999.0000 -999.0000 -999.0000 -999.0000 -999.0000 -999.0000 -999.0000 -999.0000    0.0000  100.0000    0.0000 -999.0000    0.0000 -999.0000    0.0000    0.0000 -999.0000 -999.0000  134.1151 
5650.5000 -999.0000 -999.0000 -999.0000 -999.0000 -999.0000 -999.0000 -999.0000 -999.0000 -999.0000 -999.0000 -999.0000 -999.0000 -999.0000    0.0000  100.0000    0.0000 -999.0000    0.0000 -999.0000    0.0000    0.0000 -999.0000 -999.0000  134.1203 
5651.0000 -999.0000 -999.0000 -999.0000 -999.0000 -999.0000 -999.0000 -999.0000 -999.0000 -999.0000 -999.0000 -999.0000 -999.0000 -999.0000    0.0000  100.0000    0.0000 -999.0000    0.0000 -999.0000    0.0000    0.0000 -999.0000 -999.0000  134.1255 
5651.5000 -999.0000 -999.0000 -999.0000 -999.0000 -999.0000 -999.0000 -999.0000 -999.0000 -999.0000 -999.0000 -999.0000 -999.0000 -999.0000    0.0000  100.0000    0.0000 -999.0000    0.0000 -999.0000    0.0000    0.0000 -999.0000 -999.0000  134.1308 
