~VERSION INFORMATION
 VERS.                 2.0:   CWLS LOG ASCII STANDARD - VERSION 2.0
 WRAP.                  NO:   SINGLE LINE PER DEPTH STEP
 CREA.                 03/05/2017 10:34:44
#CREATED USING IP VERSION 4.2.2015.61 BY PANESSOR ON 03/05/2017 10:34:44
~WELL INFORMATION
#MNEM.UNIT       DATA                          DESCRIPTION MNEMONIC
#---------      ---------------------------   --------------------------
 STRT    .FT        500.0000                  : START DEPTH
 STOP    .FT        5680.0000                 : STOP DEPTH
 STEP    .FT        0.5000                    : STEP VALUE
 NULL    .      -999.0000                     : NULL VALUE
 DATE    .      03/05/2017                    : LAS file Creation Date
 WELL  .      CRISOL-3            : Well Name
 COMP  .      INTERCOL            : Company
 FLD   .      WILDCAT             : Field
 STATE .      MAGDALENA           : State
 COUNT .      COLOMBIA            : Country
 API   .      CRIL0003            : API Number
 UWI   .      100000000377        : Unique Well Identifier (UWI)
 LOC   .      GAUSS ORIGIN BOGOTA : Location
 LATI  .      1                   : Latitude/Northing
 LONG  .      1                   : Longitude/Easting
 RWS   .      -999                : Def_Rw
 WST   .      -999                : Def_Rwt
 CNTY  .      N/A                 : County
 PROV  .                          : Province
 SRVC  .      SCH                 : Contractor
~CURVE INFORMATION
#MNEM                UNIT       API CODE     Description
#----------    --------------- ----------  --------------
 DEPTH        .FT                        : 
 RM_IR        .OHMM                      : Medium Resistivity
 RD_IR        .OHMM                      : Formation Deep Resitivity
 LAT_E_IR     .OHMM                      : Lateral AO18'8"
 SPC_IR       .MV                        : Spontaneous Potential
 PHIE_IR      .Dec                       : Effective Porosity
 SW_IR        .Dec                       : Effective Water Saturation
 BVW_IR       .Dec                       : Bulk Volume water (Phie x SW)
 VWCL_IR      .Dec                       : Volume wet Clay
 VSILT_IR     .Dec                       : Volume Silt
 SLST_IR      .%                         : Mudlog SILSTONE
 SS_IR        .%                         : Mudlog SANDSTONE
 CONG_IR      .%                         : Mudlog CONGLOMERATE
 MARL_IR      .%                         : Mudlog MARLSTONE
 ResFlag_IR   .                          : Net Reservoir
 IGNEOUS_IR   .us/ft                     : Mudlog IGNEOUS
 LS_IR        .us/ft                     : Mudlog LIMESTONE
 SH_IR        .%                         : Mudlog SHALE
 PayFlag_IR   .                          : Net Pay
 Perm_IR      .md                        : Calculated Permeability
 PayFlagRT_IR .                          : Pay Flag Rock Type
 ResFlagRT_IR .                          : Net Reservoir Rock Type
 K_PHI_IR     .                          : K/PHI RATIO
 Rock_Type_IR .microns                   : Pore Throat Size - Rock Types
 Temp_IR      .F                         : Formation Temperature
~P Interactive Petrophysics parameters
#Name        Value                 Description
#----- --------------------------  -----------
#Logging Run 
 RUN  .     1           : Run Number
 DATE .     23/04/1954  : Date                      | RUN[0]
 DFT  .     /           : Type of Fluid in Hole     | RUN[1]
~A  DEPTH   RM_IR     RD_IR    LAT_E_IR   SPC_IR   PHIE_IR    SW_IR     BVW_IR   VWCL_IR   VSILT_IR  SLST_IR    SS_IR    CONG_IR   MARL_IR  ResFlag_~ IGNEOUS_~   LS_IR     SH_IR   PayFlag_~  Perm_IR  PayFlagR~ ResFlagR~  K_PHI_IR Rock_Typ~  Temp_IR  
# ...
2900.0000    2.6850    1.9740    3.2350  -21.6130 -999.0000 -999.0000 -999.0000 -999.0000 -999.0000    0.0000   15.5216    0.0000    0.0000    0.0000    0.0000    0.0000   84.4784    0.0000    0.0000    0.0000    0.0000 -999.0000 -999.0000  105.3423 
2900.5000    2.7830    1.9710    3.3110  -22.3302    0.0031    1.0000    0.0031    0.8738    0.1158    0.0000   15.5216    0.0000    0.0000    0.0000    0.0000    0.0000   84.4784    0.0000    0.0000    0.0000    0.0000    0.0000    0.0001  105.3475 
2901.0000    2.8960    1.9690    3.3480  -22.9422    0.0039    1.0000    0.0039    0.8645    0.1224    0.0000   15.5216    0.0000    0.0000    0.0000    0.0000    0.0000   84.4784    0.0000    0.0000    0.0000    0.0000    0.0000    0.0002  105.3527 
2901.5000    3.0550    1.9360    3.3950  -25.9741    0.0108    1.0000    0.0108    0.8186    0.1454    0.0000   15.5216    0.0000    0.0000    0.0000    0.0000    0.0000   84.4784    0.0000    0.0000    0.0000    0.0000    0.0003    0.0015  105.3580 
2902.0000    3.2430    1.9340    3.4940  -28.7787    0.0241    1.0000    0.0241    0.7761    0.1435    0.0000   15.5216    0.0000    0.0000    0.0000    0.0000    0.0000   84.4784    0.0000    0.0002    0.0000    0.0000    0.0071    0.0085  105.3632 
2902.5000    3.3950    1.8990    3.6000  -30.3707    0.0361    1.0000    0.0361    0.7520    0.1278    0.0000   15.5216    0.0000    0.0000    0.0000    0.0000    0.0000   84.4784    0.0000    0.0012    0.0000    0.0000    0.0329    0.0204  105.3684 
2903.0000    3.6700    1.8640    3.7460  -31.4521    0.0464    1.0000    0.0464    0.7356    0.1097    0.0000   15.5216    0.0000    0.0000    0.0000    0.0000    0.0000   84.4784    0.0000    0.0040    0.0000    0.0000    0.0858    0.0355  105.3736 
2903.5000    3.7860    1.8240    3.8550  -33.0804    0.0657    1.0000    0.0657    0.7109    0.0700    0.0000   15.5216    0.0000    0.0000    0.0000    0.0000    0.0000   84.4784    0.0000    0.0212    0.0000    0.0000    0.3219    0.0761  105.3789 
2904.0000    3.7590    1.7880    3.8560  -34.6771    0.0712    1.0000    0.0712    0.6867    0.0760    0.0000   15.5216    0.0000    0.0000    0.0000    0.0000    0.0000   84.4784    0.0000    0.0310    0.0000    0.0000    0.4360    0.0906  105.3841 
2904.5000    3.6050    1.7210    3.8240  -35.5590    0.0738    1.0000    0.0738    0.6733    0.0806    0.0000   15.5216    0.0000    0.0000    0.0000    0.0000    0.0000   84.4784    0.0000    0.0369    0.0000    0.0000    0.5002    0.0981  105.3893 
2905.0000    3.4600    1.6830    3.7880  -35.7852    0.0745    1.0000    0.0745    0.6699    0.0818    0.0000   15.5216    0.0000    0.0000    0.0000    0.0000    0.0000   84.4784    0.0000    0.0386    0.0000    0.0000    0.5178    0.1000  105.3946 
2905.5000    3.1700    1.6430    3.8330  -35.9587    0.0750    1.0000    0.0750    0.6673    0.0827    0.0000   15.5216    0.0000    0.0000    0.0000    0.0000    0.0000   84.4784    0.0000    0.0399    0.0000    0.0000    0.5315    0.1015  105.3998 
2906.0000    2.9820    1.5710    3.9350  -35.1439    0.0726    1.0000    0.0726    0.6796    0.0784    0.0000   15.5216    0.0000    0.0000    0.0000    0.0000    0.0000   84.4784    0.0000    0.0341    0.0000    0.0000    0.4692    0.0945  105.4050 
2906.5000    2.7140    1.5380    4.1200  -33.8979    0.0689    1.0000    0.0689    0.6985    0.0719    0.0000   15.5216    0.0000    0.0000    0.0000    0.0000    0.0000   84.4784    0.0000    0.0265    0.0000    0.0000    0.3845    0.0843  105.4103 
2907.0000    2.4820    1.4370    4.2680  -32.4604    0.0579    1.0000    0.0579    0.7203    0.0869    0.0000   15.5216    0.0000    0.0000    0.0000    0.0000    0.0000   84.4784    0.0000    0.0115    0.0000    0.0000    0.1980    0.0575  105.4155 
2907.5000    2.3440    1.3590    4.6720  -29.1197    0.0264    1.0000    0.0264    0.7709    0.1412    0.0000   15.5216    0.0000    0.0000    0.0000    0.0000    0.0000   84.4784    0.0000    0.0003    0.0000    0.0000    0.0100    0.0103  105.4207 
2908.0000    2.3220    1.3600    4.7960  -25.2859    0.0087    1.0000    0.0087    0.8290    0.1419    0.0000   15.5216    0.0000    0.0000    0.0000    0.0000    0.0000   84.4784    0.0000    0.0000    0.0000    0.0000    0.0001    0.0009  105.4260 
2908.5000    2.2500    1.3280    4.9130  -23.1268    0.0042    1.0000    0.0042    0.8617    0.1243    0.0000   15.5216    0.0000    0.0000    0.0000    0.0000    0.0000   84.4784    0.0000    0.0000    0.0000    0.0000    0.0000    0.0002  105.4312 
2909.0000    2.1050    1.3130    4.9040  -19.6603    0.0010    1.0000    0.0010    0.9142    0.0823    0.0000   15.5216    0.0000    0.0000    0.0000    0.0000    0.0000  100.0000    0.0000    0.0000    0.0000    0.0000    0.0000    0.0000  105.4364 
2909.5000    2.0250    1.2800    4.9110  -17.4479    0.0003    1.0000    0.0003    0.9478    0.0511    0.0000    7.7608    0.0000    0.0000    0.0000    0.0000    0.0000  100.0000    0.0000    0.0000    0.0000    0.0000    0.0000    0.0000  105.4417 
2910.0000    2.1216    1.2860    4.8685  -19.0104    0.0008    1.0000    0.0008    0.9241    0.0734    0.0000    0.0000    0.0000    0.0000    0.0000    0.0000    0.0000  100.0000    0.0000    0.0000    0.0000    0.0000    0.0000    0.0000  105.4469 
2910.5000    2.1229    1.2830    4.8685  -19.4010    0.0009    1.0000    0.0009    0.9182    0.0788    0.0000    0.0000    0.0000    0.0000    0.0000    0.0000    0.0000  100.0000    0.0000    0.0000    0.0000    0.0000    0.0000    0.0000  105.4521 
2911.0000    2.1243    1.2840    4.8685  -19.7917    0.0011    1.0000    0.0011    0.9122    0.0841    0.0000    0.0000    0.0000    0.0000    0.0000    0.0000    0.0000  100.0000    0.0000    0.0000    0.0000    0.0000    0.0000    0.0000  105.4574 
2911.5000    2.1256    1.2820    4.8685  -19.9219    0.0012    1.0000    0.0012    0.9103    0.0858    0.0000    0.0000    0.0000    0.0000    0.0000    0.0000    0.0000  100.0000    0.0000    0.0000    0.0000    0.0000    0.0000    0.0000  105.4626 
2912.0000    2.1269    1.2770    4.8685  -20.0521    0.0012    1.0000    0.0012    0.9083    0.0876    0.0000    0.0000    0.0000    0.0000    0.0000    0.0000    0.0000  100.0000    0.0000    0.0000    0.0000    0.0000    0.0000    0.0000  105.4678 
2912.5000    2.1282    1.2720    4.8685  -20.1823    0.0013    1.0000    0.0013    0.9063    0.0893    0.0000    0.0000    0.0000    0.0000    0.0000    0.0000    0.0000  100.0000    0.0000    0.0000    0.0000    0.0000    0.0000    0.0000  105.4730 
2913.0000    2.1295    1.2670    4.8685  -19.7917    0.0011    1.0000    0.0011    0.9122    0.0841    0.0000    0.0000    0.0000    0.0000    0.0000    0.0000    0.0000  100.0000    0.0000    0.0000    0.0000    0.0000    0.0000    0.0000  105.4783 
2913.5000    2.1308    1.2620    4.8685  -18.4896    0.0006    1.0000    0.0006    0.9320    0.0660    0.0000    0.0000    0.0000    0.0000    0.0000    0.0000    0.0000  100.0000    0.0000    0.0000    0.0000    0.0000    0.0000    0.0000  105.4835 
2914.0000    2.1321    1.2570    4.8685  -17.9688    0.0005    1.0000    0.0005    0.9399    0.0586    0.0000    0.0000    0.0000    0.0000    0.0000    0.0000    0.0000  100.0000    0.0000    0.0000    0.0000    0.0000    0.0000    0.0000  105.4887 
2914.5000    2.1334    1.2520    4.8685  -17.4479    0.0003    1.0000    0.0003    0.9478    0.0511    0.0000    0.0000    0.0000    0.0000    0.0000    0.0000    0.0000  100.0000    0.0000    0.0000    0.0000    0.0000    0.0000    0.0000  105.4940 
2915.0000    2.1348    1.2470    4.8685  -17.3177    0.0003    1.0000    0.0003    0.9497    0.0492    0.0000    0.0000    0.0000    0.0000    0.0000    0.0000    0.0000  100.0000    0.0000    0.0000    0.0000    0.0000    0.0000    0.0000  105.4992 
2915.5000    2.1361    1.2420    4.8685  -16.6667    0.0002    1.0000    0.0002    0.9596    0.0397    0.0000    0.0000    0.0000    0.0000    0.0000    0.0000    0.0000  100.0000    0.0000    0.0000    0.0000    0.0000    0.0000    0.0000  105.5044 
