~VERSION INFORMATION
 VERS.                 2.0:   CWLS LOG ASCII STANDARD - VERSION 2.0
 WRAP.                  NO:   SINGLE LINE PER DEPTH STEP
 CREA.                 16/2/2017 12:08:22 p. m.
#CREATED USING IP VERSION 4.2.2015.61 BY PANESSOR ON 16/2/2017 12:08:22 p. m.
~WELL INFORMATION
#MNEM.UNIT       DATA                          DESCRIPTION MNEMONIC
#---------      ---------------------------   --------------------------
 STRT    .FT        470.0000                  : START DEPTH
 STOP    .FT        5740.0000                 : STOP DEPTH
 STEP    .FT        0.5000                    : STEP VALUE
 NULL    .      -999.0000                     : NULL VALUE
 DATE    .      16/2/2017                     : LAS file Creation Date
 WELL  .      CRISOL-2      : Well Name
 COMP  .      INTERCOL      : Company
 FLD   .      141-AGUACHICA : Field
 STATE .      MAGDALENA     : State
 COUNT .      COLOMBIA      : Country
 API   .      CRIL0002      : API Number
 UWI   .      100000000372  : Unique Well Identifier (UWI)
 LOC   .                    : Location
 LATI  .      1.0038888889  : Latitude/Northing
 LONG  .      1.0080555556  : Longitude/Easting
 RWS   .      -999          : Def_Rw
 WST   .      -999          : Def_Rwt
 PROV  .                    : Province
 SRVC  .      SCH           : Contractor
~CURVE INFORMATION
#MNEM                UNIT       API CODE     Description
#----------    --------------- ----------  --------------
 DEPTH        .FT                        : 
 RM_IR        .OHMM                      : Resistivity AM 16"
 SPC_IR       .MV                        : Spontaneous Potential
 RD_E_IR      .OHMM                      : Formation Resitivity
 PHIE_IR      .Dec                       : Effective Porosity
 SW_IR        .Dec                       : Water Saturation
 BVW_IR       .Dec                       : Bulk Volume water (Phie x SW)
 VWCL_IR      .Dec                       : Volume wet Clay
 VSILT_IR     .Dec                       : Volume Silt
 CONG_IR      .%                         : Mudlog CONGLOMERATE
 SS_IR        .%                         : Mudlog SANDSTONE
 LS_IR        .%                         : Mudlog LIMESTONE
 MARL_IR      .%                         : Mudlog MARLSTONE
 SLST_IR      .%                         : Mudlog SILSTONE
 SH_IR        .%                         : Mudlog SHALE
 COAL_IR      .%                         : Mudlog  COAL
 IGNEOUS_IR   .%                         : Mudlog IGNEOUS
 ResFlag_IR   .                          : Net Reservoir
 PayFlag_IR   .                          : Net Pay
 PERFS_IR     .B/E                       : Perforations
 Perm_IR      .md                        : Calculated Permeability
 PayFlagRT_IR .                          : Pay Flag Rock Type
 K_PHI_IR     .                          : K/PHI RATIO
 ResFlagRT_IR .                          : Net Reservoir Rock Type
 Rock_Type_IR .microns                   : Pore Throat Size - Rock Types
 Temp_IR      .F                         : Formation Temperature
~P Interactive Petrophysics parameters
#Name        Value                 Description
#----- --------------------------  -----------
#Logging Run 
 RUN  .     1           : Run Number
 DATE .     27/02/1954  : Date                      | RUN[0]
 DFT  .     /           : Type of Fluid in Hole     | RUN[1]
~A  DEPTH   RM_IR     SPC_IR   RD_E_IR   PHIE_IR    SW_IR     BVW_IR   VWCL_IR   VSILT_IR  CONG_IR    SS_IR     LS_IR    MARL_IR   SLST_IR    SH_IR    COAL_IR  IGNEOUS_~ ResFlag_~ PayFlag_~  PERFS_IR  Perm_IR  PayFlagR~  K_PHI_IR ResFlagR~ Rock_Typ~  Temp_IR  
# ...
5724.5000   79.2910  -23.3176   62.4260    0.0374    1.0000    0.0374    0.6759    0.1995    0.0000    0.0000    0.0000    0.0000    0.0000    0.0000    0.0000  100.0000    0.0000    0.0000 -999.0000    0.0014    0.0000    0.0377    0.0000    0.0364  137.8299 
5725.0000   79.7170  -23.3236   62.4030    0.0374    1.0000    0.0374    0.6757    0.1996    0.0000    0.0000    0.0000    0.0000    0.0000    0.0000    0.0000  100.0000    0.0000    0.0000 -999.0000    0.0014    0.0000    0.0378    0.0000    0.0364  137.8354 
5725.5000   79.6610  -23.3296   62.4070    0.0374    1.0000    0.0374    0.6755    0.1997    0.0000    0.0000    0.0000    0.0000    0.0000    0.0000    0.0000  100.0000    0.0000    0.0000 -999.0000    0.0014    0.0000    0.0379    0.0000    0.0365  137.8409 
5726.0000   79.6710  -23.3036   62.4180    0.0373    1.0000    0.0373    0.6762    0.1993    0.0000    0.0000    0.0000    0.0000    0.0000    0.0000    0.0000  100.0000    0.0000    0.0000 -999.0000    0.0014    0.0000    0.0376    0.0000    0.0363  137.8463 
5726.5000   79.6620  -23.4966   62.4040    0.0380    1.0000    0.0380    0.6711    0.2022    0.0000    0.0000    0.0000    0.0000    0.0000    0.0000    0.0000  100.0000    0.0000    0.0000 -999.0000    0.0015    0.0000    0.0401    0.0000    0.0376  137.8518 
5727.0000   79.6320  -23.7356   62.4040    0.0388    1.0000    0.0388    0.6649    0.2058    0.0000    0.0000    0.0000    0.0000    0.0000    0.0000    0.0000  100.0000    0.0000    0.0000 -999.0000    0.0017    0.0000    0.0434    0.0000    0.0391  137.8573 
5727.5000   79.6130  -23.9106   62.4880    0.0394    1.0000    0.0394    0.6602    0.2084    0.0000    0.0000    0.0000    0.0000    0.0000    0.0000    0.0000  100.0000    0.0000    0.0000 -999.0000    0.0018    0.0000    0.0460    0.0000    0.0403  137.8628 
5728.0000   79.5890  -24.0436   62.8010    0.0398    1.0000    0.0398    0.6567    0.2104    0.0000    0.0000    0.0000    0.0000    0.0000    0.0000    0.0000  100.0000    0.0000    0.0000 -999.0000    0.0019    0.0000    0.0480    0.0000    0.0412  137.8683 
5728.5000   79.5660  -24.0516   62.7470    0.0399    1.0000    0.0399    0.6565    0.2105    0.0000    0.0000    0.0000    0.0000    0.0000    0.0000    0.0000  100.0000    0.0000    0.0000 -999.0000    0.0019    0.0000    0.0482    0.0000    0.0413  137.8738 
5729.0000   79.5430  -23.8816   62.8540    0.0393    1.0000    0.0393    0.6610    0.2080    0.0000    0.0000    0.0000    0.0000    0.0000    0.0000    0.0000  100.0000    0.0000    0.0000 -999.0000    0.0018    0.0000    0.0456    0.0000    0.0401  137.8793 
5729.5000   79.5200  -23.4816   63.1600    0.0379    1.0000    0.0379    0.6715    0.2020    0.0000    0.0000    0.0000    0.0000    0.0000    0.0000    0.0000  100.0000    0.0000    0.0000 -999.0000    0.0015    0.0000    0.0399    0.0000    0.0375  137.8848 
5730.0000   79.4960  -23.2436   63.1050    0.0371    1.0000    0.0371    0.6778    0.1984    0.0000    0.0000    0.0000    0.0000    0.0000    0.0000    0.0000  100.0000    0.0000    0.0000 -999.0000    0.0014    0.0000    0.0368    0.0000    0.0359  137.8902 
5730.5000   79.4730  -22.9606   63.2150    0.0362    1.0000    0.0362    0.6852    0.1941    0.0000    0.0000    0.0000    0.0000    0.0000    0.0000    0.0000  100.0000    0.0000    0.0000 -999.0000    0.0012    0.0000    0.0333    0.0000    0.0341  137.8957 
5731.0000   79.4490  -22.7126   63.5140    0.0354    1.0000    0.0354    0.6918    0.1904    0.0000    0.0000    0.0000    0.0000    0.0000    0.0000    0.0000  100.0000    0.0000    0.0000 -999.0000    0.0011    0.0000    0.0305    0.0000    0.0326  137.9012 
5731.5000   79.4260  -22.4366   63.4750    0.0344    1.0000    0.0344    0.6990    0.1862    0.0000    0.0000    0.0000    0.0000    0.0000    0.0000    0.0000  100.0000    0.0000    0.0000 -999.0000    0.0009    0.0000    0.0275    0.0000    0.0309  137.9067 
5732.0000   79.3990  -22.2906   63.5560    0.0339    1.0000    0.0339    0.7029    0.1840    0.0000    0.0000    0.0000    0.0000    0.0000    0.0000    0.0000  100.0000    0.0000    0.0000 -999.0000    0.0009    0.0000    0.0261    0.0000    0.0301  137.9122 
5732.5000   79.3800  -22.2326   63.8840    0.0337    1.0000    0.0337    0.7044    0.1832    0.0000    0.0000    0.0000    0.0000    0.0000    0.0000    0.0000  100.0000    0.0000    0.0000 -999.0000    0.0009    0.0000    0.0255    0.0000    0.0297  137.9177 
5733.0000   79.3500  -22.2376   63.8970    0.0337    1.0000    0.0337    0.7043    0.1832    0.0000    0.0000    0.0000    0.0000    0.0000    0.0000    0.0000  100.0000    0.0000    0.0000 -999.0000    0.0009    0.0000    0.0255    0.0000    0.0298  137.9232 
5733.5000   79.3200  -22.2526   64.2370    0.0338    1.0000    0.0338    0.7039    0.1835    0.0000    0.0000    0.0000    0.0000    0.0000    0.0000    0.0000  100.0000    0.0000    0.0000 -999.0000    0.0009    0.0000    0.0257    0.0000    0.0298  137.9286 
5734.0000   79.3550  -22.2396   64.2410    0.0338    1.0000    0.0338    0.7042    0.1833    0.0000    0.0000    0.0000    0.0000    0.0000    0.0000    0.0000  100.0000    0.0000    0.0000 -999.0000    0.0009    0.0000    0.0256    0.0000    0.0298  137.9341 
5734.5000   78.9900  -21.9226   63.8160    0.0327    1.0000    0.0327    0.7126    0.1785    0.0000    0.0000    0.0000    0.0000    0.0000    0.0000    0.0000  100.0000    0.0000    0.0000 -999.0000    0.0007    0.0000    0.0226    0.0000    0.0280  137.9396 
5735.0000   78.5660  -19.2846   63.4860    0.0217    1.0000    0.0217    0.7820    0.1456    0.0000    0.0000    0.0000    0.0000    0.0000    0.0000    0.0000  100.0000    0.0000    0.0000 -999.0000    0.0001    0.0000    0.0048    0.0000    0.0126  137.9451 
5735.5000   75.2850  -16.2656   62.1210    0.0042    1.0000    0.0042    0.8614    0.1245    0.0000    0.0000    0.0000    0.0000    0.0000    0.0000    0.0000  100.0000    0.0000    0.0000 -999.0000    0.0000    0.0000    0.0000    0.0000    0.0005  137.9506 
5736.0000   71.3850  -13.2416   60.9340    0.0004    1.0000    0.0004    0.9410    0.0575    0.0000    0.0000    0.0000    0.0000    0.0000    0.0000    0.0000  100.0000    0.0000    0.0000 -999.0000    0.0000    0.0000    0.0000    0.0000    0.0000  137.9561 
5736.5000   69.8230  -12.0706   60.3090    0.0001    1.0000    0.0001    0.9718    0.0278    0.0000    0.0000    0.0000    0.0000    0.0000    0.0000    0.0000  100.0000    0.0000    0.0000 -999.0000    0.0000    0.0000    0.0000    0.0000    0.0000  137.9616 
5737.0000   70.0310  -14.7416   60.0190    0.0015    1.0000    0.0015    0.9015    0.0934    0.0000    0.0000    0.0000    0.0000    0.0000    0.0000    0.0000  100.0000    0.0000    0.0000 -999.0000    0.0000    0.0000    0.0000    0.0000    0.0001  137.9671 
5737.5000   69.9480  -17.4896   59.5870    0.0087    1.0000    0.0087    0.8292    0.1418    0.0000    0.0000    0.0000    0.0000    0.0000    0.0000    0.0000  100.0000    0.0000    0.0000 -999.0000    0.0000    0.0000    0.0001    0.0000    0.0021  137.9726 
5738.0000   69.9680  -19.3036   59.5330    0.0219    1.0000    0.0219    0.7815    0.1454    0.0000    0.0000    0.0000    0.0000    0.0000    0.0000    0.0000  100.0000    0.0000    0.0000 -999.0000    0.0001    0.0000    0.0050    0.0000    0.0128  137.9781 
5738.5000   69.9740  -19.1796   59.5310    0.0207    1.0000    0.0207    0.7847    0.1463    0.0000    0.0000    0.0000    0.0000    0.0000    0.0000    0.0000  100.0000    0.0000    0.0000 -999.0000    0.0001    0.0000    0.0040    0.0000    0.0114  137.9835 
5739.0000   69.9630  -19.4336   59.5370    0.0233    1.0000    0.0233    0.7781    0.1443    0.0000    0.0000    0.0000    0.0000    0.0000    0.0000    0.0000  100.0000    0.0000    0.0000 -999.0000    0.0001    0.0000    0.0062    0.0000    0.0144  137.9890 
5739.5000   69.9670  -19.5626   59.5310    0.0247    1.0000    0.0247    0.7747    0.1430    0.0000    0.0000    0.0000    0.0000    0.0000    0.0000    0.0000  100.0000    0.0000    0.0000 -999.0000    0.0002    0.0000    0.0078    0.0000    0.0162  137.9945 
