~VERSION INFORMATION
 VERS.                 2.0:   CWLS LOG ASCII STANDARD - VERSION 2.0
 WRAP.                  NO:   SINGLE LINE PER DEPTH STEP
 CREA.                 03/05/2017 12:05:25
#CREATED USING IP VERSION 4.2.2015.61 BY PANESSOR ON 03/05/2017 12:05:25
~WELL INFORMATION
#MNEM.UNIT       DATA                          DESCRIPTION MNEMONIC
#---------      ---------------------------   --------------------------
 STRT    .FT        500.0000                  : START DEPTH
 STOP    .FT        4532.0000                 : STOP DEPTH
 STEP    .FT        0.5000                    : STEP VALUE
 NULL    .      -999.0000                     : NULL VALUE
 DATE    .      03/05/2017                    : LAS file Creation Date
 WELL  .      CRISOL-1            : Well Name
 COMP  .      INTERCOL            : Company
 FLD   .      WILDCAT             : Field
 STATE .      CESAR               : State
 COUNT .      COLOMBIA            : Country
 API   .      CRIL0001            : API Number
 UWI   .      CRIL0001            : Unique Well Identifier (UWI)
 LOC   .      GAUSS ORIGIN BOGOTA : Location
 LATI  .      1.0147222222        : Latitude/Northing
 LONG  .      1.0086111111        : Longitude/Easting
 RWS   .      -999                : Def_Rw
 WST   .      -999                : Def_Rwt
 PROV  .                          : Province
 SRVC  .      SCH                 : Contractor
~CURVE INFORMATION
#MNEM                 UNIT       API CODE     Description
#----------     --------------- ----------  --------------
 DEPTH         .FT                        : 
 RM_IR         .OHMM                      : Medium Resistivity
 SPC_IR        .MV                        : Spontaneous Potential
 RD_E_IR       .OHMM                      : Formation Deep Resitivity
 PHIE_IR       .Dec                       : Effective Porosity
 SW_IR         .Dec                       : Effective Water Saturation
 BVW_IR        .Dec                       : Bulk Volume water (Phie x SW)
 VWCL_IR       .Dec                       : Volume wet Clay
 VSILT_IR      .Dec                       : Volume Silt
 Perfs_IR      .B/E                       : Photoelectric Factor
 Perm_IR       .md                        : Calculated Permeability
 CGL_IR        .%                         : Mudlog CONGLOMERATE
 SS_IR         .%                         : Mudlog SANDSTONE
 SLS_IR        .%                         : Mudlog SILSTONE
 CLST_IR       .%                         : Mudlog CLAYSTONE
 SH_IR         .%                         : Mudlog Shale
 MARL_IR       .%                         : Mudlog MARLSTONE
 LS_IR         .%                         : Mudlog LIMESTONE
 ResFlag_IR    .                          : Net Reservoir
 PayFlag_IR    .                          : Net Pay
 K_PHI_IR      .                          : K/PHI RATIO
 PayFlagRT_IR  .                          : Pay Flag Rock Type
 ResFlagRT_IR  .                          : Net Reservoir Rock Type
 Rock_Type_IR  .microns                   : Pore Throat Size - Rock Types
 Temp_IR       .F                         : Formation Temperature
 MUD_WEIGHT_IR .PPG                       : MUD_WEIGHT
~P Interactive Petrophysics parameters
#Name        Value                 Description
#----- --------------------------  -----------
#Logging Run 
 RUN  .     1                    : Run Number
 DATE .     24-OCT-1953          : Date                      | RUN[0]
 BLI  .     2565                 : Btm Log Interval          | RUN[1]
 TLI  .     517                  : Top Log Interval          | RUN[1]
 BS   .     8.625                : Bit Size                  | RUN[1]
 DFT  .     /                    : Type of Fluid in Hole     | RUN[1]
 RM   .     5.9                  : Rm                        | RUN[1]
 MST  .     84                   : at Meas Temp              | RUN[1]
 R1   .     SPS LTDA.            : Remark 1                  | RUN[1]
 R2   .     PLUG BACK 3808 FT.   : Remark 2                  | RUN[1]
 R3   .     ABANDONED GAS WELL.  : Remark 3                  | RUN[1]
#Logging Run 
 RUN  .     2                    : Run Number
 DATE .     14-NOV-1953          : Date                      | RUN[1]
 BLI  .     4053                 : Btm Log Interval          | RUN[2]
 TLI  .     3000                 : Top Log Interval          | RUN[2]
 BS   .     9.625                : Bit Size                  | RUN[2]
 RM   .     3.8                  : Rm                        | RUN[2]
 MST  .     87                   : at Meas Temp              | RUN[2]
 R1   .     SPS LTDA.            : Remark 1                  | RUN[2]
 R2   .     PLUG BACK 3808 FT.   : Remark 2                  | RUN[2]
 R3   .     ABANDONED GAS WELL.  : Remark 3                  | RUN[2]
~A  DEPTH   RM_IR     SPC_IR   RD_E_IR   PHIE_IR    SW_IR     BVW_IR   VWCL_IR   VSILT_IR  Perfs_IR  Perm_IR    CGL_IR    SS_IR     SLS_IR   CLST_IR    SH_IR    MARL_IR    LS_IR   ResFlag_~ PayFlag_~  K_PHI_IR PayFlagR~ ResFlagR~ Rock_Typ~  Temp_IR  MUD_WEIG~ 
# ...
1817.5000   16.5090  -35.5604   10.2180    0.1105    1.0000    0.1105    0.3860    0.0000 -999.0000    0.2562   25.8450    0.0000    0.0000    0.0000   74.1550    0.0000    0.0000    0.0000    0.0000    2.3179    0.0000    0.0000    0.3039   96.5920   10.1000 
1818.0000   16.2600  -34.9554    9.9570    0.1078    1.0000    0.1078    0.4011    0.0000 -999.0000    0.2273   25.8600    0.0000    0.0000    0.0000   74.1400    0.0000    0.0000    0.0000    0.0000    2.1083    0.0000    0.0000    0.2894   96.5966   10.1000 
1818.5000   15.9930  -35.2004    9.6080    0.1089    1.0000    0.1089    0.3950    0.0000 -999.0000    0.2387   25.8800    0.0000    0.0000    0.0000   74.1200    0.0000    0.0000    0.0000    0.0000    2.1915    0.0000    0.0000    0.2952   96.6012   10.1000 
1819.0000   15.9210  -35.9305    9.2410    0.1122    1.0000    0.1122    0.3767    0.0000 -999.0000    0.2753   25.9000    0.0000    0.0000    0.0000   74.1000    0.0000    0.0000    0.0000    0.0000    2.4535    0.0000    0.0000    0.3129   96.6057   10.1000 
1819.5000   16.0810  -36.9045    8.8580    0.1166    1.0000    0.1166    0.3524    0.0000 -999.0000    0.3308   25.9150    0.0000    0.0000    0.0000   74.0850    0.0000    0.0000    0.0000    0.0000    2.8381    0.0000    0.0000    0.3373   96.6103   10.1000 
1820.0000   16.6670  -37.7875    8.6090    0.1205    1.0000    0.1205    0.3303    0.0000 -999.0000    0.3886   25.9300    0.0000    0.0000    0.0000   74.0700    0.0000    0.0000    0.0000    0.0000    3.2237    0.0000    0.0000    0.3602   96.6149   10.1000 
1820.5000   16.9070  -38.3666    7.9000    0.1231    1.0000    0.1231    0.3158    0.0000 -999.0000    0.4306   25.9450    0.0000    0.0000    0.0000   74.0550    0.0000    0.0000    0.0000    0.0000    3.4966    0.0000    0.0000    0.3756   96.6194   10.1000 
1821.0000   16.3410  -37.8096    7.2610    0.1206    1.0000    0.1206    0.3298    0.0000 -999.0000    0.3901   25.9600    0.0000    0.0000    0.0000   74.0400    0.0000    0.0000    0.0000    0.0000    3.2338    0.0000    0.0000    0.3608   96.6240   10.1000 
1821.5000   15.7760  -37.0347    6.6150    0.1172    1.0000    0.1172    0.3491    0.0000 -999.0000    0.3389   25.9800   10.0500    0.0000    0.0000   63.9700    0.0000    0.0000    0.0000    0.0000    2.8927    0.0000    0.0000    0.3406   96.6285   10.1000 
1822.0000   14.3730  -36.0647    6.2080    0.1128    1.0000    0.1128    0.3734    0.0000 -999.0000    0.2824   26.0000   20.1000    0.0000    0.0000   53.9000    0.0000    0.0000    0.0000    0.0000    2.5041    0.0000    0.0000    0.3162   96.6331   10.1000 
1822.5000   13.1230  -34.9737    5.8220    0.1079    1.0000    0.1079    0.4007    0.0000 -999.0000    0.2281   26.0150   20.5950    0.0000    0.0000   53.3900    0.0000    0.0000    0.0000    0.0000    2.1145    0.0000    0.0000    0.2898   96.6377   10.1000 
1823.0000   11.8740  -33.7608    5.6120    0.1024    1.0000    0.1024    0.4310    0.0000 -999.0000    0.1778   26.0300   21.0900    0.0000    0.0000   52.8800    0.0000    0.0000    0.0000    0.0000    1.7359    0.0000    0.0000    0.2618   96.6422   10.1000 
1823.5000   10.6250  -31.9408    5.5030    0.0942    1.0000    0.0942    0.4765    0.0000 -999.0000    0.1192   26.0450   21.0600    0.0000    0.0000   52.8950    0.0000    0.0000    0.0000    0.0000    1.2647    0.0000    0.0000    0.2224   96.6468   10.1000 
1824.0000    9.4040  -29.9999    5.4970    0.0855    1.0000    0.0855    0.5250    0.0000 -999.0000    0.0747   26.0600   21.0300    0.0000    0.0000   52.9100    0.0000    0.0000    0.0000    0.0000    0.8739    0.0000    0.0000    0.1838   96.6514   10.1000 
1824.5000    8.3060  -28.1799    5.5650    0.0773    1.0000    0.0773    0.5705    0.0000 -999.0000    0.0461   26.0800   20.9900    0.0000    0.0000   52.9300    0.0000    0.0000    0.0000    0.0000    0.5961    0.0000    0.0000    0.1509   96.6559   10.1000 
1825.0000    7.3160  -26.3599    5.6000    0.0670    1.0000    0.0670    0.6160    0.0000 -999.0000    0.0232   26.1000   20.9500    0.0000    0.0000   52.9500    0.0000    0.0000    0.0000    0.0000    0.3464    0.0000    0.0000    0.1141   96.6605   10.1000 
1825.5000    6.4160  -24.7830    5.5890    0.0495    1.0000    0.0495    0.6554    0.0144 -999.0000    0.0054   26.1150   20.9200    0.0000    0.0000   52.9650    0.0000    0.0000    0.0000    0.0000    0.1098    0.0000    0.0000    0.0631   96.6651   10.1000 
1826.0000    5.6960  -23.3540    5.5740    0.0338    1.0000    0.0338    0.6912    0.0838 -999.0000    0.0009   26.1300   20.8900    0.0000    0.0000   52.9800    0.0000    0.0000    0.0000    0.0000    0.0256    0.0000    0.0000    0.0298   96.6696   10.1000 
1826.5000    5.3000  -21.7511    5.5060    0.0198    1.0000    0.0198    0.7312    0.1368 -999.0000    0.0001   26.1450   20.8600    0.0000    0.0000   52.9950    0.0000    0.0000    0.0000    0.0000    0.0034    0.0000    0.0000    0.0105   96.6742   10.1000 
1827.0000    4.9270  -20.6191    5.3690    0.0128    1.0000    0.0128    0.7595    0.1554 -999.0000    0.0000   26.1600   20.8300    0.0000    0.0000   53.0100    0.0000    0.0000    0.0000    0.0000    0.0006    0.0000    0.0000    0.0044   96.6788   10.1000 
1827.5000    4.6630  -19.9331    5.2430    0.0095    1.0000    0.0095    0.7767    0.1597 -999.0000    0.0000   26.1800   20.7900    0.0000    0.0000   53.0300    0.0000    0.0000    0.0000    0.0000    0.0002    0.0000    0.0000    0.0025   96.6833   10.1000 
1828.0000    4.3720  -18.4782    5.0870    0.0048    1.0000    0.0048    0.8130    0.1547 -999.0000    0.0000   26.2000   20.7500    0.0000    0.0000   53.0500    0.0000    0.0000    0.0000    0.0000    0.0000    0.0000    0.0000    0.0007   96.6879   10.1000 
1828.5000    3.9640  -15.8072    4.9550    0.0011    1.0000    0.0011    0.8798    0.1130 -999.0000    0.0000   26.2150   20.7200    0.0000    0.0000   53.0650    0.0000    0.0000    0.0000    0.0000    0.0000    0.0000    0.0000    0.0000   96.6925   10.1000 
1829.0000    3.7080  -13.7592    4.8670    0.0002    1.0000    0.0002    0.9310    0.0673 -999.0000    0.0000   26.2300   20.6900    0.0000    0.0000   53.0800    0.0000    0.0000    0.0000    0.0000    0.0000    0.0000    0.0000    0.0000   96.6970   10.1000 
1829.5000    3.5150  -11.1643    4.7580    0.0001    1.0000    0.0001    0.9959    0.0034 -999.0000    0.0000   26.2450   20.6600    0.0000    0.0000   53.0950    0.0000    0.0000    0.0000    0.0000    0.0000    0.0000    0.0000    0.0000   96.7016   10.1000 
1830.0000    3.3480   -9.9663    4.6510    0.0001    1.0000    0.0001    1.0000    0.0000 -999.0000    0.0000   26.2600   20.6300    0.0000    0.0000   53.1100    0.0000    0.0000    0.0000    0.0000    0.0000    0.0000    0.0000    0.0000   96.7061   10.1000 
1830.5000    3.2180   -9.7970    4.5400    0.0001    1.0000    0.0001    1.0000    0.0000 -999.0000    0.0000   26.2800   20.5900    0.0000    0.0000   53.1300    0.0000    0.0000    0.0000    0.0000    0.0000    0.0000    0.0000    0.0000   96.7107   10.1000 
1831.0000    3.1600   -9.8914    4.4440    0.0001    1.0000    0.0001    1.0000    0.0000 -999.0000    0.0000   26.3000   20.5500    0.0000    0.0000   53.1500    0.0000    0.0000    0.0000    0.0000    0.0000    0.0000    0.0000    0.0000   96.7153   10.1000 
1831.5000    3.0890   -9.9957    4.3320    0.0001    1.0000    0.0001    1.0000    0.0000 -999.0000    0.0000   26.3150   20.5200    0.0000    0.0000   53.1650    0.0000    0.0000    0.0000    0.0000    0.0000    0.0000    0.0000    0.0000   96.7198   10.1000 
1832.0000    3.0170   -9.9101    4.2580    0.0001    1.0000    0.0001    1.0000    0.0000 -999.0000    0.0000   26.3300   20.4900    0.0000    0.0000   53.1800    0.0000    0.0000    0.0000    0.0000    0.0000    0.0000    0.0000    0.0000   96.7244   10.1000 
1832.5000    2.9440   -9.8154    4.1760    0.0001    1.0000    0.0001    1.0000    0.0000 -999.0000    0.0000   26.3450   20.4600    0.0000    0.0000   53.1950    0.0000    0.0000    0.0000    0.0000    0.0000    0.0000    0.0000    0.0000   96.7290   10.1000 
