~VERSION INFORMATION
 VERS.                 2.0:   CWLS LOG ASCII STANDARD - VERSION 2.0
 WRAP.                  NO:   SINGLE LINE PER DEPTH STEP
 CREA.                 03/05/2017 10:34:44
#CREATED USING IP VERSION 4.2.2015.61 BY PANESSOR ON 03/05/2017 10:34:44
~WELL INFORMATION
#MNEM.UNIT       DATA                          DESCRIPTION MNEMONIC
#---------      ---------------------------   --------------------------
 STRT    .FT        500.0000                  : START DEPTH
 STOP    .FT        5680.0000                 : STOP DEPTH
 STEP    .FT        0.5000                    : STEP VALUE
 NULL    .      -999.0000                     : NULL VALUE
 DATE    .      03/05/2017                    : LAS file Creation Date
 WELL  .      CRISOL-3            : Well Name
 COMP  .      INTERCOL            : Company
 FLD   .      WILDCAT             : Field
 STATE .      MAGDALENA           : State
 COUNT .      COLOMBIA            : Country
 API   .      CRIL0003            : API Number
 UWI   .      100000000377        : Unique Well Identifier (UWI)
 LOC   .      GAUSS ORIGIN BOGOTA : Location
 LATI  .      1                   : Latitude/Northing
 LONG  .      1                   : Longitude/Easting
 RWS   .      -999                : Def_Rw
 WST   .      -999                : Def_Rwt
 CNTY  .      N/A                 : County
 PROV  .                          : Province
 SRVC  .      SCH                 : Contractor
~CURVE INFORMATION
#MNEM                UNIT       API CODE     Description
#----------    --------------- ----------  --------------
 DEPTH        .FT                        : 
 RM_IR        .OHMM                      : Medium Resistivity
 RD_IR        .OHMM                      : Formation Deep Resitivity
 LAT_E_IR     .OHMM                      : Lateral AO18'8"
 SPC_IR       .MV                        : Spontaneous Potential
 PHIE_IR      .Dec                       : Effective Porosity
 SW_IR        .Dec                       : Effective Water Saturation
 BVW_IR       .Dec                       : Bulk Volume water (Phie x SW)
 VWCL_IR      .Dec                       : Volume wet Clay
 VSILT_IR     .Dec                       : Volume Silt
 SLST_IR      .%                         : Mudlog SILSTONE
 SS_IR        .%                         : Mudlog SANDSTONE
 CONG_IR      .%                         : Mudlog CONGLOMERATE
 MARL_IR      .%                         : Mudlog MARLSTONE
 ResFlag_IR   .                          : Net Reservoir
 IGNEOUS_IR   .us/ft                     : Mudlog IGNEOUS
 LS_IR        .us/ft                     : Mudlog LIMESTONE
 SH_IR        .%                         : Mudlog SHALE
 PayFlag_IR   .                          : Net Pay
 Perm_IR      .md                        : Calculated Permeability
 PayFlagRT_IR .                          : Pay Flag Rock Type
 ResFlagRT_IR .                          : Net Reservoir Rock Type
 K_PHI_IR     .                          : K/PHI RATIO
 Rock_Type_IR .microns                   : Pore Throat Size - Rock Types
 Temp_IR      .F                         : Formation Temperature
~P Interactive Petrophysics parameters
#Name        Value                 Description
#----- --------------------------  -----------
#Logging Run 
 RUN  .     1           : Run Number
 DATE .     23/04/1954  : Date                      | RUN[0]
 DFT  .     /           : Type of Fluid in Hole     | RUN[1]
~A  DEPTH   RM_IR     RD_IR    LAT_E_IR   SPC_IR   PHIE_IR    SW_IR     BVW_IR   VWCL_IR   VSILT_IR  SLST_IR    SS_IR    CONG_IR   MARL_IR  ResFlag_~ IGNEOUS_~   LS_IR     SH_IR   PayFlag_~  Perm_IR  PayFlagR~ ResFlagR~  K_PHI_IR Rock_Typ~  Temp_IR  
# ...
2212.0000    6.3590    7.9770   14.2680  -19.3044 -999.0000 -999.0000 -999.0000 -999.0000 -999.0000    0.0000   17.1614    0.0000    0.0000    0.0000    0.0000    0.0000   82.8386    0.0000    0.0000    0.0000    0.0000 -999.0000 -999.0000   98.1438 
2212.5000    6.2140    7.9410   14.1530  -19.2988 -999.0000 -999.0000 -999.0000 -999.0000 -999.0000    0.0000   17.1897    0.0000    0.0000    0.0000    0.0000    0.0000   82.8103    0.0000    0.0000    0.0000    0.0000 -999.0000 -999.0000   98.1490 
2213.0000    6.1780    7.9420   14.0620  -19.3773 -999.0000 -999.0000 -999.0000 -999.0000 -999.0000    0.0000   17.2180    0.0000    0.0000    0.0000    0.0000    0.0000   82.7820    0.0000    0.0000    0.0000    0.0000 -999.0000 -999.0000   98.1543 
2213.5000    6.1050    7.9740   13.8760  -19.3953 -999.0000 -999.0000 -999.0000 -999.0000 -999.0000    0.0000   17.2463    0.0000    0.0000    0.0000    0.0000    0.0000   82.7538    0.0000    0.0000    0.0000    0.0000 -999.0000 -999.0000   98.1595 
2214.0000    6.0690    8.0100   13.4140  -19.4880 -999.0000 -999.0000 -999.0000 -999.0000 -999.0000    0.0000   17.2745    0.0000    0.0000    0.0000    0.0000    0.0000   82.7255    0.0000    0.0000    0.0000    0.0000 -999.0000 -999.0000   98.1647 
2214.5000    6.1050    8.0120   12.9180  -19.7782 -999.0000 -999.0000 -999.0000 -999.0000 -999.0000    0.0000   17.3028    0.0000    0.0000    0.0000    0.0000    0.0000   82.6972    0.0000    0.0000    0.0000    0.0000 -999.0000 -999.0000   98.1700 
2215.0000    6.1410    8.0460   12.2900  -20.4699 -999.0000 -999.0000 -999.0000 -999.0000 -999.0000    0.0000   17.3311    0.0000    0.0000    0.0000    0.0000    0.0000   82.6689    0.0000    0.0000    0.0000    0.0000 -999.0000 -999.0000   98.1752 
2215.5000    6.2500    8.0460   11.5840  -21.0668 -999.0000 -999.0000 -999.0000 -999.0000 -999.0000    0.0000   17.3594    0.0000    0.0000    0.0000    0.0000    0.0000   82.6406    0.0000    0.0000    0.0000    0.0000 -999.0000 -999.0000   98.1804 
2216.0000    6.5040    8.0460   11.4250  -21.6222 -999.0000 -999.0000 -999.0000 -999.0000 -999.0000    0.0000   17.3876    0.0000    0.0000    0.0000    0.0000    0.0000   82.6124    0.0000    0.0000    0.0000    0.0000 -999.0000 -999.0000   98.1857 
2216.5000    6.7930    8.0110   11.4810  -22.2360 -999.0000 -999.0000 -999.0000 -999.0000 -999.0000    0.0000   17.4159    0.0000    0.0000    0.0000    0.0000    0.0000   82.5841    0.0000    0.0000    0.0000    0.0000 -999.0000 -999.0000   98.1909 
2217.0000    7.0110    8.0170   11.7660  -22.4845 -999.0000 -999.0000 -999.0000 -999.0000 -999.0000    0.0000   17.4442    0.0000    0.0000    0.0000    0.0000    0.0000   82.5558    0.0000    0.0000    0.0000    0.0000 -999.0000 -999.0000   98.1961 
2217.5000    7.2100    8.0900   12.0770  -22.9209 -999.0000 -999.0000 -999.0000 -999.0000 -999.0000    0.0000   17.4725    0.0000    0.0000    0.0000    0.0000    0.0000   82.5275    0.0000    0.0000    0.0000    0.0000 -999.0000 -999.0000   98.2014 
2218.0000    7.4090    8.2580   12.3300  -23.7211 -999.0000 -999.0000 -999.0000 -999.0000 -999.0000    0.0000   17.5007    0.0000    0.0000    0.0000    0.0000    0.0000   82.4993    0.0000    0.0000    0.0000    0.0000 -999.0000 -999.0000   98.2066 
2218.5000    7.5540    8.4810   12.5820  -24.3175 -999.0000 -999.0000 -999.0000 -999.0000 -999.0000    0.0000   17.5290    0.0000    0.0000    0.0000    0.0000    0.0000   82.4710    0.0000    0.0000    0.0000    0.0000 -999.0000 -999.0000   98.2118 
2219.0000    7.8440    8.6730   12.6960  -25.2802 -999.0000 -999.0000 -999.0000 -999.0000 -999.0000    0.0000   17.5573    0.0000    0.0000    0.0000    0.0000    0.0000   82.4427    0.0000    0.0000    0.0000    0.0000 -999.0000 -999.0000   98.2171 
2219.5000    8.0980    8.8830   12.7150  -26.5446 -999.0000 -999.0000 -999.0000 -999.0000 -999.0000    0.0000   21.5257    0.0000    0.0000    0.0000    0.0000    0.0000   78.4743    0.0000    0.0000    0.0000    0.0000 -999.0000 -999.0000   98.2223 
2220.0000    8.5560    9.0610   12.7740  -26.7731 -999.0000 -999.0000 -999.0000 -999.0000 -999.0000    0.0000   25.4940    0.0000    0.0000    0.0000    0.0000    0.0000   74.5060    0.0000    0.0000    0.0000    0.0000 -999.0000 -999.0000   98.2275 
2220.5000    9.0560    9.2680   13.0400  -26.2879 -999.0000 -999.0000 -999.0000 -999.0000 -999.0000    0.0000   26.6147    0.0000    0.0000    0.0000    0.0000    0.0000   73.3853    0.0000    0.0000    0.0000    0.0000 -999.0000 -999.0000   98.2328 
2221.0000    9.4750    9.3360   13.5370  -25.9759 -999.0000 -999.0000 -999.0000 -999.0000 -999.0000    0.0000   27.7354    0.0000    0.0000    0.0000    0.0000    0.0000   72.2646    0.0000    0.0000    0.0000    0.0000 -999.0000 -999.0000   98.2380 
2221.5000   10.3440    9.3090   15.0850  -25.7903 -999.0000 -999.0000 -999.0000 -999.0000 -999.0000    0.0000   27.7036    0.0000    0.0000    0.0000    0.0000    0.0000   72.2964    0.0000    0.0000    0.0000    0.0000 -999.0000 -999.0000   98.2432 
2222.0000   10.7790    9.0170   16.5660  -25.8656 -999.0000 -999.0000 -999.0000 -999.0000 -999.0000    0.0000   27.6718    0.0000    0.0000    0.0000    0.0000    0.0000   72.3282    0.0000    0.0000    0.0000    0.0000 -999.0000 -999.0000   98.2484 
2222.5000   11.1050    8.6510   18.0490  -25.6805 -999.0000 -999.0000 -999.0000 -999.0000 -999.0000    0.0000   27.6399    0.0000    0.0000    0.0000    0.0000    0.0000   72.3600    0.0000    0.0000    0.0000    0.0000 -999.0000 -999.0000   98.2537 
2223.0000   11.0690    8.3310   19.3130  -25.3064 -999.0000 -999.0000 -999.0000 -999.0000 -999.0000    0.0000   27.6081    0.0000    0.0000    0.0000    0.0000    0.0000   72.3919    0.0000    0.0000    0.0000    0.0000 -999.0000 -999.0000   98.2589 
2223.5000   10.7810    8.0180   20.0880  -24.5770 -999.0000 -999.0000 -999.0000 -999.0000 -999.0000    0.0000   27.5763    0.0000    0.0000    0.0000    0.0000    0.0000   72.4237    0.0000    0.0000    0.0000    0.0000 -999.0000 -999.0000   98.2641 
2224.0000   10.1990    7.7750   20.0870  -23.5103 -999.0000 -999.0000 -999.0000 -999.0000 -999.0000    0.0000   27.5445    0.0000    0.0000    0.0000    0.0000    0.0000   72.4555    0.0000    0.0000    0.0000    0.0000 -999.0000 -999.0000   98.2694 
2224.5000    9.7930    7.7640   20.1230  -22.6388 -999.0000 -999.0000 -999.0000 -999.0000 -999.0000    0.0000   27.5127    0.0000    0.0000    0.0000    0.0000    0.0000   72.4873    0.0000    0.0000    0.0000    0.0000 -999.0000 -999.0000   98.2746 
2225.0000    8.8590    7.8250   20.1130  -22.0147 -999.0000 -999.0000 -999.0000 -999.0000 -999.0000    0.0000   27.4809    0.0000    0.0000    0.0000    0.0000    0.0000   72.5191    0.0000    0.0000    0.0000    0.0000 -999.0000 -999.0000   98.2798 
2225.5000    8.2070    7.9380   20.0850  -21.2638 -999.0000 -999.0000 -999.0000 -999.0000 -999.0000    0.0000   27.4491    0.0000    0.0000    0.0000    0.0000    0.0000   72.5509    0.0000    0.0000    0.0000    0.0000 -999.0000 -999.0000   98.2851 
2226.0000    7.7360    8.0500   19.5100  -21.1992 -999.0000 -999.0000 -999.0000 -999.0000 -999.0000    0.0000   27.4173    0.0000    0.0000    0.0000    0.0000    0.0000   72.5827    0.0000    0.0000    0.0000    0.0000 -999.0000 -999.0000   98.2903 
2226.5000    7.2280    8.1560   18.5160  -21.2003 -999.0000 -999.0000 -999.0000 -999.0000 -999.0000    0.0000   27.3855    0.0000    0.0000    0.0000    0.0000    0.0000   72.6145    0.0000    0.0000    0.0000    0.0000 -999.0000 -999.0000   98.2955 
2227.0000    6.9020    8.2610   17.5050  -21.2020 -999.0000 -999.0000 -999.0000 -999.0000 -999.0000    0.0000   27.3537    0.0000    0.0000    0.0000    0.0000    0.0000   72.6463    0.0000    0.0000    0.0000    0.0000 -999.0000 -999.0000   98.3008 
2227.5000    6.4310    8.3660   15.7400  -21.2979 -999.0000 -999.0000 -999.0000 -999.0000 -999.0000    0.0000   27.3219    0.0000    0.0000    0.0000    0.0000    0.0000   72.6781    0.0000    0.0000    0.0000    0.0000 -999.0000 -999.0000   98.3060 
