~VERSION INFORMATION
 VERS.                 2.0:   CWLS LOG ASCII STANDARD - VERSION 2.0
 WRAP.                  NO:   SINGLE LINE PER DEPTH STEP
 CREA.                 03/05/2017 12:05:25
#CREATED USING IP VERSION 4.2.2015.61 BY PANESSOR ON 03/05/2017 12:05:25
~WELL INFORMATION
#MNEM.UNIT       DATA                          DESCRIPTION MNEMONIC
#---------      ---------------------------   --------------------------
 STRT    .FT        500.0000                  : START DEPTH
 STOP    .FT        4532.0000                 : STOP DEPTH
 STEP    .FT        0.5000                    : STEP VALUE
 NULL    .      -999.0000                     : NULL VALUE
 DATE    .      03/05/2017                    : LAS file Creation Date
 WELL  .      CRISOL-1            : Well Name
 COMP  .      INTERCOL            : Company
 FLD   .      WILDCAT             : Field
 STATE .      CESAR               : State
 COUNT .      COLOMBIA            : Country
 API   .      CRIL0001            : API Number
 UWI   .      CRIL0001            : Unique Well Identifier (UWI)
 LOC   .      GAUSS ORIGIN BOGOTA : Location
 LATI  .      1.0147222222        : Latitude/Northing
 LONG  .      1.0086111111        : Longitude/Easting
 RWS   .      -999                : Def_Rw
 WST   .      -999                : Def_Rwt
 PROV  .                          : Province
 SRVC  .      SCH                 : Contractor
~CURVE INFORMATION
#MNEM                 UNIT       API CODE     Description
#----------     --------------- ----------  --------------
 DEPTH         .FT                        : 
 RM_IR         .OHMM                      : Medium Resistivity
 SPC_IR        .MV                        : Spontaneous Potential
 RD_E_IR       .OHMM                      : Formation Deep Resitivity
 PHIE_IR       .Dec                       : Effective Porosity
 SW_IR         .Dec                       : Effective Water Saturation
 BVW_IR        .Dec                       : Bulk Volume water (Phie x SW)
 VWCL_IR       .Dec                       : Volume wet Clay
 VSILT_IR      .Dec                       : Volume Silt
 Perfs_IR      .B/E                       : Photoelectric Factor
 Perm_IR       .md                        : Calculated Permeability
 CGL_IR        .%                         : Mudlog CONGLOMERATE
 SS_IR         .%                         : Mudlog SANDSTONE
 SLS_IR        .%                         : Mudlog SILSTONE
 CLST_IR       .%                         : Mudlog CLAYSTONE
 SH_IR         .%                         : Mudlog Shale
 MARL_IR       .%                         : Mudlog MARLSTONE
 LS_IR         .%                         : Mudlog LIMESTONE
 ResFlag_IR    .                          : Net Reservoir
 PayFlag_IR    .                          : Net Pay
 K_PHI_IR      .                          : K/PHI RATIO
 PayFlagRT_IR  .                          : Pay Flag Rock Type
 ResFlagRT_IR  .                          : Net Reservoir Rock Type
 Rock_Type_IR  .microns                   : Pore Throat Size - Rock Types
 Temp_IR       .F                         : Formation Temperature
 MUD_WEIGHT_IR .PPG                       : MUD_WEIGHT
~P Interactive Petrophysics parameters
#Name        Value                 Description
#----- --------------------------  -----------
#Logging Run 
 RUN  .     1                    : Run Number
 DATE .     24-OCT-1953          : Date                      | RUN[0]
 BLI  .     2565                 : Btm Log Interval          | RUN[1]
 TLI  .     517                  : Top Log Interval          | RUN[1]
 BS   .     8.625                : Bit Size                  | RUN[1]
 DFT  .     /                    : Type of Fluid in Hole     | RUN[1]
 RM   .     5.9                  : Rm                        | RUN[1]
 MST  .     84                   : at Meas Temp              | RUN[1]
 R1   .     SPS LTDA.            : Remark 1                  | RUN[1]
 R2   .     PLUG BACK 3808 FT.   : Remark 2                  | RUN[1]
 R3   .     ABANDONED GAS WELL.  : Remark 3                  | RUN[1]
#Logging Run 
 RUN  .     2                    : Run Number
 DATE .     14-NOV-1953          : Date                      | RUN[1]
 BLI  .     4053                 : Btm Log Interval          | RUN[2]
 TLI  .     3000                 : Top Log Interval          | RUN[2]
 BS   .     9.625                : Bit Size                  | RUN[2]
 RM   .     3.8                  : Rm                        | RUN[2]
 MST  .     87                   : at Meas Temp              | RUN[2]
 R1   .     SPS LTDA.            : Remark 1                  | RUN[2]
 R2   .     PLUG BACK 3808 FT.   : Remark 2                  | RUN[2]
 R3   .     ABANDONED GAS WELL.  : Remark 3                  | RUN[2]
~A  DEPTH   RM_IR     SPC_IR   RD_E_IR   PHIE_IR    SW_IR     BVW_IR   VWCL_IR   VSILT_IR  Perfs_IR  Perm_IR    CGL_IR    SS_IR     SLS_IR   CLST_IR    SH_IR    MARL_IR    LS_IR   ResFlag_~ PayFlag_~  K_PHI_IR PayFlagR~ ResFlagR~ Rock_Typ~  Temp_IR  MUD_WEIG~ 
# ...
2592.5000  115.0965  -32.9772  194.5102    0.1069    0.4118    0.0440    0.4060    0.0000 -999.0000    0.5306    0.0000    0.0000    0.0000    0.0000    0.0000   76.1700   23.8300    0.0000    0.0000    4.9628    0.0000    0.0000    0.3642  103.6670   10.1000 
2593.0000  115.3380  -33.1592  194.5713    0.1078    0.4083    0.0440    0.4011    0.0000 -999.0000    0.5567    0.0000    0.0000    0.0000    0.0000    0.0000   76.1600   23.8400    0.0000    0.0000    5.1641    0.0000    0.0000    0.3726  103.6716   10.1000 
2593.5000  115.7005  -31.8911  194.6325    0.1016    0.4330    0.0440    0.4354    0.0000 -999.0000    0.3956    0.0000    0.0000    0.0000    0.0000    0.0000   76.1500   23.8500    0.0000    0.0000    3.8925    0.0000    0.0000    0.3168  103.6762   10.1000 
2594.0000  116.0630  -30.6231  194.6937    0.0955    0.4609    0.0440    0.4696    0.0000 -999.0000    0.2752    0.0000    0.0000    0.0000    0.0000    0.0000   76.1400   23.8600    0.0000    0.0000    2.8825    0.0000    0.0000    0.2666  103.6807   10.1000 
2594.5000  115.8815  -31.1670  194.7549    0.0981    0.4484    0.0440    0.4549    0.0000 -999.0000    0.3225    0.0000    0.0000    0.0000    0.0000    0.0000   76.1300   23.8700    0.0000    0.0000    3.2874    0.0000    0.0000    0.2875  103.6853   10.1000 
2595.0000  115.7000  -31.7109  194.8161    0.1008    0.4365    0.0440    0.4402    0.0000 -999.0000    0.3764    0.0000    0.0000    0.0000    0.0000    0.0000   76.1200   23.8800    0.0000    0.0000    3.7359    0.0000    0.0000    0.3094  103.6899   10.1000 
2595.5000  114.3840  -32.3759  185.0000    0.1040    0.4340    0.0451    0.4223    0.0000 -999.0000    0.4406    0.0000    0.0000    0.0000    0.0000    0.0000   76.1100   23.8900    0.0000    0.0000    4.2371    0.0000    0.0000    0.3327  103.6944   10.1000 
2596.0000  113.0680  -33.0408  175.3130    0.1072    0.4324    0.0464    0.4043    0.0000 -999.0000    0.5123    0.0000    0.0000    0.0000    0.0000    0.0000   76.1000   23.9000    0.0000    0.0000    4.7780    0.0000    0.0000    0.3565  103.6990   10.1000 
2596.5000  111.0785  -33.0268  169.5620    0.1072    0.4399    0.0471    0.4047    0.0000 -999.0000    0.5020    0.0000    0.0000    0.0000    0.0000    0.0000   76.0900   23.9100    0.0000    0.0000    4.6848    0.0000    0.0000    0.3525  103.7036   10.1000 
2597.0000  109.0890  -33.0127  163.8110    0.1071    0.4479    0.0480    0.4051    0.0000 -999.0000    0.4916    0.0000    0.0000    0.0000    0.0000    0.0000   76.0800   23.9200    0.0000    0.0000    4.5906    0.0000    0.0000    0.3485  103.7081   10.1000 
2597.5000  105.3500  -32.7256  156.7940    0.1057    0.4638    0.0490    0.4128    0.0000 -999.0000    0.4457    0.0000    0.0000    0.0000    0.0000    0.0000   76.0700   23.9300    0.0000    0.0000    4.2170    0.0000    0.0000    0.3320  103.7127   10.1000 
2598.0000  101.6110  -32.4386  149.7770    0.1043    0.4809    0.0502    0.4206    0.0000 -999.0000    0.4033    0.0000    0.0000    0.0000    0.0000    0.0000   76.0600   23.9400    0.0000    0.0000    3.8668    0.0000    0.0000    0.3160  103.7172   10.1000 
2598.5000   97.4240  -31.2660  142.4465    0.0986    0.5216    0.0514    0.4523    0.0000 -999.0000    0.2838    0.0000    0.0000    0.0000    0.0000    0.0000   76.0500   23.9500    0.0000    0.0000    2.8788    0.0000    0.0000    0.2668  103.7218   10.1000 
2599.0000   93.2370  -30.0935  135.1160    0.0929    0.5685    0.0528    0.4840    0.0000 -999.0000    0.1956    0.0000    0.0000    0.0000    0.0000    0.0000   76.0400   23.9600    0.0000    0.0000    2.1062    0.0000    0.0000    0.2231  103.7264   10.1000 
2599.5000   88.8060  -28.4884  128.2860    0.0851    0.6370    0.0542    0.5273    0.0000 -999.0000    0.1146    0.0000    0.0000    0.0000    0.0000    0.0000   76.0300   23.9700    0.0000    0.0000    1.3465    0.0000    0.0000    0.1726  103.7309   10.1000 
2600.0000   84.3750  -26.8834  121.4560    0.0773    0.7208    0.0557    0.5707    0.0000 -999.0000    0.0638    0.0000    0.0000    0.0000    0.0000    0.0000   76.0200   23.9800    0.0000    0.0000    0.8254    0.0000    0.0000    0.1304  103.7355   10.1000 
2600.5000   79.8565  -26.1993  119.1770    0.0739    0.7604    0.0562    0.5892    0.0000 -999.0000    0.0489    0.0000    0.0000    0.0000    0.0000    0.0000   76.0100   23.9900    0.0000    0.0000    0.6619    0.0000    0.0000    0.1149  103.7401   10.1000 
2601.0000   75.3380  -25.5152  116.8980    0.0699    0.8116    0.0568    0.6077    0.0000 -999.0000    0.0351    0.0000    0.0000    0.0000    0.0000    0.0000   76.0000   24.0000    0.0000    0.0000    0.5020    0.0000    0.0000    0.0980  103.7446   10.1000 
2601.5000   73.2365  -24.6782  117.9450    0.0611    0.9253    0.0565    0.6303    0.0000 -999.0000    0.0161    0.0000    0.0000    0.0000    0.0000    0.0000   75.9900   24.0100    0.0000    0.0000    0.2631    0.0000    0.0000    0.0677  103.7492   10.1000 
2602.0000   71.1350  -23.8411  118.9920    0.0507    1.0000    0.0507    0.6529    0.0092 -999.0000    0.0061    0.0000    0.0000    0.0000    0.0000    0.0000   75.9800   24.0200    0.0000    0.0000    0.1198    0.0000    0.0000    0.0430  103.7538   10.1000 
2602.5000   76.9855  -23.5516  122.7455    0.0471    1.0000    0.0471    0.6608    0.0256 -999.0000    0.0042    0.0000    0.0000    0.0000    0.0000    0.0000   75.9700   24.0300    0.0000    0.0000    0.0903    0.0000    0.0000    0.0366  103.7583   10.1000 
2603.0000   82.8360  -23.2620  126.4990    0.0435    1.0000    0.0435    0.6686    0.0416 -999.0000    0.0029    0.0000    0.0000    0.0000    0.0000    0.0000   75.9600   24.0400    0.0000    0.0000    0.0669    0.0000    0.0000    0.0308  103.7629   10.1000 
2603.5000   95.5965  -23.9005  129.8560    0.0514    1.0000    0.0514    0.6513    0.0058 -999.0000    0.0065    0.0000    0.0000    0.0000    0.0000    0.0000   75.9500   24.0500    0.0000    0.0000    0.1267    0.0000    0.0000    0.0445  103.7675   10.1000 
2604.0000  108.3570  -24.5389  133.2130    0.0594    0.8952    0.0532    0.6341    0.0000 -999.0000    0.0145    0.0000    0.0000    0.0000    0.0000    0.0000   75.9400   24.0600    0.0000    0.0000    0.2446    0.0000    0.0000    0.0649  103.7720   10.1000 
2604.5000  119.8185  -26.1563  139.4480    0.0737    0.7048    0.0520    0.5904    0.0000 -999.0000    0.0521    0.0000    0.0000    0.0000    0.0000    0.0000   75.9300   24.0700    0.0000    0.0000    0.7064    0.0000    0.0000    0.1192  103.7766   10.1000 
2605.0000  131.2800  -27.7738  145.6830    0.0816    0.6230    0.0508    0.5467    0.0000 -999.0000    0.0959    0.0000    0.0000    0.0000    0.0000    0.0000   75.9200   24.0800    0.0000    0.0000    1.1748    0.0000    0.0000    0.1595  103.7812   10.1000 
2605.5000  142.8395  -29.9827  159.8755    0.0923    0.5255    0.0485    0.4870    0.0000 -999.0000    0.2058    0.0000    0.0000    0.0000    0.0000    0.0000   75.9100   24.0900    0.0000    0.0000    2.2286    0.0000    0.0000    0.2302  103.7857   10.1000 
2606.0000  154.3990  -32.1917  174.0680    0.1031    0.4511    0.0465    0.4273    0.0000 -999.0000    0.4067    0.0000    0.0000    0.0000    0.0000    0.0000   75.9000   24.1000    0.0000    0.0000    3.9444    0.0000    0.0000    0.3194  103.7903   10.1000 
2606.5000  161.6320  -33.4666  180.3465    0.1093    0.4181    0.0457    0.3928    0.0000 -999.0000    0.5809    0.0000    0.0000    0.0000    0.0000    0.0000   75.8900   24.1100    0.0000    0.0000    5.3146    0.0000    0.0000    0.3789  103.7948   10.1000 
2607.0000  168.8650  -34.7415  186.6250    0.1155    0.3889    0.0449    0.3583    0.0000 -999.0000    0.8139    0.0000    0.0000    0.0000    0.0000    0.0000   75.8800   24.1200    0.0000    0.0000    7.0465    0.0000    0.0000    0.4454  103.7994   10.1000 
2607.5000  171.3285  -35.2255  189.6555    0.1179    0.3781    0.0446    0.3453    0.0000 -999.0000    0.9223    0.0000    0.0000    0.0000    0.0000    0.0000   75.8700   24.1300    1.0000    1.0000    7.8262    1.0000    1.0000    0.4730  103.8040   10.1000 
