~VERSION INFORMATION
 VERS.                 2.0:   CWLS LOG ASCII STANDARD - VERSION 2.0
 WRAP.                  NO:   SINGLE LINE PER DEPTH STEP
 CREA.                 03/05/2017 10:34:44
#CREATED USING IP VERSION 4.2.2015.61 BY PANESSOR ON 03/05/2017 10:34:44
~WELL INFORMATION
#MNEM.UNIT       DATA                          DESCRIPTION MNEMONIC
#---------      ---------------------------   --------------------------
 STRT    .FT        500.0000                  : START DEPTH
 STOP    .FT        5680.0000                 : STOP DEPTH
 STEP    .FT        0.5000                    : STEP VALUE
 NULL    .      -999.0000                     : NULL VALUE
 DATE    .      03/05/2017                    : LAS file Creation Date
 WELL  .      CRISOL-3            : Well Name
 COMP  .      INTERCOL            : Company
 FLD   .      WILDCAT             : Field
 STATE .      MAGDALENA           : State
 COUNT .      COLOMBIA            : Country
 API   .      CRIL0003            : API Number
 UWI   .      100000000377        : Unique Well Identifier (UWI)
 LOC   .      GAUSS ORIGIN BOGOTA : Location
 LATI  .      1                   : Latitude/Northing
 LONG  .      1                   : Longitude/Easting
 RWS   .      -999                : Def_Rw
 WST   .      -999                : Def_Rwt
 CNTY  .      N/A                 : County
 PROV  .                          : Province
 SRVC  .      SCH                 : Contractor
~CURVE INFORMATION
#MNEM                UNIT       API CODE     Description
#----------    --------------- ----------  --------------
 DEPTH        .FT                        : 
 RM_IR        .OHMM                      : Medium Resistivity
 RD_IR        .OHMM                      : Formation Deep Resitivity
 LAT_E_IR     .OHMM                      : Lateral AO18'8"
 SPC_IR       .MV                        : Spontaneous Potential
 PHIE_IR      .Dec                       : Effective Porosity
 SW_IR        .Dec                       : Effective Water Saturation
 BVW_IR       .Dec                       : Bulk Volume water (Phie x SW)
 VWCL_IR      .Dec                       : Volume wet Clay
 VSILT_IR     .Dec                       : Volume Silt
 SLST_IR      .%                         : Mudlog SILSTONE
 SS_IR        .%                         : Mudlog SANDSTONE
 CONG_IR      .%                         : Mudlog CONGLOMERATE
 MARL_IR      .%                         : Mudlog MARLSTONE
 ResFlag_IR   .                          : Net Reservoir
 IGNEOUS_IR   .us/ft                     : Mudlog IGNEOUS
 LS_IR        .us/ft                     : Mudlog LIMESTONE
 SH_IR        .%                         : Mudlog SHALE
 PayFlag_IR   .                          : Net Pay
 Perm_IR      .md                        : Calculated Permeability
 PayFlagRT_IR .                          : Pay Flag Rock Type
 ResFlagRT_IR .                          : Net Reservoir Rock Type
 K_PHI_IR     .                          : K/PHI RATIO
 Rock_Type_IR .microns                   : Pore Throat Size - Rock Types
 Temp_IR      .F                         : Formation Temperature
~P Interactive Petrophysics parameters
#Name        Value                 Description
#----- --------------------------  -----------
#Logging Run 
 RUN  .     1           : Run Number
 DATE .     23/04/1954  : Date                      | RUN[0]
 DFT  .     /           : Type of Fluid in Hole     | RUN[1]
~A  DEPTH   RM_IR     RD_IR    LAT_E_IR   SPC_IR   PHIE_IR    SW_IR     BVW_IR   VWCL_IR   VSILT_IR  SLST_IR    SS_IR    CONG_IR   MARL_IR  ResFlag_~ IGNEOUS_~   LS_IR     SH_IR   PayFlag_~  Perm_IR  PayFlagR~ ResFlagR~  K_PHI_IR Rock_Typ~  Temp_IR  
# ...
1876.0000    5.4080    5.7650   10.0220  -16.6102 -999.0000 -999.0000 -999.0000 -999.0000 -999.0000    0.0000   17.3735    0.0000    0.0000    0.0000    0.0000    0.0000   82.6265    0.0000    0.0000    0.0000    0.0000 -999.0000 -999.0000   94.6283 
1876.5000    5.4370    5.7310   10.0540  -17.0290 -999.0000 -999.0000 -999.0000 -999.0000 -999.0000    0.0000   17.3806    0.0000    0.0000    0.0000    0.0000    0.0000   82.6194    0.0000    0.0000    0.0000    0.0000 -999.0000 -999.0000   94.6335 
1877.0000    5.4290    5.6600   10.1380  -17.4178 -999.0000 -999.0000 -999.0000 -999.0000 -999.0000    0.0000   17.3876    0.0000    0.0000    0.0000    0.0000    0.0000   82.6124    0.0000    0.0000    0.0000    0.0000 -999.0000 -999.0000   94.6388 
1877.5000    5.3770    5.5970   10.2780  -17.5093 -999.0000 -999.0000 -999.0000 -999.0000 -999.0000    0.0000   17.3947    0.0000    0.0000    0.0000    0.0000    0.0000   82.6053    0.0000    0.0000    0.0000    0.0000 -999.0000 -999.0000   94.6440 
1878.0000    5.3080    5.4050   10.5570  -17.0387 -999.0000 -999.0000 -999.0000 -999.0000 -999.0000    0.0000   17.4018    0.0000    0.0000    0.0000    0.0000    0.0000   82.5982    0.0000    0.0000    0.0000    0.0000 -999.0000 -999.0000   94.6492 
1878.5000    5.2550    5.1470   10.8360  -16.8422 -999.0000 -999.0000 -999.0000 -999.0000 -999.0000    0.0000   17.4088    0.0000    0.0000    0.0000    0.0000    0.0000   82.5911    0.0000    0.0000    0.0000    0.0000 -999.0000 -999.0000   94.6545 
1879.0000    5.1570    4.9050   11.2770  -16.8727 -999.0000 -999.0000 -999.0000 -999.0000 -999.0000    0.0000   17.4159    0.0000    0.0000    0.0000    0.0000    0.0000   82.5841    0.0000    0.0000    0.0000    0.0000 -999.0000 -999.0000   94.6597 
1879.5000    5.0590    4.6200   11.7230  -16.6741 -999.0000 -999.0000 -999.0000 -999.0000 -999.0000    0.0000   17.4230    0.0000    0.0000    0.0000    0.0000    0.0000   82.5770    0.0000    0.0000    0.0000    0.0000 -999.0000 -999.0000   94.6649 
1880.0000    4.9820    4.4320   11.8420  -15.9356 -999.0000 -999.0000 -999.0000 -999.0000 -999.0000    0.0000   17.4300    0.0000    0.0000    0.0000    0.0000    0.0000   82.5700    0.0000    0.0000    0.0000    0.0000 -999.0000 -999.0000   94.6702 
1880.5000    4.5830    4.2580   11.8680  -14.9560 -999.0000 -999.0000 -999.0000 -999.0000 -999.0000    0.0000   17.4371    0.0000    0.0000    0.0000    0.0000    0.0000   82.5629    0.0000    0.0000    0.0000    0.0000 -999.0000 -999.0000   94.6754 
1881.0000    4.2930    4.2220   11.8610  -14.6064 -999.0000 -999.0000 -999.0000 -999.0000 -999.0000    0.0000   17.4442    0.0000    0.0000    0.0000    0.0000    0.0000   82.5558    0.0000    0.0000    0.0000    0.0000 -999.0000 -999.0000   94.6806 
1881.5000    3.9670    4.2490   11.8290  -14.3495 -999.0000 -999.0000 -999.0000 -999.0000 -999.0000    0.0000   17.4513    0.0000    0.0000    0.0000    0.0000    0.0000   82.5488    0.0000    0.0000    0.0000    0.0000 -999.0000 -999.0000   94.6859 
1882.0000    3.8440    4.3630   11.1720  -14.1078 -999.0000 -999.0000 -999.0000 -999.0000 -999.0000    0.0000   17.4583    0.0000    0.0000    0.0000    0.0000    0.0000   82.5417    0.0000    0.0000    0.0000    0.0000 -999.0000 -999.0000   94.6911 
1882.5000    3.5910    4.4510    9.9100  -13.7692 -999.0000 -999.0000 -999.0000 -999.0000 -999.0000    0.0000   17.4654    0.0000    0.0000    0.0000    0.0000    0.0000   82.5347    0.0000    0.0000    0.0000    0.0000 -999.0000 -999.0000   94.6963 
1883.0000    3.5760    4.7840    8.5650  -13.7281 -999.0000 -999.0000 -999.0000 -999.0000 -999.0000    0.0000   17.4724    0.0000    0.0000    0.0000    0.0000    0.0000   82.5276    0.0000    0.0000    0.0000    0.0000 -999.0000 -999.0000   94.7015 
1883.5000    3.6050    5.0850    7.1590  -13.8885 -999.0000 -999.0000 -999.0000 -999.0000 -999.0000    0.0000   17.4795    0.0000    0.0000    0.0000    0.0000    0.0000   82.5205    0.0000    0.0000    0.0000    0.0000 -999.0000 -999.0000   94.7068 
1884.0000    3.7070    5.3280    6.3560  -14.2316 -999.0000 -999.0000 -999.0000 -999.0000 -999.0000    0.0000   17.4866    0.0000    0.0000    0.0000    0.0000    0.0000   82.5134    0.0000    0.0000    0.0000    0.0000 -999.0000 -999.0000   94.7120 
1884.5000    3.9460    5.5390    5.6420  -14.7388 -999.0000 -999.0000 -999.0000 -999.0000 -999.0000    0.0000   17.4937    0.0000    0.0000    0.0000    0.0000    0.0000   82.5063    0.0000    0.0000    0.0000    0.0000 -999.0000 -999.0000   94.7172 
1885.0000    4.3300    5.6120    5.4550  -15.0876 -999.0000 -999.0000 -999.0000 -999.0000 -999.0000    0.0000   17.5007    0.0000    0.0000    0.0000    0.0000    0.0000   82.4993    0.0000    0.0000    0.0000    0.0000 -999.0000 -999.0000   94.7225 
1885.5000    5.0540    5.7300    5.4610  -15.1991 -999.0000 -999.0000 -999.0000 -999.0000 -999.0000    0.0000   17.5077    0.0000    0.0000    0.0000    0.0000    0.0000   82.4922    0.0000    0.0000    0.0000    0.0000 -999.0000 -999.0000   94.7277 
1886.0000    5.7430    5.8030    5.6520  -15.2827 -999.0000 -999.0000 -999.0000 -999.0000 -999.0000    0.0000   17.5148    0.0000    0.0000    0.0000    0.0000    0.0000   82.4852    0.0000    0.0000    0.0000    0.0000 -999.0000 -999.0000   94.7329 
1886.5000    6.1340    5.8760    5.9130  -15.3905 -999.0000 -999.0000 -999.0000 -999.0000 -999.0000    0.0000   17.5219    0.0000    0.0000    0.0000    0.0000    0.0000   82.4781    0.0000    0.0000    0.0000    0.0000 -999.0000 -999.0000   94.7382 
1887.0000    6.4820    5.9160    6.1920  -15.6430 -999.0000 -999.0000 -999.0000 -999.0000 -999.0000    0.0000   17.5290    0.0000    0.0000    0.0000    0.0000    0.0000   82.4710    0.0000    0.0000    0.0000    0.0000 -999.0000 -999.0000   94.7434 
1887.5000    6.8300    6.0060    6.5080  -15.9492 -999.0000 -999.0000 -999.0000 -999.0000 -999.0000    0.0000   17.5360    0.0000    0.0000    0.0000    0.0000    0.0000   82.4640    0.0000    0.0000    0.0000    0.0000 -999.0000 -999.0000   94.7486 
1888.0000    7.1560    6.1710    7.0210  -16.2622 -999.0000 -999.0000 -999.0000 -999.0000 -999.0000    0.0000   17.5431    0.0000    0.0000    0.0000    0.0000    0.0000   82.4569    0.0000    0.0000    0.0000    0.0000 -999.0000 -999.0000   94.7539 
1888.5000    7.3370    6.4270    7.2500  -16.5953 -999.0000 -999.0000 -999.0000 -999.0000 -999.0000    0.0000   17.5502    0.0000    0.0000    0.0000    0.0000    0.0000   82.4498    0.0000    0.0000    0.0000    0.0000 -999.0000 -999.0000   94.7591 
1889.0000    7.5220    6.6650    7.6820  -16.7873 -999.0000 -999.0000 -999.0000 -999.0000 -999.0000    0.0000   17.5573    0.0000    0.0000    0.0000    0.0000    0.0000   82.4427    0.0000    0.0000    0.0000    0.0000 -999.0000 -999.0000   94.7643 
1889.5000    7.6580    6.9230    7.9720  -16.9614 -999.0000 -999.0000 -999.0000 -999.0000 -999.0000    0.0000   23.5746    0.0000    0.0000    0.0000    0.0000    0.0000   76.4254    0.0000    0.0000    0.0000    0.0000 -999.0000 -999.0000   94.7696 
1890.0000    7.7950    7.1080    8.0250  -17.2502 -999.0000 -999.0000 -999.0000 -999.0000 -999.0000    0.0000   29.5920    0.0000    0.0000    0.0000    0.0000    0.0000   70.4080    0.0000    0.0000    0.0000    0.0000 -999.0000 -999.0000   94.7748 
1890.5000    7.8890    7.4250    8.4980  -17.7122 -999.0000 -999.0000 -999.0000 -999.0000 -999.0000    0.0000   31.0810    0.0000    0.0000    0.0000    0.0000    0.0000   68.9190    0.0000    0.0000    0.0000    0.0000 -999.0000 -999.0000   94.7800 
1891.0000    7.9100    7.6870    8.7070  -18.1132 -999.0000 -999.0000 -999.0000 -999.0000 -999.0000    0.0000   32.5700    0.0000    0.0000    0.0000    0.0000    0.0000   67.4300    0.0000    0.0000    0.0000    0.0000 -999.0000 -999.0000   94.7852 
1891.5000    7.9530    7.8960    8.8560  -18.8410 -999.0000 -999.0000 -999.0000 -999.0000 -999.0000    0.0000   32.5558    0.0000    0.0000    0.0000    0.0000    0.0000   67.4442    0.0000    0.0000    0.0000    0.0000 -999.0000 -999.0000   94.7905 
