~VERSION INFORMATION
 VERS.                 2.0:   CWLS LOG ASCII STANDARD - VERSION 2.0
 WRAP.                  NO:   SINGLE LINE PER DEPTH STEP
 CREA.                 03/05/2017 12:05:25
#CREATED USING IP VERSION 4.2.2015.61 BY PANESSOR ON 03/05/2017 12:05:25
~WELL INFORMATION
#MNEM.UNIT       DATA                          DESCRIPTION MNEMONIC
#---------      ---------------------------   --------------------------
 STRT    .FT        500.0000                  : START DEPTH
 STOP    .FT        4532.0000                 : STOP DEPTH
 STEP    .FT        0.5000                    : STEP VALUE
 NULL    .      -999.0000                     : NULL VALUE
 DATE    .      03/05/2017                    : LAS file Creation Date
 WELL  .      CRISOL-1            : Well Name
 COMP  .      INTERCOL            : Company
 FLD   .      WILDCAT             : Field
 STATE .      CESAR               : State
 COUNT .      COLOMBIA            : Country
 API   .      CRIL0001            : API Number
 UWI   .      CRIL0001            : Unique Well Identifier (UWI)
 LOC   .      GAUSS ORIGIN BOGOTA : Location
 LATI  .      1.0147222222        : Latitude/Northing
 LONG  .      1.0086111111        : Longitude/Easting
 RWS   .      -999                : Def_Rw
 WST   .      -999                : Def_Rwt
 PROV  .                          : Province
 SRVC  .      SCH                 : Contractor
~CURVE INFORMATION
#MNEM                 UNIT       API CODE     Description
#----------     --------------- ----------  --------------
 DEPTH         .FT                        : 
 RM_IR         .OHMM                      : Medium Resistivity
 SPC_IR        .MV                        : Spontaneous Potential
 RD_E_IR       .OHMM                      : Formation Deep Resitivity
 PHIE_IR       .Dec                       : Effective Porosity
 SW_IR         .Dec                       : Effective Water Saturation
 BVW_IR        .Dec                       : Bulk Volume water (Phie x SW)
 VWCL_IR       .Dec                       : Volume wet Clay
 VSILT_IR      .Dec                       : Volume Silt
 Perfs_IR      .B/E                       : Photoelectric Factor
 Perm_IR       .md                        : Calculated Permeability
 CGL_IR        .%                         : Mudlog CONGLOMERATE
 SS_IR         .%                         : Mudlog SANDSTONE
 SLS_IR        .%                         : Mudlog SILSTONE
 CLST_IR       .%                         : Mudlog CLAYSTONE
 SH_IR         .%                         : Mudlog Shale
 MARL_IR       .%                         : Mudlog MARLSTONE
 LS_IR         .%                         : Mudlog LIMESTONE
 ResFlag_IR    .                          : Net Reservoir
 PayFlag_IR    .                          : Net Pay
 K_PHI_IR      .                          : K/PHI RATIO
 PayFlagRT_IR  .                          : Pay Flag Rock Type
 ResFlagRT_IR  .                          : Net Reservoir Rock Type
 Rock_Type_IR  .microns                   : Pore Throat Size - Rock Types
 Temp_IR       .F                         : Formation Temperature
 MUD_WEIGHT_IR .PPG                       : MUD_WEIGHT
~P Interactive Petrophysics parameters
#Name        Value                 Description
#----- --------------------------  -----------
#Logging Run 
 RUN  .     1                    : Run Number
 DATE .     24-OCT-1953          : Date                      | RUN[0]
 BLI  .     2565                 : Btm Log Interval          | RUN[1]
 TLI  .     517                  : Top Log Interval          | RUN[1]
 BS   .     8.625                : Bit Size                  | RUN[1]
 DFT  .     /                    : Type of Fluid in Hole     | RUN[1]
 RM   .     5.9                  : Rm                        | RUN[1]
 MST  .     84                   : at Meas Temp              | RUN[1]
 R1   .     SPS LTDA.            : Remark 1                  | RUN[1]
 R2   .     PLUG BACK 3808 FT.   : Remark 2                  | RUN[1]
 R3   .     ABANDONED GAS WELL.  : Remark 3                  | RUN[1]
#Logging Run 
 RUN  .     2                    : Run Number
 DATE .     14-NOV-1953          : Date                      | RUN[1]
 BLI  .     4053                 : Btm Log Interval          | RUN[2]
 TLI  .     3000                 : Top Log Interval          | RUN[2]
 BS   .     9.625                : Bit Size                  | RUN[2]
 RM   .     3.8                  : Rm                        | RUN[2]
 MST  .     87                   : at Meas Temp              | RUN[2]
 R1   .     SPS LTDA.            : Remark 1                  | RUN[2]
 R2   .     PLUG BACK 3808 FT.   : Remark 2                  | RUN[2]
 R3   .     ABANDONED GAS WELL.  : Remark 3                  | RUN[2]
~A  DEPTH   RM_IR     SPC_IR   RD_E_IR   PHIE_IR    SW_IR     BVW_IR   VWCL_IR   VSILT_IR  Perfs_IR  Perm_IR    CGL_IR    SS_IR     SLS_IR   CLST_IR    SH_IR    MARL_IR    LS_IR   ResFlag_~ PayFlag_~  K_PHI_IR PayFlagR~ ResFlagR~ Rock_Typ~  Temp_IR  MUD_WEIG~ 
# ...
2344.5000    6.5450  -12.1123    6.1500    0.0001    1.0000    0.0001    0.9722    0.0271 -999.0000    0.0000    0.0000    0.0000    0.0000    0.0000  100.0000    0.0000    0.0000    0.0000    0.0000    0.0000    0.0000    0.0000    0.0000  101.4030   10.1000 
2345.0000    6.6470  -12.7401    6.1280    0.0001    1.0000    0.0001    0.9565    0.0428 -999.0000    0.0000    0.0000    0.0000    0.0000    0.0000  100.0000    0.0000    0.0000    0.0000    0.0000    0.0000    0.0000    0.0000    0.0000  101.4076   10.1000 
2345.5000    6.7740  -13.3570    6.0330    0.0002    1.0000    0.0002    0.9411    0.0578 -999.0000    0.0000    0.0000    0.0000    0.0000    0.0000  100.0000    0.0000    0.0000    0.0000    0.0000    0.0000    0.0000    0.0000    0.0000  101.4122   10.1000 
2346.0000    6.9020  -13.9738    5.9860    0.0003    1.0000    0.0003    0.9257    0.0724 -999.0000    0.0000    0.0000    0.0000    0.0000    0.0000  100.0000    0.0000    0.0000    0.0000    0.0000    0.0000    0.0000    0.0000    0.0000  101.4167   10.1000 
2346.5000    7.0290  -14.5907    5.8290    0.0005    1.0000    0.0005    0.9102    0.0866 -999.0000    0.0000    0.0000    0.0000    0.0000    0.0000  100.0000    0.0000    0.0000    0.0000    0.0000    0.0000    0.0000    0.0000    0.0000  101.4213   10.1000 
2347.0000    7.1600  -15.2745    5.6640    0.0008    1.0000    0.0008    0.8931    0.1018 -999.0000    0.0000    0.0000    0.0000    0.0000    0.0000  100.0000    0.0000    0.0000    0.0000    0.0000    0.0000    0.0000    0.0000    0.0000  101.4259   10.1000 
2347.5000    7.2170  -15.6394    5.5350    0.0010    1.0000    0.0010    0.8840    0.1095 -999.0000    0.0000    0.0000    0.0000    0.0000    0.0000  100.0000    0.0000    0.0000    0.0000    0.0000    0.0000    0.0000    0.0000    0.0000  101.4304   10.1000 
2348.0000    7.2320  -15.8832    5.3880    0.0011    1.0000    0.0011    0.8779    0.1146 -999.0000    0.0000    0.0000    0.0000    0.0000    0.0000  100.0000    0.0000    0.0000    0.0000    0.0000    0.0000    0.0000    0.0000    0.0000  101.4350   10.1000 
2348.5000    7.2320  -15.7630    5.3360    0.0010    1.0000    0.0010    0.8809    0.1121 -999.0000    0.0000    0.0000    0.0000    0.0000    0.0000  100.0000    0.0000    0.0000    0.0000    0.0000    0.0000    0.0000    0.0000    0.0000  101.4396   10.1000 
2349.0000    7.1840  -15.2779    5.2680    0.0008    1.0000    0.0008    0.8931    0.1019 -999.0000    0.0000    0.0000    0.0000    0.0000    0.0000  100.0000    0.0000    0.0000    0.0000    0.0000    0.0000    0.0000    0.0000    0.0000  101.4441   10.1000 
2349.5000    7.0400  -13.9427    5.2150    0.0003    1.0000    0.0003    0.9264    0.0717 -999.0000    0.0000    0.0000    0.0000    0.0000    0.0000  100.0000    0.0000    0.0000    0.0000    0.0000    0.0000    0.0000    0.0000    0.0000  101.4487   10.1000 
2350.0000    6.8910  -12.7156    5.1760    0.0001    1.0000    0.0001    0.9571    0.0422 -999.0000    0.0000    0.0000    0.0000    0.0000    0.0000  100.0000    0.0000    0.0000    0.0000    0.0000    0.0000    0.0000    0.0000    0.0000  101.4532   10.1000 
2350.5000    6.7370  -11.4354    5.1430    0.0001    1.0000    0.0001    0.9891    0.0102 -999.0000    0.0000    0.0000    0.0000    0.0000    0.0000  100.0000    0.0000    0.0000    0.0000    0.0000    0.0000    0.0000    0.0000    0.0000  101.4578   10.1000 
2351.0000    6.5840  -10.6823    5.1440    0.0001    1.0000    0.0001    1.0000    0.0000 -999.0000    0.0000    0.0000    0.0000    0.0000    0.0000  100.0000    0.0000    0.0000    0.0000    0.0000    0.0000    0.0000    0.0000    0.0000  101.4624   10.1000 
2351.5000    6.4310  -10.7571    5.1440    0.0001    1.0000    0.0001    1.0000    0.0000 -999.0000    0.0000    0.0000    0.0000    0.0000    0.0000  100.0000    0.0000    0.0000    0.0000    0.0000    0.0000    0.0000    0.0000    0.0000  101.4669   10.1000 
2352.0000    6.3210  -10.8400    5.1440    0.0001    1.0000    0.0001    1.0000    0.0000 -999.0000    0.0000    0.0000    0.0000    0.0000    0.0000  100.0000    0.0000    0.0000    0.0000    0.0000    0.0000    0.0000    0.0000    0.0000  101.4715   10.1000 
2352.5000    6.1730  -10.9298    5.2390    0.0001    1.0000    0.0001    1.0000    0.0000 -999.0000    0.0000    0.0000    0.0000    0.0000    0.0000  100.0000    0.0000    0.0000    0.0000    0.0000    0.0000    0.0000    0.0000    0.0000  101.4761   10.1000 
2353.0000    6.0250  -11.0187    5.2710    0.0001    1.0000    0.0001    0.9995    0.0000 -999.0000    0.0000    0.0000    0.0000    0.0000    0.0000  100.0000    0.0000    0.0000    0.0000    0.0000    0.0000    0.0000    0.0000    0.0000  101.4806   10.1000 
2353.5000    5.8760  -11.1085    5.2860    0.0001    1.0000    0.0001    0.9973    0.0020 -999.0000    0.0000    0.0000    0.0000    0.0000    0.0000  100.0000    0.0000    0.0000    0.0000    0.0000    0.0000    0.0000    0.0000    0.0000  101.4852   10.1000 
2354.0000    5.7160  -11.1183    5.3140    0.0001    1.0000    0.0001    0.9970    0.0023 -999.0000    0.0000    0.0000    0.0000    0.0000    0.0000  100.0000    0.0000    0.0000    0.0000    0.0000    0.0000    0.0000    0.0000    0.0000  101.4898   10.1000 
2354.5000    5.6680  -10.9172    5.3120    0.0001    1.0000    0.0001    1.0000    0.0000 -999.0000    0.0000    0.0000    0.0000    0.0000    0.0000  100.0000    0.0000    0.0000    0.0000    0.0000    0.0000    0.0000    0.0000    0.0000  101.4943   10.1000 
2355.0000    5.6680  -10.7170    5.3100    0.0001    1.0000    0.0001    1.0000    0.0000 -999.0000    0.0000    0.0000    0.0000    0.0000    0.0000  100.0000    0.0000    0.0000    0.0000    0.0000    0.0000    0.0000    0.0000    0.0000  101.4989   10.1000 
2355.5000    5.7160  -10.5519    5.3510    0.0001    1.0000    0.0001    1.0000    0.0000 -999.0000    0.0000    0.0000    0.0000    0.0000    0.0000  100.0000    0.0000    0.0000    0.0000    0.0000    0.0000    0.0000    0.0000    0.0000  101.5035   10.1000 
2356.0000    5.7640  -10.5527    5.4010    0.0001    1.0000    0.0001    1.0000    0.0000 -999.0000    0.0000    0.0000    0.0000    0.0000    0.0000  100.0000    0.0000    0.0000    0.0000    0.0000    0.0000    0.0000    0.0000    0.0000  101.5080   10.1000 
2356.5000    5.7640  -10.4326    5.4130    0.0001    1.0000    0.0001    1.0000    0.0000 -999.0000    0.0000    0.0000    0.0000    0.0000    0.0000  100.0000    0.0000    0.0000    0.0000    0.0000    0.0000    0.0000    0.0000    0.0000  101.5126   10.1000 
2357.0000    5.7880  -10.4334    5.4360    0.0001    1.0000    0.0001    1.0000    0.0000 -999.0000    0.0000    0.0000    0.0000    0.0000    0.0000  100.0000    0.0000    0.0000    0.0000    0.0000    0.0000    0.0000    0.0000    0.0000  101.5172   10.1000 
2357.5000    5.8360  -10.4343    5.4540    0.0001    1.0000    0.0001    1.0000    0.0000 -999.0000    0.0000    0.0000    0.0000    0.0000    0.0000  100.0000    0.0000    0.0000    0.0000    0.0000    0.0000    0.0000    0.0000    0.0000  101.5217   10.1000 
2358.0000    5.9090  -10.4641    5.4820    0.0001    1.0000    0.0001    1.0000    0.0000 -999.0000    0.0000    0.0000    0.0000    0.0000    0.0000  100.0000    0.0000    0.0000    0.0000    0.0000    0.0000    0.0000    0.0000    0.0000  101.5263   10.1000 
2358.5000    6.0290  -10.5850    5.4810    0.0001    1.0000    0.0001    1.0000    0.0000 -999.0000    0.0000    0.0000    0.0000    0.0000    0.0000  100.0000    0.0000    0.0000    0.0000    0.0000    0.0000    0.0000    0.0000    0.0000  101.5308   10.1000 
2359.0000    6.1390  -10.7058    5.4440    0.0001    1.0000    0.0001    1.0000    0.0000 -999.0000    0.0000    0.0000    0.0000    0.0000    0.0000  100.0000    0.0000    0.0000    0.0000    0.0000    0.0000    0.0000    0.0000    0.0000  101.5354   10.1000 
2359.5000    6.2640  -10.8266    5.3690    0.0001    1.0000    0.0001    1.0000    0.0000 -999.0000    0.0000    0.0000    0.0000    0.0000    0.0000  100.0000    0.0000    0.0000    0.0000    0.0000    0.0000    0.0000    0.0000    0.0000  101.5400   10.1000 
