~VERSION INFORMATION
 VERS.                 2.0:   CWLS LOG ASCII STANDARD - VERSION 2.0
 WRAP.                  NO:   SINGLE LINE PER DEPTH STEP
 CREA.                 16/2/2017 12:08:22 p. m.
#CREATED USING IP VERSION 4.2.2015.61 BY PANESSOR ON 16/2/2017 12:08:22 p. m.
~WELL INFORMATION
#MNEM.UNIT       DATA                          DESCRIPTION MNEMONIC
#---------      ---------------------------   --------------------------
 STRT    .FT        470.0000                  : START DEPTH
 STOP    .FT        5740.0000                 : STOP DEPTH
 STEP    .FT        0.5000                    : STEP VALUE
 NULL    .      -999.0000                     : NULL VALUE
 DATE    .      16/2/2017                     : LAS file Creation Date
 WELL  .      CRISOL-2      : Well Name
 COMP  .      INTERCOL      : Company
 FLD   .      141-AGUACHICA : Field
 STATE .      MAGDALENA     : State
 COUNT .      COLOMBIA      : Country
 API   .      CRIL0002      : API Number
 UWI   .      100000000372  : Unique Well Identifier (UWI)
 LOC   .                    : Location
 LATI  .      1.0038888889  : Latitude/Northing
 LONG  .      1.0080555556  : Longitude/Easting
 RWS   .      -999          : Def_Rw
 WST   .      -999          : Def_Rwt
 PROV  .                    : Province
 SRVC  .      SCH           : Contractor
~CURVE INFORMATION
#MNEM                UNIT       API CODE     Description
#----------    --------------- ----------  --------------
 DEPTH        .FT                        : 
 RM_IR        .OHMM                      : Resistivity AM 16"
 SPC_IR       .MV                        : Spontaneous Potential
 RD_E_IR      .OHMM                      : Formation Resitivity
 PHIE_IR      .Dec                       : Effective Porosity
 SW_IR        .Dec                       : Water Saturation
 BVW_IR       .Dec                       : Bulk Volume water (Phie x SW)
 VWCL_IR      .Dec                       : Volume wet Clay
 VSILT_IR     .Dec                       : Volume Silt
 CONG_IR      .%                         : Mudlog CONGLOMERATE
 SS_IR        .%                         : Mudlog SANDSTONE
 LS_IR        .%                         : Mudlog LIMESTONE
 MARL_IR      .%                         : Mudlog MARLSTONE
 SLST_IR      .%                         : Mudlog SILSTONE
 SH_IR        .%                         : Mudlog SHALE
 COAL_IR      .%                         : Mudlog  COAL
 IGNEOUS_IR   .%                         : Mudlog IGNEOUS
 ResFlag_IR   .                          : Net Reservoir
 PayFlag_IR   .                          : Net Pay
 PERFS_IR     .B/E                       : Perforations
 Perm_IR      .md                        : Calculated Permeability
 PayFlagRT_IR .                          : Pay Flag Rock Type
 K_PHI_IR     .                          : K/PHI RATIO
 ResFlagRT_IR .                          : Net Reservoir Rock Type
 Rock_Type_IR .microns                   : Pore Throat Size - Rock Types
 Temp_IR      .F                         : Formation Temperature
~P Interactive Petrophysics parameters
#Name        Value                 Description
#----- --------------------------  -----------
#Logging Run 
 RUN  .     1           : Run Number
 DATE .     27/02/1954  : Date                      | RUN[0]
 DFT  .     /           : Type of Fluid in Hole     | RUN[1]
~A  DEPTH   RM_IR     SPC_IR   RD_E_IR   PHIE_IR    SW_IR     BVW_IR   VWCL_IR   VSILT_IR  CONG_IR    SS_IR     LS_IR    MARL_IR   SLST_IR    SH_IR    COAL_IR  IGNEOUS_~ ResFlag_~ PayFlag_~  PERFS_IR  Perm_IR  PayFlagR~  K_PHI_IR ResFlagR~ Rock_Typ~  Temp_IR  
# ...
2593.5000    1.8470  -19.4870    1.2010    0.0024    1.0000    0.0024    0.8843    0.1077    0.0000   61.8750    0.0000    0.0000    0.0000   38.1250    0.0000    0.0000    0.0000    0.0000 -999.0000    0.0000    0.0000    0.0000    0.0000    0.0002  103.4652 
2594.0000    1.8530  -19.1753    1.2350    0.0021    1.0000    0.0021    0.8891    0.1039    0.0000   61.8750    0.0000    0.0000    0.0000   38.1250    0.0000    0.0000    0.0000    0.0000 -999.0000    0.0000    0.0000    0.0000    0.0000    0.0001  103.4707 
2594.5000    1.8510  -18.4557    1.2470    0.0016    1.0000    0.0016    0.9002    0.0946    0.0000   61.8750    0.0000    0.0000    0.0000   38.1250    0.0000    0.0000    0.0000    0.0000 -999.0000    0.0000    0.0000    0.0000    0.0000    0.0001  103.4762 
2595.0000    1.8730  -18.0031    1.2810    0.0013    1.0000    0.0013    0.9072    0.0885    0.0000   61.8750    0.0000    0.0000    0.0000   38.1250    0.0000    0.0000    0.0000    0.0000 -999.0000    0.0000    0.0000    0.0000    0.0000    0.0000  103.4817 
2595.5000    1.8490  -17.6014    1.2830    0.0011    1.0000    0.0011    0.9134    0.0830    0.0000   61.8750    0.0000    0.0000    0.0000   38.1250    0.0000    0.0000    0.0000    0.0000 -999.0000    0.0000    0.0000    0.0000    0.0000    0.0000  103.4872 
2596.0000    1.8560  -17.6628    1.3140    0.0011    1.0000    0.0011    0.9125    0.0839    0.0000   61.8750    0.0000    0.0000    0.0000   38.1250    0.0000    0.0000    0.0000    0.0000 -999.0000    0.0000    0.0000    0.0000    0.0000    0.0000  103.4927 
2596.5000    1.8480  -17.6171    1.3400    0.0011    1.0000    0.0011    0.9132    0.0832    0.0000   61.8750    0.0000    0.0000    0.0000   38.1250    0.0000    0.0000    0.0000    0.0000 -999.0000    0.0000    0.0000    0.0000    0.0000    0.0000  103.4982 
2597.0000    1.8810  -17.6055    1.3500    0.0011    1.0000    0.0011    0.9134    0.0831    0.0000   61.8750    0.0000    0.0000    0.0000   38.1250    0.0000    0.0000    0.0000    0.0000 -999.0000    0.0000    0.0000    0.0000    0.0000    0.0000  103.5037 
2597.5000    1.8890  -17.6629    1.3480    0.0011    1.0000    0.0011    0.9125    0.0839    0.0000   61.8750    0.0000    0.0000    0.0000   38.1250    0.0000    0.0000    0.0000    0.0000 -999.0000    0.0000    0.0000    0.0000    0.0000    0.0000  103.5091 
2598.0000    1.8950  -17.6422    1.3520    0.0011    1.0000    0.0011    0.9128    0.0836    0.0000   61.8750    0.0000    0.0000    0.0000   38.1250    0.0000    0.0000    0.0000    0.0000 -999.0000    0.0000    0.0000    0.0000    0.0000    0.0000  103.5146 
2598.5000    1.9340  -17.5646    1.3200    0.0010    1.0000    0.0010    0.9140    0.0825    0.0000   61.8750    0.0000    0.0000    0.0000   38.1250    0.0000    0.0000    0.0000    0.0000 -999.0000    0.0000    0.0000    0.0000    0.0000    0.0000  103.5201 
2599.0000    1.9700  -17.2269    1.3130    0.0009    1.0000    0.0009    0.9192    0.0778    0.0000   61.8750    0.0000    0.0000    0.0000   38.1250    0.0000    0.0000    0.0000    0.0000 -999.0000    0.0000    0.0000    0.0000    0.0000    0.0000  103.5256 
2599.5000    1.9980  -16.8583    1.3120    0.0007    1.0000    0.0007    0.9249    0.0726    0.0000   61.8750    0.0000    0.0000    0.0000   38.1250    0.0000    0.0000    0.0000    0.0000 -999.0000    0.0000    0.0000    0.0000    0.0000    0.0000  103.5311 
2600.0000    1.9970  -16.5447    1.3140    0.0006    1.0000    0.0006    0.9298    0.0681    0.0000   61.8750    0.0000    0.0000    0.0000   38.1250    0.0000    0.0000    0.0000    0.0000 -999.0000    0.0000    0.0000    0.0000    0.0000    0.0000  103.5366 
2600.5000    1.9940  -16.0910    1.3130    0.0005    1.0000    0.0005    0.9368    0.0616    0.0000   61.8750    0.0000    0.0000    0.0000   38.1250    0.0000    0.0000    0.0000    0.0000 -999.0000    0.0000    0.0000    0.0000    0.0000    0.0000  103.5421 
2601.0000    1.9940  -15.7964    1.3060    0.0004    1.0000    0.0004    0.9413    0.0573    0.0000   61.8750    0.0000    0.0000    0.0000   38.1250    0.0000    0.0000    0.0000    0.0000 -999.0000    0.0000    0.0000    0.0000    0.0000    0.0000  103.5476 
2601.5000    1.9270  -15.7287    1.2740    0.0004    1.0000    0.0004    0.9424    0.0563    0.0000   61.8750    0.0000    0.0000    0.0000   38.1250    0.0000    0.0000    0.0000    0.0000 -999.0000    0.0000    0.0000    0.0000    0.0000    0.0000  103.5530 
2602.0000    1.9200  -15.6821    1.2770    0.0004    1.0000    0.0004    0.9431    0.0556    0.0000   61.8750    0.0000    0.0000    0.0000   38.1250    0.0000    0.0000    0.0000    0.0000 -999.0000    0.0000    0.0000    0.0000    0.0000    0.0000  103.5585 
2602.5000    1.8890  -16.0434    1.2800    0.0005    1.0000    0.0005    0.9375    0.0609    0.0000   61.8750    0.0000    0.0000    0.0000   38.1250    0.0000    0.0000    0.0000    0.0000 -999.0000    0.0000    0.0000    0.0000    0.0000    0.0000  103.5640 
2603.0000    1.9550  -16.6168    1.2490    0.0007    1.0000    0.0007    0.9286    0.0691    0.0000   61.8750    0.0000    0.0000    0.0000   38.1250    0.0000    0.0000    0.0000    0.0000 -999.0000    0.0000    0.0000    0.0000    0.0000    0.0000  103.5695 
2603.5000    1.9920  -16.9082    1.2350    0.0008    1.0000    0.0008    0.9241    0.0733    0.0000   61.8750    0.0000    0.0000    0.0000   38.1250    0.0000    0.0000    0.0000    0.0000 -999.0000    0.0000    0.0000    0.0000    0.0000    0.0000  103.5750 
2604.0000    1.9600  -17.2725    1.1910    0.0009    1.0000    0.0009    0.9185    0.0784    0.0000   61.8750    0.0000    0.0000    0.0000   38.1250    0.0000    0.0000    0.0000    0.0000 -999.0000    0.0000    0.0000    0.0000    0.0000    0.0000  103.5805 
2604.5000    1.9270  -17.6639    1.1730    0.0011    1.0000    0.0011    0.9125    0.0839    0.0000   61.8750    0.0000    0.0000    0.0000   38.1250    0.0000    0.0000    0.0000    0.0000 -999.0000    0.0000    0.0000    0.0000    0.0000    0.0000  103.5860 
2605.0000    1.8920  -17.5292    1.1390    0.0010    1.0000    0.0010    0.9145    0.0820    0.0000   61.8750    0.0000    0.0000    0.0000   38.1250    0.0000    0.0000    0.0000    0.0000 -999.0000    0.0000    0.0000    0.0000    0.0000    0.0000  103.5915 
2605.5000    1.9180  -17.2936    1.1560    0.0009    1.0000    0.0009    0.9182    0.0787    0.0000   61.8750    0.0000    0.0000    0.0000   38.1250    0.0000    0.0000    0.0000    0.0000 -999.0000    0.0000    0.0000    0.0000    0.0000    0.0000  103.5970 
2606.0000    1.9250  -17.1080    1.2060    0.0008    1.0000    0.0008    0.9211    0.0761    0.0000   61.8750    0.0000    0.0000    0.0000   38.1250    0.0000    0.0000    0.0000    0.0000 -999.0000    0.0000    0.0000    0.0000    0.0000    0.0000  103.6024 
2606.5000    1.9170  -16.9153    1.2510    0.0008    1.0000    0.0008    0.9240    0.0734    0.0000   61.8750    0.0000    0.0000    0.0000   38.1250    0.0000    0.0000    0.0000    0.0000 -999.0000    0.0000    0.0000    0.0000    0.0000    0.0000  103.6079 
2607.0000    1.8880  -16.8277    1.3040    0.0007    1.0000    0.0007    0.9254    0.0722    0.0000   61.8750    0.0000    0.0000    0.0000   38.1250    0.0000    0.0000    0.0000    0.0000 -999.0000    0.0000    0.0000    0.0000    0.0000    0.0000  103.6134 
2607.5000    1.8610  -16.6050    1.3460    0.0007    1.0000    0.0007    0.9288    0.0690    0.0000   61.8750    0.0000    0.0000    0.0000   38.1250    0.0000    0.0000    0.0000    0.0000 -999.0000    0.0000    0.0000    0.0000    0.0000    0.0000  103.6189 
2608.0000    1.8760  -16.5074    1.3960    0.0006    1.0000    0.0006    0.9303    0.0676    0.0000   61.8750    0.0000    0.0000    0.0000   38.1250    0.0000    0.0000    0.0000    0.0000 -999.0000    0.0000    0.0000    0.0000    0.0000    0.0000  103.6244 
2608.5000    1.9160  -16.1728    1.3500    0.0005    1.0000    0.0005    0.9355    0.0627    0.0000   61.8750    0.0000    0.0000    0.0000   38.1250    0.0000    0.0000    0.0000    0.0000 -999.0000    0.0000    0.0000    0.0000    0.0000    0.0000  103.6299 
