~VERSION INFORMATION
 VERS.                 2.0:   CWLS LOG ASCII STANDARD - VERSION 2.0
 WRAP.                  NO:   SINGLE LINE PER DEPTH STEP
 CREA.                 03/05/2017 12:05:25
#CREATED USING IP VERSION 4.2.2015.61 BY PANESSOR ON 03/05/2017 12:05:25
~WELL INFORMATION
#MNEM.UNIT       DATA                          DESCRIPTION MNEMONIC
#---------      ---------------------------   --------------------------
 STRT    .FT        500.0000                  : START DEPTH
 STOP    .FT        4532.0000                 : STOP DEPTH
 STEP    .FT        0.5000                    : STEP VALUE
 NULL    .      -999.0000                     : NULL VALUE
 DATE    .      03/05/2017                    : LAS file Creation Date
 WELL  .      CRISOL-1            : Well Name
 COMP  .      INTERCOL            : Company
 FLD   .      WILDCAT             : Field
 STATE .      CESAR               : State
 COUNT .      COLOMBIA            : Country
 API   .      CRIL0001            : API Number
 UWI   .      CRIL0001            : Unique Well Identifier (UWI)
 LOC   .      GAUSS ORIGIN BOGOTA : Location
 LATI  .      1.0147222222        : Latitude/Northing
 LONG  .      1.0086111111        : Longitude/Easting
 RWS   .      -999                : Def_Rw
 WST   .      -999                : Def_Rwt
 PROV  .                          : Province
 SRVC  .      SCH                 : Contractor
~CURVE INFORMATION
#MNEM                 UNIT       API CODE     Description
#----------     --------------- ----------  --------------
 DEPTH         .FT                        : 
 RM_IR         .OHMM                      : Medium Resistivity
 SPC_IR        .MV                        : Spontaneous Potential
 RD_E_IR       .OHMM                      : Formation Deep Resitivity
 PHIE_IR       .Dec                       : Effective Porosity
 SW_IR         .Dec                       : Effective Water Saturation
 BVW_IR        .Dec                       : Bulk Volume water (Phie x SW)
 VWCL_IR       .Dec                       : Volume wet Clay
 VSILT_IR      .Dec                       : Volume Silt
 Perfs_IR      .B/E                       : Photoelectric Factor
 Perm_IR       .md                        : Calculated Permeability
 CGL_IR        .%                         : Mudlog CONGLOMERATE
 SS_IR         .%                         : Mudlog SANDSTONE
 SLS_IR        .%                         : Mudlog SILSTONE
 CLST_IR       .%                         : Mudlog CLAYSTONE
 SH_IR         .%                         : Mudlog Shale
 MARL_IR       .%                         : Mudlog MARLSTONE
 LS_IR         .%                         : Mudlog LIMESTONE
 ResFlag_IR    .                          : Net Reservoir
 PayFlag_IR    .                          : Net Pay
 K_PHI_IR      .                          : K/PHI RATIO
 PayFlagRT_IR  .                          : Pay Flag Rock Type
 ResFlagRT_IR  .                          : Net Reservoir Rock Type
 Rock_Type_IR  .microns                   : Pore Throat Size - Rock Types
 Temp_IR       .F                         : Formation Temperature
 MUD_WEIGHT_IR .PPG                       : MUD_WEIGHT
~P Interactive Petrophysics parameters
#Name        Value                 Description
#----- --------------------------  -----------
#Logging Run 
 RUN  .     1                    : Run Number
 DATE .     24-OCT-1953          : Date                      | RUN[0]
 BLI  .     2565                 : Btm Log Interval          | RUN[1]
 TLI  .     517                  : Top Log Interval          | RUN[1]
 BS   .     8.625                : Bit Size                  | RUN[1]
 DFT  .     /                    : Type of Fluid in Hole     | RUN[1]
 RM   .     5.9                  : Rm                        | RUN[1]
 MST  .     84                   : at Meas Temp              | RUN[1]
 R1   .     SPS LTDA.            : Remark 1                  | RUN[1]
 R2   .     PLUG BACK 3808 FT.   : Remark 2                  | RUN[1]
 R3   .     ABANDONED GAS WELL.  : Remark 3                  | RUN[1]
#Logging Run 
 RUN  .     2                    : Run Number
 DATE .     14-NOV-1953          : Date                      | RUN[1]
 BLI  .     4053                 : Btm Log Interval          | RUN[2]
 TLI  .     3000                 : Top Log Interval          | RUN[2]
 BS   .     9.625                : Bit Size                  | RUN[2]
 RM   .     3.8                  : Rm                        | RUN[2]
 MST  .     87                   : at Meas Temp              | RUN[2]
 R1   .     SPS LTDA.            : Remark 1                  | RUN[2]
 R2   .     PLUG BACK 3808 FT.   : Remark 2                  | RUN[2]
 R3   .     ABANDONED GAS WELL.  : Remark 3                  | RUN[2]
~A  DEPTH   RM_IR     SPC_IR   RD_E_IR   PHIE_IR    SW_IR     BVW_IR   VWCL_IR   VSILT_IR  Perfs_IR  Perm_IR    CGL_IR    SS_IR     SLS_IR   CLST_IR    SH_IR    MARL_IR    LS_IR   ResFlag_~ PayFlag_~  K_PHI_IR PayFlagR~ ResFlagR~ Rock_Typ~  Temp_IR  MUD_WEIG~ 
# ...
2081.0000   34.9930  -36.4069   12.9470    0.1143    1.0000    0.1143    0.3648    0.0000 -999.0000    0.3014    0.0000   47.4300    0.0000    0.0000   52.5700    0.0000    0.0000    0.0000    0.0000    2.6365    0.0000    0.0000    0.3247   98.9975   10.1000 
2081.5000   40.3850  -36.7680   13.0560    0.1160    1.0000    0.1160    0.3558    0.0000 -999.0000    0.3226    0.0000   47.4400    0.0000    0.0000   52.5600    0.0000    0.0000    0.0000    0.0000    2.7817    0.0000    0.0000    0.3338   99.0021   10.1000 
2082.0000   45.7780  -36.8871   13.1150    0.1165    1.0000    0.1165    0.3528    0.0000 -999.0000    0.3298    0.0000   47.4500    0.0000    0.0000   52.5500    0.0000    0.0000    0.0000    0.0000    2.8309    0.0000    0.0000    0.3368   99.0067   10.1000 
2082.5000   50.4210  -35.4261   13.2470    0.1099    1.0000    0.1099    0.3893    0.0000 -999.0000    0.2495    0.0000   47.4600    0.0000    0.0000   52.5400    0.0000    0.0000    0.0000    0.0000    2.2701    0.0000    0.0000    0.3006   99.0112   10.1000 
2083.0000   51.6250  -33.7472   13.4910    0.1024    1.0000    0.1024    0.4313    0.0000 -999.0000    0.1773    0.0000   47.4700    0.0000    0.0000   52.5300    0.0000    0.0000    0.0000    0.0000    1.7319    0.0000    0.0000    0.2615   99.0158   10.1000 
2083.5000   51.3840  -32.1413   13.5730    0.0951    1.0000    0.0951    0.4715    0.0000 -999.0000    0.1248    0.0000   47.4800    0.0000    0.0000   52.5200    0.0000    0.0000    0.0000    0.0000    1.3113    0.0000    0.0000    0.2266   99.0204   10.1000 
2084.0000   49.4550  -30.5594   13.5270    0.0880    1.0000    0.0880    0.5110    0.0000 -999.0000    0.0859    0.0000   47.4900    0.0000    0.0000   52.5100    0.0000    0.0000    0.0000    0.0000    0.9758    0.0000    0.0000    0.1946   99.0249   10.1000 
2084.5000   47.2920  -28.8555   13.1610    0.0803    1.0000    0.0803    0.5536    0.0000 -999.0000    0.0555    0.0000   47.4950    0.0000    0.0000   52.5050    0.0000    0.0000    0.0000    0.0000    0.6901    0.0000    0.0000    0.1628   99.0295   10.1000 
2085.0000   42.9870  -27.8206   11.5480    0.0757    1.0000    0.0757    0.5795    0.0000 -999.0000    0.0416    0.0000   47.5000    0.0000    0.0000   52.5000    0.0000    0.0000    0.0000    0.0000    0.5501    0.0000    0.0000    0.1448   99.0340   10.1000 
2085.5000   38.5590  -27.6357    8.9380    0.0749    1.0000    0.0749    0.5841    0.0000 -999.0000    0.0395    0.0000   47.5100    0.0000    0.0000   52.4900    0.0000    0.0000    0.0000    0.0000    0.5274    0.0000    0.0000    0.1417   99.0386   10.1000 
2086.0000   33.6400  -28.2398    6.8600    0.0776    1.0000    0.0776    0.5690    0.0000 -999.0000    0.0469    0.0000   47.5200    0.0000    0.0000   52.4800    0.0000    0.0000    0.0000    0.0000    0.6040    0.0000    0.0000    0.1519   99.0432   10.1000 
2086.5000   28.2790  -28.9659    6.0890    0.0808    1.0000    0.0808    0.5509    0.0000 -999.0000    0.0571    0.0000   47.5300    0.0000    0.0000   52.4700    0.0000    0.0000    0.0000    0.0000    0.7065    0.0000    0.0000    0.1647   99.0477   10.1000 
2087.0000   23.2130  -28.8409    5.4310    0.0803    1.0000    0.0803    0.5540    0.0000 -999.0000    0.0552    0.0000   47.5400    0.0000    0.0000   52.4600    0.0000    0.0000    0.0000    0.0000    0.6880    0.0000    0.0000    0.1625   99.0523   10.1000 
2087.5000   20.8180  -27.3810    5.9750    0.0737    1.0000    0.0737    0.5905    0.0000 -999.0000    0.0367    0.0000   47.5500    0.0000    0.0000   52.4500    0.0000    0.0000    0.0000    0.0000    0.4974    0.0000    0.0000    0.1375   99.0569   10.1000 
2088.0000   18.8490  -24.7461    6.9870    0.0491    1.0000    0.0491    0.6563    0.0163 -999.0000    0.0052    0.0000   47.5600    0.0000    0.0000   52.4400    0.0000    0.0000    0.0000    0.0000    0.1062    0.0000    0.0000    0.0620   99.0614   10.1000 
2088.5000   17.5570  -21.5022    7.9820    0.0181    1.0000    0.0181    0.7374    0.1422 -999.0000    0.0000    0.0000   47.5700    0.0000    0.0000   52.4300    0.0000    0.0000    0.0000    0.0000    0.0024    0.0000    0.0000    0.0087   99.0660   10.1000 
2089.0000    8.4780  -17.8543    8.9840    0.0035    1.0000    0.0035    0.8286    0.1479 -999.0000    0.0000    0.0000   47.5800    0.0000    0.0000   52.4200    0.0000    0.0000    0.0000    0.0000    0.0000    0.0000    0.0000    0.0004   99.0706   10.1000 
2089.5000    7.9290  -14.0094    9.9880    0.0003    1.0000    0.0003    0.9248    0.0732 -999.0000    0.0000    0.0000   47.5900    0.0000    0.0000   52.4100    0.0000    0.0000    0.0000    0.0000    0.0000    0.0000    0.0000    0.0000   99.0751   10.1000 
2090.0000    7.3040  -11.3945   10.5870    0.0001    1.0000    0.0001    0.9901    0.0092 -999.0000    0.0000    0.0000   47.6000    0.0000    0.0000   52.4000    0.0000    0.0000    0.0000    0.0000    0.0000    0.0000    0.0000    0.0000   99.0797   10.1000 
2090.5000    7.2320  -11.2096   10.5040    0.0001    1.0000    0.0001    0.9948    0.0046 -999.0000    0.0000    0.0000   47.6100    0.0000    0.0000   52.3900    0.0000    0.0000    0.0000    0.0000    0.0000    0.0000    0.0000    0.0000   99.0843   10.1000 
2091.0000    7.1840  -11.4107   10.3070    0.0001    1.0000    0.0001    0.9897    0.0096 -999.0000    0.0000    0.0000   47.6200    0.0000    0.0000   52.3800    0.0000    0.0000    0.0000    0.0000    0.0000    0.0000    0.0000    0.0000   99.0888   10.1000 
2091.5000    7.2080  -11.7447    9.8980    0.0001    1.0000    0.0001    0.9814    0.0180 -999.0000    0.0000    0.0000   34.6650    0.0000    0.0000   65.3350    0.0000    0.0000    0.0000    0.0000    0.0000    0.0000    0.0000    0.0000   99.0934   10.1000 
2092.0000    7.3040  -12.0788    9.6140    0.0001    1.0000    0.0001    0.9730    0.0263 -999.0000    0.0000    0.0000   21.7100    0.0000    0.0000   78.2900    0.0000    0.0000    0.0000    0.0000    0.0000    0.0000    0.0000    0.0000   99.0980   10.1000 
2092.5000    7.4940  -12.4153    9.2800    0.0001    1.0000    0.0001    0.9646    0.0347 -999.0000    0.0000    0.0000   21.7550    0.0000    0.0000   78.2450    0.0000    0.0000    0.0000    0.0000    0.0000    0.0000    0.0000    0.0000   99.1025   10.1000 
2093.0000    7.6780  -12.3842    8.9750    0.0001    1.0000    0.0001    0.9654    0.0339 -999.0000    0.0000    0.0000   21.8000    0.0000    0.0000   78.2000    0.0000    0.0000    0.0000    0.0000    0.0000    0.0000    0.0000    0.0000   99.1071   10.1000 
2093.5000    7.9110  -12.3520    8.6660    0.0001    1.0000    0.0001    0.9662    0.0331 -999.0000    0.0000    0.0000   21.8450    0.0000    0.0000   78.1550    0.0000    0.0000    0.0000    0.0000    0.0000    0.0000    0.0000    0.0000   99.1116   10.1000 
2094.0000    8.2620  -12.3208    8.3550    0.0001    1.0000    0.0001    0.9670    0.0324 -999.0000    0.0000    0.0000   21.8900    0.0000    0.0000   78.1100    0.0000    0.0000    0.0000    0.0000    0.0000    0.0000    0.0000    0.0000   99.1162   10.1000 
2094.5000    8.6140  -12.5397    8.0450    0.0001    1.0000    0.0001    0.9615    0.0378 -999.0000    0.0000    0.0000   21.9350    0.0000    0.0000   78.0650    0.0000    0.0000    0.0000    0.0000    0.0000    0.0000    0.0000    0.0000   99.1208   10.1000 
2095.0000    8.9650  -13.1785    7.7340    0.0001    1.0000    0.0001    0.9455    0.0535 -999.0000    0.0000    0.0000   21.9800    0.0000    0.0000   78.0200    0.0000    0.0000    0.0000    0.0000    0.0000    0.0000    0.0000    0.0000   99.1253   10.1000 
2095.5000    9.3160  -13.8534    7.4240    0.0003    1.0000    0.0003    0.9287    0.0696 -999.0000    0.0000    0.0000   22.0250    0.0000    0.0000   77.9750    0.0000    0.0000    0.0000    0.0000    0.0000    0.0000    0.0000    0.0000   99.1299   10.1000 
2096.0000    9.6390  -14.7282    7.1230    0.0005    1.0000    0.0005    0.9068    0.0897 -999.0000    0.0000    0.0000   22.0700    0.0000    0.0000   77.9300    0.0000    0.0000    0.0000    0.0000    0.0000    0.0000    0.0000    0.0000   99.1345   10.1000 
