~VERSION INFORMATION
 VERS.                 2.0:   CWLS LOG ASCII STANDARD - VERSION 2.0
 WRAP.                  NO:   SINGLE LINE PER DEPTH STEP
 CREA.                 03/05/2017 10:34:44
#CREATED USING IP VERSION 4.2.2015.61 BY PANESSOR ON 03/05/2017 10:34:44
~WELL INFORMATION
#MNEM.UNIT       DATA                          DESCRIPTION MNEMONIC
#---------      ---------------------------   --------------------------
 STRT    .FT        500.0000                  : START DEPTH
 STOP    .FT        5680.0000                 : STOP DEPTH
 STEP    .FT        0.5000                    : STEP VALUE
 NULL    .      -999.0000                     : NULL VALUE
 DATE    .      03/05/2017                    : LAS file Creation Date
 WELL  .      CRISOL-3            : Well Name
 COMP  .      INTERCOL            : Company
 FLD   .      WILDCAT             : Field
 STATE .      MAGDALENA           : State
 COUNT .      COLOMBIA            : Country
 API   .      CRIL0003            : API Number
 UWI   .      100000000377        : Unique Well Identifier (UWI)
 LOC   .      GAUSS ORIGIN BOGOTA : Location
 LATI  .      1                   : Latitude/Northing
 LONG  .      1                   : Longitude/Easting
 RWS   .      -999                : Def_Rw
 WST   .      -999                : Def_Rwt
 CNTY  .      N/A                 : County
 PROV  .                          : Province
 SRVC  .      SCH                 : Contractor
~CURVE INFORMATION
#MNEM                UNIT       API CODE     Description
#----------    --------------- ----------  --------------
 DEPTH        .FT                        : 
 RM_IR        .OHMM                      : Medium Resistivity
 RD_IR        .OHMM                      : Formation Deep Resitivity
 LAT_E_IR     .OHMM                      : Lateral AO18'8"
 SPC_IR       .MV                        : Spontaneous Potential
 PHIE_IR      .Dec                       : Effective Porosity
 SW_IR        .Dec                       : Effective Water Saturation
 BVW_IR       .Dec                       : Bulk Volume water (Phie x SW)
 VWCL_IR      .Dec                       : Volume wet Clay
 VSILT_IR     .Dec                       : Volume Silt
 SLST_IR      .%                         : Mudlog SILSTONE
 SS_IR        .%                         : Mudlog SANDSTONE
 CONG_IR      .%                         : Mudlog CONGLOMERATE
 MARL_IR      .%                         : Mudlog MARLSTONE
 ResFlag_IR   .                          : Net Reservoir
 IGNEOUS_IR   .us/ft                     : Mudlog IGNEOUS
 LS_IR        .us/ft                     : Mudlog LIMESTONE
 SH_IR        .%                         : Mudlog SHALE
 PayFlag_IR   .                          : Net Pay
 Perm_IR      .md                        : Calculated Permeability
 PayFlagRT_IR .                          : Pay Flag Rock Type
 ResFlagRT_IR .                          : Net Reservoir Rock Type
 K_PHI_IR     .                          : K/PHI RATIO
 Rock_Type_IR .microns                   : Pore Throat Size - Rock Types
 Temp_IR      .F                         : Formation Temperature
~P Interactive Petrophysics parameters
#Name        Value                 Description
#----- --------------------------  -----------
#Logging Run 
 RUN  .     1           : Run Number
 DATE .     23/04/1954  : Date                      | RUN[0]
 DFT  .     /           : Type of Fluid in Hole     | RUN[1]
~A  DEPTH   RM_IR     RD_IR    LAT_E_IR   SPC_IR   PHIE_IR    SW_IR     BVW_IR   VWCL_IR   VSILT_IR  SLST_IR    SS_IR    CONG_IR   MARL_IR  ResFlag_~ IGNEOUS_~   LS_IR     SH_IR   PayFlag_~  Perm_IR  PayFlagR~ ResFlagR~  K_PHI_IR Rock_Typ~  Temp_IR  
# ...
5300.0000  339.4450 1410.4880 1930.0530  -65.9859    0.0685    0.2643    0.0181    0.3786    0.3932    0.0000    0.0000    0.0000    0.0000    0.0000    0.0000  100.0000    0.0000    0.0000    0.0973    1.0000    0.0000    1.4209    0.2601  130.4531 
5300.5000  336.5580 1404.9470 1930.0040  -65.9148    0.0683    0.2653    0.0181    0.3795    0.3927    0.0000    0.0000    0.0000    0.0000    0.0000    0.0000  100.0000    0.0000    0.0000    0.0960    1.0000    0.0000    1.4052    0.2585  130.4583 
5301.0000  331.5220 1405.1500 1929.9561  -66.0601    0.0686    0.2642    0.0181    0.3776    0.3938    0.0000    0.0000    0.0000    0.0000    0.0000    0.0000  100.0000    0.0000    0.0000    0.0982    1.0000    0.0000    1.4321    0.2612  130.4636 
5301.5000  335.1450 1401.2740 1929.9070  -66.5774    0.0696    0.2609    0.0181    0.3706    0.3976    0.0000    0.0000    0.0000    0.0000    0.0000    0.0000  100.0000    0.0000    0.0000    0.1063    1.0000    0.0000    1.5289    0.2704  130.4688 
5302.0000  335.1450 1397.6490 1929.8590  -66.8843    0.0701    0.2591    0.0182    0.3664    0.3998    0.0000    0.0000    0.0000    0.0000    0.0000    0.0000  100.0000    0.0000    0.0000    0.1114    1.0000    0.0000    1.5880    0.2758  130.4740 
5302.5000  335.1450 1397.9410 1929.8101  -67.2964    0.0709    0.2563    0.0182    0.3609    0.4028    0.0000    0.0000    0.0000    0.0000    0.0000    0.0000  100.0000    0.0000    0.0000    0.1186    1.0000    0.0000    1.6730    0.2836  130.4792 
5303.0000  342.3910 1397.9290 1929.7610  -67.5127    0.0713    0.2549    0.0182    0.3579    0.4044    0.0000    0.0000    0.0000    0.0000    0.0000    0.0000  100.0000    0.0000    0.0000    0.1225    1.0000    0.0000    1.7190    0.2877  130.4845 
5303.5000  342.3910 1397.6470 1929.7130  -68.0216    0.0722    0.2516    0.0182    0.3511    0.4082    0.0000    0.0000    0.0000    0.0000    0.0000    0.0000  100.0000    0.0000    0.0000    0.1323    1.0000    0.0000    1.8308    0.2975  130.4897 
5304.0000  346.0140 1405.0630 1929.6639  -68.5843    0.0733    0.2473    0.0181    0.3435    0.4123    0.0000    0.0000    0.0000    0.0000    1.0000    0.0000  100.0000    0.0000    1.0000    0.1441    1.0000    1.0000    1.9663    0.3090  130.4949 
5304.5000  349.6380 1408.6801 1929.6160  -68.6280    0.0734    0.2467    0.0181    0.3429    0.4126    0.0000    0.0000    0.0000    0.0000    1.0000    0.0000  100.0000    0.0000    1.0000    0.1452    1.0000    1.0000    1.9793    0.3101  130.5002 
5305.0000  351.4490 1415.9130 1929.5670  -68.6338    0.0734    0.2461    0.0181    0.3428    0.4127    0.0000    0.0000    0.0000    0.0000    1.0000    0.0000  100.0000    0.0000    1.0000    0.1457    1.0000    1.0000    1.9856    0.3107  130.5054 
5305.5000  353.2610 1423.1460 1929.5179  -68.5890    0.0733    0.2457    0.0180    0.3434    0.4123    0.0000    0.0000    0.0000    0.0000    1.0000    0.0000  100.0000    0.0000    1.0000    0.1451    1.0000    1.0000    1.9796    0.3102  130.5106 
5306.0000  356.8840 1433.9960 1929.4700  -68.2874    0.0727    0.2467    0.0179    0.3475    0.4101    0.0000    0.0000    0.0000    0.0000    1.0000    0.0000  100.0000    0.0000    1.0000    0.1393    1.0000    1.0000    1.9151    0.3049  130.5159 
5306.5000  356.8840 1437.6130 1929.4210  -67.9511    0.0721    0.2485    0.0179    0.3520    0.4077    0.0000    0.0000    0.0000    0.0000    0.0000    0.0000  100.0000    0.0000    0.0000    0.1326    1.0000    0.0000    1.8398    0.2985  130.5211 
5307.0000  356.8840 1444.8459 1929.3730  -67.6711    0.0716    0.2497    0.0179    0.3558    0.4056    0.0000    0.0000    0.0000    0.0000    0.0000    0.0000  100.0000    0.0000    0.0000    0.1275    1.0000    0.0000    1.7813    0.2934  130.5263 
5307.5000  357.3110 1452.0800 1929.3240  -67.4190    0.0711    0.2507    0.0178    0.3592    0.4038    0.0000    0.0000    0.0000    0.0000    0.0000    0.0000  100.0000    0.0000    0.0000    0.1230    1.0000    0.0000    1.7303    0.2890  130.5316 
5308.0000  358.6490 1459.3680 1929.2750  -67.3195    0.0709    0.2507    0.0178    0.3605    0.4031    0.0000    0.0000    0.0000    0.0000    0.0000    0.0000  100.0000    0.0000    0.0000    0.1215    1.0000    0.0000    1.7130    0.2875  130.5368 
5308.5000  359.9880 1466.6801 1929.2271  -67.6453    0.0715    0.2480    0.0177    0.3561    0.4054    0.0000    0.0000    0.0000    0.0000    0.0000    0.0000  100.0000    0.0000    0.0000    0.1279    1.0000    0.0000    1.7885    0.2942  130.5420 
5309.0000  361.3260 1470.3380 1929.1780  -68.1016    0.0724    0.2448    0.0177    0.3500    0.4088    0.0000    0.0000    0.0000    0.0000    1.0000    0.0000  100.0000    0.0000    1.0000    0.1371    1.0000    1.0000    1.8947    0.3034  130.5473 
5309.5000  362.6640 1470.3500 1929.1300  -69.1280    0.0743    0.2385    0.0177    0.3361    0.4163    0.0000    0.0000    0.0000    0.0000    1.0000    0.0000  100.0000    0.0000    1.0000    0.1594    1.0000    1.0000    2.1462    0.3241  130.5525 
5310.0000  364.0030 1459.4730 1929.0811  -70.0311    0.0759    0.2341    0.0178    0.3239    0.4229    0.0000    0.0000    0.0000    0.0000    1.0000    0.0000  100.0000    0.0000    1.0000    0.1808    1.0000    1.0000    2.3803    0.3423  130.5577 
5310.5000  365.3410 1448.5870 1929.0320  -70.6548    0.0771    0.2314    0.0178    0.3155    0.4275    0.0000    0.0000    0.0000    0.0000    1.0000    0.0000  100.0000    0.0000    1.0000    0.1967    1.0000    1.0000    2.5503    0.3550  130.5630 
5311.0000  366.6790 1433.9360 1928.9840  -71.2164    0.0782    0.2295    0.0179    0.3079    0.4316    0.0000    0.0000    0.0000    0.0000    1.0000    0.0000  100.0000    0.0000    1.0000    0.2116    1.0000    1.0000    2.7068    0.3663  130.5682 
5311.5000  368.0170 1433.9960 1928.9351  -71.5132    0.0787    0.2279    0.0179    0.3039    0.4338    0.0000    0.0000    0.0000    0.0000    1.0000    0.0000  100.0000    0.0000    1.0000    0.2204    1.0000    1.0000    2.7997    0.3729  130.5734 
5312.0000  369.3560 1430.3800 1928.8870  -71.9622    0.0795    0.2258    0.0180    0.2978    0.4371    0.0000    0.0000    0.0000    0.0000    1.0000    0.0000  100.0000    0.0000    1.0000    0.2339    1.0000    1.0000    2.9413    0.3828  130.5786 
5312.5000  370.6940 1430.3800 1928.8380  -71.9864    0.0796    0.2256    0.0180    0.2975    0.4372    0.0000    0.0000    0.0000    0.0000    1.0000    0.0000  100.0000    0.0000    1.0000    0.2347    1.0000    1.0000    2.9493    0.3833  130.5839 
5313.0000  371.3770 1430.3800 1928.7889  -71.5769    0.0788    0.2278    0.0180    0.3030    0.4342    0.0000    0.0000    0.0000    0.0000    1.0000    0.0000  100.0000    0.0000    1.0000    0.2220    1.0000    1.0000    2.8167    0.3741  130.5891 
5313.5000  367.7540 1426.7629 1928.7410  -70.8690    0.0775    0.2319    0.0180    0.3126    0.4290    0.0000    0.0000    0.0000    0.0000    1.0000    0.0000  100.0000    0.0000    1.0000    0.2012    1.0000    1.0000    2.5954    0.3582  130.5943 
5314.0000  367.7540 1423.1460 1928.6920  -70.1790    0.0762    0.2361    0.0180    0.3219    0.4240    0.0000    0.0000    0.0000    0.0000    1.0000    0.0000  100.0000    0.0000    1.0000    0.1824    1.0000    1.0000    2.3931    0.3431  130.5996 
5314.5000  360.5070 1419.5300 1928.6440  -69.4090    0.0748    0.2409    0.0180    0.3323    0.4183    0.0000    0.0000    0.0000    0.0000    1.0000    0.0000  100.0000    0.0000    1.0000    0.1633    1.0000    1.0000    2.1828    0.3267  130.6048 
5315.0000  356.8840 1415.9130 1928.5950  -68.7022    0.0735    0.2455    0.0180    0.3419    0.4132    0.0000    0.0000    0.0000    0.0000    1.0000    0.0000  100.0000    0.0000    1.0000    0.1472    1.0000    1.0000    2.0028    0.3121  130.6100 
5315.5000  356.8840 1408.6801 1928.5460  -67.8559    0.0719    0.2515    0.0181    0.3533    0.4069    0.0000    0.0000    0.0000    0.0000    0.0000    0.0000  100.0000    0.0000    0.0000    0.1296    1.0000    0.0000    1.8012    0.2950  130.6153 
