~VERSION INFORMATION
 VERS.                 2.0:   CWLS LOG ASCII STANDARD - VERSION 2.0
 WRAP.                  NO:   SINGLE LINE PER DEPTH STEP
 CREA.                 03/05/2017 12:05:25
#CREATED USING IP VERSION 4.2.2015.61 BY PANESSOR ON 03/05/2017 12:05:25
~WELL INFORMATION
#MNEM.UNIT       DATA                          DESCRIPTION MNEMONIC
#---------      ---------------------------   --------------------------
 STRT    .FT        500.0000                  : START DEPTH
 STOP    .FT        4532.0000                 : STOP DEPTH
 STEP    .FT        0.5000                    : STEP VALUE
 NULL    .      -999.0000                     : NULL VALUE
 DATE    .      03/05/2017                    : LAS file Creation Date
 WELL  .      CRISOL-1            : Well Name
 COMP  .      INTERCOL            : Company
 FLD   .      WILDCAT             : Field
 STATE .      CESAR               : State
 COUNT .      COLOMBIA            : Country
 API   .      CRIL0001            : API Number
 UWI   .      CRIL0001            : Unique Well Identifier (UWI)
 LOC   .      GAUSS ORIGIN BOGOTA : Location
 LATI  .      1.0147222222        : Latitude/Northing
 LONG  .      1.0086111111        : Longitude/Easting
 RWS   .      -999                : Def_Rw
 WST   .      -999                : Def_Rwt
 PROV  .                          : Province
 SRVC  .      SCH                 : Contractor
~CURVE INFORMATION
#MNEM                 UNIT       API CODE     Description
#----------     --------------- ----------  --------------
 DEPTH         .FT                        : 
 RM_IR         .OHMM                      : Medium Resistivity
 SPC_IR        .MV                        : Spontaneous Potential
 RD_E_IR       .OHMM                      : Formation Deep Resitivity
 PHIE_IR       .Dec                       : Effective Porosity
 SW_IR         .Dec                       : Effective Water Saturation
 BVW_IR        .Dec                       : Bulk Volume water (Phie x SW)
 VWCL_IR       .Dec                       : Volume wet Clay
 VSILT_IR      .Dec                       : Volume Silt
 Perfs_IR      .B/E                       : Photoelectric Factor
 Perm_IR       .md                        : Calculated Permeability
 CGL_IR        .%                         : Mudlog CONGLOMERATE
 SS_IR         .%                         : Mudlog SANDSTONE
 SLS_IR        .%                         : Mudlog SILSTONE
 CLST_IR       .%                         : Mudlog CLAYSTONE
 SH_IR         .%                         : Mudlog Shale
 MARL_IR       .%                         : Mudlog MARLSTONE
 LS_IR         .%                         : Mudlog LIMESTONE
 ResFlag_IR    .                          : Net Reservoir
 PayFlag_IR    .                          : Net Pay
 K_PHI_IR      .                          : K/PHI RATIO
 PayFlagRT_IR  .                          : Pay Flag Rock Type
 ResFlagRT_IR  .                          : Net Reservoir Rock Type
 Rock_Type_IR  .microns                   : Pore Throat Size - Rock Types
 Temp_IR       .F                         : Formation Temperature
 MUD_WEIGHT_IR .PPG                       : MUD_WEIGHT
~P Interactive Petrophysics parameters
#Name        Value                 Description
#----- --------------------------  -----------
#Logging Run 
 RUN  .     1                    : Run Number
 DATE .     24-OCT-1953          : Date                      | RUN[0]
 BLI  .     2565                 : Btm Log Interval          | RUN[1]
 TLI  .     517                  : Top Log Interval          | RUN[1]
 BS   .     8.625                : Bit Size                  | RUN[1]
 DFT  .     /                    : Type of Fluid in Hole     | RUN[1]
 RM   .     5.9                  : Rm                        | RUN[1]
 MST  .     84                   : at Meas Temp              | RUN[1]
 R1   .     SPS LTDA.            : Remark 1                  | RUN[1]
 R2   .     PLUG BACK 3808 FT.   : Remark 2                  | RUN[1]
 R3   .     ABANDONED GAS WELL.  : Remark 3                  | RUN[1]
#Logging Run 
 RUN  .     2                    : Run Number
 DATE .     14-NOV-1953          : Date                      | RUN[1]
 BLI  .     4053                 : Btm Log Interval          | RUN[2]
 TLI  .     3000                 : Top Log Interval          | RUN[2]
 BS   .     9.625                : Bit Size                  | RUN[2]
 RM   .     3.8                  : Rm                        | RUN[2]
 MST  .     87                   : at Meas Temp              | RUN[2]
 R1   .     SPS LTDA.            : Remark 1                  | RUN[2]
 R2   .     PLUG BACK 3808 FT.   : Remark 2                  | RUN[2]
 R3   .     ABANDONED GAS WELL.  : Remark 3                  | RUN[2]
~A  DEPTH   RM_IR     SPC_IR   RD_E_IR   PHIE_IR    SW_IR     BVW_IR   VWCL_IR   VSILT_IR  Perfs_IR  Perm_IR    CGL_IR    SS_IR     SLS_IR   CLST_IR    SH_IR    MARL_IR    LS_IR   ResFlag_~ PayFlag_~  K_PHI_IR PayFlagR~ ResFlagR~ Rock_Typ~  Temp_IR  MUD_WEIG~ 
# ...
2856.0000  101.5700  -38.9486  173.7860    0.0459    1.0000    0.0459    0.6633    0.0307 -999.0000    0.0038    0.0000    0.0000    0.0000    0.0000    0.0000  100.0000    0.0000    0.0000    0.0000    0.0822    0.0000    0.0000    0.0544  106.0725   10.1000 
2856.5000  119.0720  -41.0630  188.2120    0.0577    0.7671    0.0443    0.6378    0.0000 -999.0000    0.0148    0.0000    0.0000    0.0000    0.0000    0.0000  100.0000    0.0000    0.0000    0.0000    0.2558    0.0000    0.0000    0.0995  106.0771   10.1000 
2857.0000  136.5740  -43.1775  202.6380    0.0684    0.6240    0.0427    0.6123    0.0000 -999.0000    0.0410    0.0000    0.0000    0.0000    0.0000    0.0000  100.0000    0.0000    0.0000    0.0000    0.5992    0.0000    0.0000    0.1566  106.0817   10.1000 
2857.5000  149.9015  -45.7754  223.0215    0.0754    0.5393    0.0407    0.5810    0.0000 -999.0000    0.0759    0.0000    0.0000    0.0000    0.0000    0.0000  100.0000    0.0000    0.0000    0.0000    1.0059    0.0000    0.0000    0.2067  106.0862   10.1000 
2858.0000  163.2290  -48.3733  243.4050    0.0811    0.4803    0.0389    0.5497    0.0000 -999.0000    0.1204    0.0000    0.0000    0.0000    0.0000    0.0000  100.0000    0.0000    0.0000    0.0000    1.4851    0.0000    0.0000    0.2548  106.0908   10.1000 
2858.5000  175.2620  -51.8608  275.7790    0.0886    0.4127    0.0366    0.5077    0.0000 -999.0000    0.2150    0.0000    0.0000    0.0000    0.0000    0.0000  100.0000    0.0000    0.0000    0.0000    2.4258    0.0000    0.0000    0.3317  106.0954   10.1000 
2859.0000  187.2950  -55.3482  308.1530    0.0962    0.3597    0.0346    0.4657    0.0000 -999.0000    0.3654    0.0000    0.0000    0.0000    0.0000    0.0000  100.0000    0.0000    0.0000    0.0000    3.7993    0.0000    0.0000    0.4222  106.0999   10.1000 
2859.5000  198.1160  -58.6707  338.1295    0.1034    0.3195    0.0330    0.4257    0.0000 -999.0000    0.5820    0.0000    0.0000    0.0000    0.0000    0.0000  100.0000    0.0000    0.0000    0.0000    5.6295    0.0000    0.0000    0.5215  106.1045   10.1000 
2860.0000  208.9370  -61.9931  368.1060    0.1106    0.2862    0.0317    0.3856    0.0000 -999.0000    0.8976    0.0000    0.0000    0.0000    0.0000    0.0000  100.0000    0.0000    0.0000    0.0000    8.1166    0.0000    0.0000    0.6348  106.1091   10.1000 
2860.5000  213.7680  -63.9751  384.8925    0.1149    0.2694    0.0310    0.3617    0.0000 -999.0000    1.1450    0.0000    0.0000    0.0000    0.0000    0.0000  100.0000    0.0000    0.0000    0.0000    9.9668    0.0000    0.0000    0.7088  106.1136   10.1000 
2861.0000  218.5990  -66.6667  401.6790    0.1207    0.2510    0.0303    0.3293    0.0000 -999.0000    1.5593    0.0000    0.0000    0.0000    0.0000    0.0000  100.0000    0.0000    1.0000    1.0000   12.9165    1.0000    1.0000    0.8143  106.1182   10.1000 
2861.5000  222.2220  -69.0476  413.6690    0.1259    0.2372    0.0299    0.3006    0.0000 -999.0000    2.0176    0.0000    0.0000    0.0000    0.0000    0.0000   77.2600   22.7400    1.0000    1.0000   16.0269    1.0000    1.0000    0.9138  106.1227   10.1000 
2862.0000  225.8450  -71.4286  425.6590    0.1310    0.2246    0.0294    0.2719    0.0000 -999.0000    2.5840    0.0000    0.0000    0.0000    0.0000    0.0000   54.5200   45.4800    1.0000    1.0000   19.7179    1.0000    1.0000    1.0209  106.1273   10.1000 
2862.5000  229.4685  -75.0000  434.0525    0.1388    0.2100    0.0291    0.2289    0.0000 -999.0000    3.6407    0.0000    0.0000    0.0000    0.0000    0.0000   54.6300   45.3700    1.0000    1.0000   26.2307    1.0000    1.0000    1.1884  106.1319   10.1000 
2863.0000  233.0920  -75.0000  442.4460    0.1388    0.2080    0.0289    0.2289    0.0000 -999.0000    3.6758    0.0000    0.0000    0.0000    0.0000    0.0000   54.7400   45.2600    1.0000    1.0000   26.4837    1.0000    1.0000    1.1951  106.1364   10.1000 
2863.5000  234.2995  -77.3810  444.7120    0.1440    0.2000    0.0288    0.2002    0.0000 -999.0000    4.5549    0.0000    0.0000    0.0000    0.0000    0.0000   54.8050   45.1950    1.0000    1.0000   31.6403    1.0000    1.0000    1.3136  106.1410   10.1000 
2864.0000  235.5070  -78.5714  446.9780    0.1465    0.1960    0.0287    0.1859    0.0000 -999.0000    5.0625    0.0000    0.0000    0.0000    0.0000    0.0000   54.8700   45.1300    1.0000    1.0000   34.5468    1.0000    1.0000    1.3765  106.1456   10.1000 
2864.5000  237.3185  -80.9524  448.2475    0.1517    0.1890    0.0287    0.1572    0.0000 -999.0000    6.1975    0.0000    0.0000    0.0000    0.0000    0.0000   54.9300   45.0700    1.0000    1.0000   40.8528    1.0000    1.0000    1.5047  106.1501   10.1000 
2865.0000  239.1300  -83.3333  449.5170    0.1569    0.1826    0.0286    0.1285    0.0000 -999.0000    7.5362    0.0000    0.0000    0.0000    0.0000    0.0000   54.9900   45.0100    1.0000    1.0000   48.0416    1.0000    1.0000    1.6399  106.1547   10.1000 
2865.5000  240.9420  -85.7143  454.3725    0.1620    0.1758    0.0285    0.0998    0.0000 -999.0000    9.1426    0.0000    0.0000    0.0000    0.0000    0.0000   55.0500   44.9500    1.0000    1.0000   56.4250    1.0000    1.0000    1.7866  106.1593   10.1000 
2866.0000  242.7540  -85.7143  459.2280    0.1620    0.1749    0.0283    0.0998    0.0000 -999.0000    9.1915    0.0000    0.0000    0.0000    0.0000    0.0000   55.1100   44.8900    1.0000    1.0000   56.7269    1.0000    1.0000    1.7922  106.1638   10.1000 
2866.5000  242.7540  -88.0952  462.8435    0.1672    0.1688    0.0282    0.0711    0.0000 -999.0000   11.0692    0.0000    0.0000    0.0000    0.0000    0.0000   55.1750   44.8250    1.0000    1.0000   66.2056    1.0000    1.0000    1.9457  106.1684   10.1000 
2867.0000  242.7540  -89.2857  466.4590    0.1698    0.1656    0.0281    0.0568    0.0000 -999.0000   12.1455    0.0000    0.0000    0.0000    0.0000    0.0000   55.2400   44.7600    1.0000    1.0000   71.5381    1.0000    1.0000    2.0278  106.1730   10.1000 
2867.5000  243.9615  -90.4762  473.6455    0.1724    0.1618    0.0279    0.0425    0.0000 -999.0000   13.3586    0.0000    0.0000    0.0000    0.0000    0.0000   55.3000   44.7000    1.0000    1.0000   77.5047    1.0000    1.0000    2.1168  106.1775   10.1000 
2868.0000  245.1690  -90.4762  480.8320    0.1724    0.1606    0.0277    0.0425    0.0000 -999.0000   13.4598    0.0000    0.0000    0.0000    0.0000    0.0000   55.3600   44.6400    1.0000    1.0000   78.0920    1.0000    1.0000    2.1262  106.1821   10.1000 
2868.5000  245.1690  -91.6667  496.5905    0.1749    0.1557    0.0272    0.0281    0.0000 -999.0000   14.9108    0.0000    0.0000    0.0000    0.0000    0.0000   55.4200   44.5800    1.0000    1.0000   85.2338    1.0000    1.0000    2.2293  106.1867   10.1000 
2869.0000  245.1690  -92.8571  512.3490    0.1775    0.1511    0.0268    0.0138    0.0000 -999.0000   16.4890    0.0000    0.0000    0.0000    0.0000    0.0000   55.4800   44.5200    1.0000    1.0000   92.8847    1.0000    1.0000    2.3354  106.1912   10.1000 
2869.5000  245.1690  -92.8571  537.5835    0.1775    0.1475    0.0262    0.0138    0.0000 -999.0000   16.8906    0.0000    0.0000    0.0000    0.0000    0.0000   55.5400   44.4600    1.0000    1.0000   95.1465    1.0000    1.0000    2.3687  106.1958   10.1000 
2870.0000  245.1690  -92.8571  562.8180    0.1775    0.1441    0.0256    0.0138    0.0000 -999.0000   17.2828    0.0000    0.0000    0.0000    0.0000    0.0000   55.6000   44.4000    1.0000    1.0000   97.3560    1.0000    1.0000    2.4008  106.2003   10.1000 
2870.5000  246.3770  -92.8571  578.2715    0.1775    0.1422    0.0252    0.0138    0.0000 -999.0000   17.5188    0.0000    0.0000    0.0000    0.0000    0.0000   55.6600   44.3400    1.0000    1.0000   98.6855    1.0000    1.0000    2.4201  106.2049   10.1000 
2871.0000  247.5850  -92.8571  593.7250    0.1775    0.1403    0.0249    0.0138    0.0000 -999.0000   17.7517    0.0000    0.0000    0.0000    0.0000    0.0000   55.7200   44.2800    1.0000    1.0000   99.9974    1.0000    1.0000    2.4389  106.2095   10.1000 
