~VERSION INFORMATION
 VERS.                 2.0:   CWLS LOG ASCII STANDARD - VERSION 2.0
 WRAP.                  NO:   SINGLE LINE PER DEPTH STEP
 CREA.                 03/05/2017 12:05:25
#CREATED USING IP VERSION 4.2.2015.61 BY PANESSOR ON 03/05/2017 12:05:25
~WELL INFORMATION
#MNEM.UNIT       DATA                          DESCRIPTION MNEMONIC
#---------      ---------------------------   --------------------------
 STRT    .FT        500.0000                  : START DEPTH
 STOP    .FT        4532.0000                 : STOP DEPTH
 STEP    .FT        0.5000                    : STEP VALUE
 NULL    .      -999.0000                     : NULL VALUE
 DATE    .      03/05/2017                    : LAS file Creation Date
 WELL  .      CRISOL-1            : Well Name
 COMP  .      INTERCOL            : Company
 FLD   .      WILDCAT             : Field
 STATE .      CESAR               : State
 COUNT .      COLOMBIA            : Country
 API   .      CRIL0001            : API Number
 UWI   .      CRIL0001            : Unique Well Identifier (UWI)
 LOC   .      GAUSS ORIGIN BOGOTA : Location
 LATI  .      1.0147222222        : Latitude/Northing
 LONG  .      1.0086111111        : Longitude/Easting
 RWS   .      -999                : Def_Rw
 WST   .      -999                : Def_Rwt
 PROV  .                          : Province
 SRVC  .      SCH                 : Contractor
~CURVE INFORMATION
#MNEM                 UNIT       API CODE     Description
#----------     --------------- ----------  --------------
 DEPTH         .FT                        : 
 RM_IR         .OHMM                      : Medium Resistivity
 SPC_IR        .MV                        : Spontaneous Potential
 RD_E_IR       .OHMM                      : Formation Deep Resitivity
 PHIE_IR       .Dec                       : Effective Porosity
 SW_IR         .Dec                       : Effective Water Saturation
 BVW_IR        .Dec                       : Bulk Volume water (Phie x SW)
 VWCL_IR       .Dec                       : Volume wet Clay
 VSILT_IR      .Dec                       : Volume Silt
 Perfs_IR      .B/E                       : Photoelectric Factor
 Perm_IR       .md                        : Calculated Permeability
 CGL_IR        .%                         : Mudlog CONGLOMERATE
 SS_IR         .%                         : Mudlog SANDSTONE
 SLS_IR        .%                         : Mudlog SILSTONE
 CLST_IR       .%                         : Mudlog CLAYSTONE
 SH_IR         .%                         : Mudlog Shale
 MARL_IR       .%                         : Mudlog MARLSTONE
 LS_IR         .%                         : Mudlog LIMESTONE
 ResFlag_IR    .                          : Net Reservoir
 PayFlag_IR    .                          : Net Pay
 K_PHI_IR      .                          : K/PHI RATIO
 PayFlagRT_IR  .                          : Pay Flag Rock Type
 ResFlagRT_IR  .                          : Net Reservoir Rock Type
 Rock_Type_IR  .microns                   : Pore Throat Size - Rock Types
 Temp_IR       .F                         : Formation Temperature
 MUD_WEIGHT_IR .PPG                       : MUD_WEIGHT
~P Interactive Petrophysics parameters
#Name        Value                 Description
#----- --------------------------  -----------
#Logging Run 
 RUN  .     1                    : Run Number
 DATE .     24-OCT-1953          : Date                      | RUN[0]
 BLI  .     2565                 : Btm Log Interval          | RUN[1]
 TLI  .     517                  : Top Log Interval          | RUN[1]
 BS   .     8.625                : Bit Size                  | RUN[1]
 DFT  .     /                    : Type of Fluid in Hole     | RUN[1]
 RM   .     5.9                  : Rm                        | RUN[1]
 MST  .     84                   : at Meas Temp              | RUN[1]
 R1   .     SPS LTDA.            : Remark 1                  | RUN[1]
 R2   .     PLUG BACK 3808 FT.   : Remark 2                  | RUN[1]
 R3   .     ABANDONED GAS WELL.  : Remark 3                  | RUN[1]
#Logging Run 
 RUN  .     2                    : Run Number
 DATE .     14-NOV-1953          : Date                      | RUN[1]
 BLI  .     4053                 : Btm Log Interval          | RUN[2]
 TLI  .     3000                 : Top Log Interval          | RUN[2]
 BS   .     9.625                : Bit Size                  | RUN[2]
 RM   .     3.8                  : Rm                        | RUN[2]
 MST  .     87                   : at Meas Temp              | RUN[2]
 R1   .     SPS LTDA.            : Remark 1                  | RUN[2]
 R2   .     PLUG BACK 3808 FT.   : Remark 2                  | RUN[2]
 R3   .     ABANDONED GAS WELL.  : Remark 3                  | RUN[2]
~A  DEPTH   RM_IR     SPC_IR   RD_E_IR   PHIE_IR    SW_IR     BVW_IR   VWCL_IR   VSILT_IR  Perfs_IR  Perm_IR    CGL_IR    SS_IR     SLS_IR   CLST_IR    SH_IR    MARL_IR    LS_IR   ResFlag_~ PayFlag_~  K_PHI_IR PayFlagR~ ResFlagR~ Rock_Typ~  Temp_IR  MUD_WEIG~ 
# ...
3910.0000   35.3050  -20.9411   42.0860    0.0073    1.0000    0.0073    0.8374    0.1383 -999.0000    0.0000    0.0000    0.0000    0.0000    0.0000    0.0000  100.0000    0.0000    0.0000    0.0000    0.0001    0.0000    0.0000    0.0015  115.6945   10.1000 
3910.5000   33.7755  -18.2942   43.0455    0.0023    1.0000    0.0023    0.8856    0.1067 -999.0000    0.0000    0.0000    0.0000    0.0000    0.0000    0.0000  100.0000    0.0000    0.0000    0.0000    0.0000    0.0000    0.0000    0.0002  115.6991   10.1000 
3911.0000   32.2460  -15.6474   44.0050    0.0006    1.0000    0.0006    0.9337    0.0645 -999.0000    0.0000    0.0000    0.0000    0.0000    0.0000    0.0000  100.0000    0.0000    0.0000    0.0000    0.0000    0.0000    0.0000    0.0000  115.7037   10.1000 
3911.5000   32.6620  -15.3940   42.3260    0.0005    1.0000    0.0005    0.9383    0.0601 -999.0000    0.0000    0.0000    0.0000    0.0000    0.0000    0.0000  100.0000    0.0000    0.0000    0.0000    0.0000    0.0000    0.0000    0.0000  115.7082   10.1000 
3912.0000   33.0780  -15.1407   40.6470    0.0004    1.0000    0.0004    0.9429    0.0558 -999.0000    0.0000    0.0000    0.0000    0.0000    0.0000    0.0000  100.0000    0.0000    0.0000    0.0000    0.0000    0.0000    0.0000    0.0000  115.7128   10.1000 
3912.5000   33.9905  -15.3744   39.9115    0.0005    1.0000    0.0005    0.9386    0.0598 -999.0000    0.0000    0.0000    0.0000    0.0000    0.0000    0.0000  100.0000    0.0000    0.0000    0.0000    0.0000    0.0000    0.0000    0.0000  115.7174   10.1000 
3913.0000   34.9030  -15.6080   39.1760    0.0005    1.0000    0.0005    0.9344    0.0638 -999.0000    0.0000    0.0000    0.0000    0.0000    0.0000    0.0000  100.0000    0.0000    0.0000    0.0000    0.0000    0.0000    0.0000    0.0000  115.7219   10.1000 
3913.5000   34.7825  -15.8417   39.5775    0.0006    1.0000    0.0006    0.9302    0.0677 -999.0000    0.0000    0.0000    0.0000    0.0000    0.0000    0.0000  100.0000    0.0000    0.0000    0.0000    0.0000    0.0000    0.0000    0.0000  115.7265   10.1000 
3914.0000   34.6620  -16.0753   39.9790    0.0007    1.0000    0.0007    0.9259    0.0717 -999.0000    0.0000    0.0000    0.0000    0.0000    0.0000    0.0000  100.0000    0.0000    0.0000    0.0000    0.0000    0.0000    0.0000    0.0000  115.7311   10.1000 
3914.5000   33.8165  -16.1275   40.4330    0.0007    1.0000    0.0007    0.9250    0.0726 -999.0000    0.0000    0.0000    0.0000    0.0000    0.0000    0.0000  100.0000    0.0000    0.0000    0.0000    0.0000    0.0000    0.0000    0.0000  115.7356   10.1000 
3915.0000   32.9710  -16.1796   40.8870    0.0008    1.0000    0.0008    0.9240    0.0734 -999.0000    0.0000    0.0000    0.0000    0.0000    0.0000    0.0000  100.0000    0.0000    0.0000    0.0000    0.0000    0.0000    0.0000    0.0000  115.7402   10.1000 
3915.5000   33.2745  -16.2488   39.4485    0.0008    1.0000    0.0008    0.9227    0.0746 -999.0000    0.0000    0.0000    0.0000    0.0000    0.0000    0.0000  100.0000    0.0000    0.0000    0.0000    0.0000    0.0000    0.0000    0.0000  115.7448   10.1000 
3916.0000   33.5780  -16.3179   38.0100    0.0008    1.0000    0.0008    0.9215    0.0757 -999.0000    0.0000    0.0000    0.0000    0.0000    0.0000    0.0000  100.0000    0.0000    0.0000    0.0000    0.0000    0.0000    0.0000    0.0000  115.7493   10.1000 
3916.5000   34.3505  -16.6496   35.0870    0.0010    1.0000    0.0010    0.9155    0.0812 -999.0000    0.0000    0.0000    0.0000    0.0000    0.0000    0.0000  100.0000    0.0000    0.0000    0.0000    0.0000    0.0000    0.0000    0.0000  115.7539   10.1000 
3917.0000   35.1230  -16.9812   32.1640    0.0012    1.0000    0.0012    0.9094    0.0866 -999.0000    0.0000    0.0000    0.0000    0.0000    0.0000    0.0000  100.0000    0.0000    0.0000    0.0000    0.0000    0.0000    0.0000    0.0000  115.7585   10.1000 
3917.5000   35.8960  -17.1469   30.2905    0.0013    1.0000    0.0013    0.9064    0.0892 -999.0000    0.0000    0.0000    0.0000    0.0000    0.0000    0.0000  100.0000    0.0000    0.0000    0.0000    0.0000    0.0000    0.0000    0.0001  115.7630   10.1000 
3918.0000   36.6690  -17.3125   28.4170    0.0014    1.0000    0.0014    0.9034    0.0918 -999.0000    0.0000    0.0000    0.0000    0.0000    0.0000    0.0000  100.0000    0.0000    0.0000    0.0000    0.0000    0.0000    0.0000    0.0001  115.7676   10.1000 
3918.5000   37.1145  -17.2247   32.8535    0.0014    1.0000    0.0014    0.9050    0.0904 -999.0000    0.0000    0.0000    0.0000    0.0000    0.0000    0.0000  100.0000    0.0000    0.0000    0.0000    0.0000    0.0000    0.0000    0.0001  115.7721   10.1000 
3919.0000   37.5600  -17.1368   37.2900    0.0039    1.0000    0.0039    0.8648    0.1222 -999.0000    0.0000    0.0000    0.0000    0.0000    0.0000    0.0000  100.0000    0.0000    0.0000    0.0000    0.0000    0.0000    0.0000    0.0004  115.7767   10.1000 
3919.5000   36.6035  -17.1285   38.4890    0.0039    1.0000    0.0039    0.8650    0.1220 -999.0000    0.0000    0.0000    0.0000    0.0000    0.0000    0.0000  100.0000    0.0000    0.0000    0.0000    0.0000    0.0000    0.0000    0.0004  115.7813   10.1000 
3920.0000   35.6470  -17.1201   39.6880    0.0039    1.0000    0.0039    0.8653    0.1219 -999.0000    0.0000    0.0000    0.0000    0.0000    0.0000    0.0000  100.0000    0.0000    0.0000    0.0000    0.0000    0.0000    0.0000    0.0004  115.7858   10.1000 
3920.5000   34.6715  -17.1628   39.8080    0.0040    1.0000    0.0040    0.8641    0.1227 -999.0000    0.0000    0.0000    0.0000    0.0000    0.0000    0.0000  100.0000    0.0000    0.0000    0.0000    0.0000    0.0000    0.0000    0.0004  115.7904   10.1000 
3921.0000   33.6960  -17.2054   39.9280    0.0041    1.0000    0.0041    0.8630    0.1234 -999.0000    0.0000    0.0000    0.0000    0.0000    0.0000    0.0000  100.0000    0.0000    0.0000    0.0000    0.0000    0.0000    0.0000    0.0005  115.7950   10.1000 
3921.5000   33.6960  -17.2496   41.1270    0.0042    1.0000    0.0042    0.8619    0.1242 -999.0000    0.0000    0.0000    0.0000    0.0000    0.0000    0.0000  100.0000    0.0000    0.0000    0.0000    0.0000    0.0000    0.0000    0.0005  115.7995   10.1000 
3922.0000   33.6960  -17.2938   42.3260    0.0043    1.0000    0.0043    0.8607    0.1250 -999.0000    0.0000    0.0000    0.0000    0.0000    0.0000    0.0000  100.0000    0.0000    0.0000    0.0000    0.0000    0.0000    0.0000    0.0005  115.8041   10.1000 
3922.5000   34.7780  -17.4154   43.2785    0.0046    1.0000    0.0046    0.8575    0.1271 -999.0000    0.0000    0.0000    0.0000    0.0000    0.0000    0.0000  100.0000    0.0000    0.0000    0.0000    0.0000    0.0000    0.0000    0.0006  115.8087   10.1000 
3923.0000   35.8600  -17.5371   44.2310    0.0050    1.0000    0.0050    0.8543    0.1291 -999.0000    0.0000    0.0000    0.0000    0.0000    0.0000    0.0000  100.0000    0.0000    0.0000    0.0000    0.0000    0.0000    0.0000    0.0007  115.8132   10.1000 
3923.5000   38.4010  -17.8137   45.0900    0.0059    1.0000    0.0059    0.8470    0.1333 -999.0000    0.0000    0.0000    0.0000    0.0000    0.0000    0.0000  100.0000    0.0000    0.0000    0.0000    0.0000    0.0000    0.0000    0.0010  115.8178   10.1000 
3924.0000   40.9420  -18.0904   45.9490    0.0069    1.0000    0.0069    0.8397    0.1372 -999.0000    0.0000    0.0000    0.0000    0.0000    0.0000    0.0000  100.0000    0.0000    0.0000    0.0000    0.0001    0.0000    0.0000    0.0013  115.8224   10.1000 
3924.5000   45.5315  -19.0455   47.3905    0.0117    1.0000    0.0117    0.8146    0.1463 -999.0000    0.0000    0.0000    0.0000    0.0000    0.0000    0.0000  100.0000    0.0000    0.0000    0.0000    0.0005    0.0000    0.0000    0.0038  115.8269   10.1000 
3925.0000   50.1210  -20.0007   48.8320    0.0190    1.0000    0.0190    0.7895    0.1473 -999.0000    0.0001    0.0000    0.0000    0.0000    0.0000    0.0000  100.0000    0.0000    0.0000    0.0000    0.0029    0.0000    0.0000    0.0096  115.8315   10.1000 
