~VERSION INFORMATION
 VERS.                 2.0:   CWLS LOG ASCII STANDARD - VERSION 2.0
 WRAP.                  NO:   SINGLE LINE PER DEPTH STEP
 CREA.                 16/2/2017 12:08:22 p. m.
#CREATED USING IP VERSION 4.2.2015.61 BY PANESSOR ON 16/2/2017 12:08:22 p. m.
~WELL INFORMATION
#MNEM.UNIT       DATA                          DESCRIPTION MNEMONIC
#---------      ---------------------------   --------------------------
 STRT    .FT        470.0000                  : START DEPTH
 STOP    .FT        5740.0000                 : STOP DEPTH
 STEP    .FT        0.5000                    : STEP VALUE
 NULL    .      -999.0000                     : NULL VALUE
 DATE    .      16/2/2017                     : LAS file Creation Date
 WELL  .      CRISOL-2      : Well Name
 COMP  .      INTERCOL      : Company
 FLD   .      141-AGUACHICA : Field
 STATE .      MAGDALENA     : State
 COUNT .      COLOMBIA      : Country
 API   .      CRIL0002      : API Number
 UWI   .      100000000372  : Unique Well Identifier (UWI)
 LOC   .                    : Location
 LATI  .      1.0038888889  : Latitude/Northing
 LONG  .      1.0080555556  : Longitude/Easting
 RWS   .      -999          : Def_Rw
 WST   .      -999          : Def_Rwt
 PROV  .                    : Province
 SRVC  .      SCH           : Contractor
~CURVE INFORMATION
#MNEM                UNIT       API CODE     Description
#----------    --------------- ----------  --------------
 DEPTH        .FT                        : 
 RM_IR        .OHMM                      : Resistivity AM 16"
 SPC_IR       .MV                        : Spontaneous Potential
 RD_E_IR      .OHMM                      : Formation Resitivity
 PHIE_IR      .Dec                       : Effective Porosity
 SW_IR        .Dec                       : Water Saturation
 BVW_IR       .Dec                       : Bulk Volume water (Phie x SW)
 VWCL_IR      .Dec                       : Volume wet Clay
 VSILT_IR     .Dec                       : Volume Silt
 CONG_IR      .%                         : Mudlog CONGLOMERATE
 SS_IR        .%                         : Mudlog SANDSTONE
 LS_IR        .%                         : Mudlog LIMESTONE
 MARL_IR      .%                         : Mudlog MARLSTONE
 SLST_IR      .%                         : Mudlog SILSTONE
 SH_IR        .%                         : Mudlog SHALE
 COAL_IR      .%                         : Mudlog  COAL
 IGNEOUS_IR   .%                         : Mudlog IGNEOUS
 ResFlag_IR   .                          : Net Reservoir
 PayFlag_IR   .                          : Net Pay
 PERFS_IR     .B/E                       : Perforations
 Perm_IR      .md                        : Calculated Permeability
 PayFlagRT_IR .                          : Pay Flag Rock Type
 K_PHI_IR     .                          : K/PHI RATIO
 ResFlagRT_IR .                          : Net Reservoir Rock Type
 Rock_Type_IR .microns                   : Pore Throat Size - Rock Types
 Temp_IR      .F                         : Formation Temperature
~P Interactive Petrophysics parameters
#Name        Value                 Description
#----- --------------------------  -----------
#Logging Run 
 RUN  .     1           : Run Number
 DATE .     27/02/1954  : Date                      | RUN[0]
 DFT  .     /           : Type of Fluid in Hole     | RUN[1]
~A  DEPTH   RM_IR     SPC_IR   RD_E_IR   PHIE_IR    SW_IR     BVW_IR   VWCL_IR   VSILT_IR  CONG_IR    SS_IR     LS_IR    MARL_IR   SLST_IR    SH_IR    COAL_IR  IGNEOUS_~ ResFlag_~ PayFlag_~  PERFS_IR  Perm_IR  PayFlagR~  K_PHI_IR ResFlagR~ Rock_Typ~  Temp_IR  
# ...
4686.0000    8.1900  -18.7656    7.2120    0.0001    1.0000    0.0001    0.9667    0.0328    0.0000    0.0000    0.0000   12.0640    0.0000   87.9360    0.0000    0.0000    0.0000    0.0000 -999.0000    0.0000    0.0000    0.0000    0.0000    0.0000  126.4317 
4686.5000    8.2900  -19.0496    7.2170    0.0002    1.0000    0.0002    0.9613    0.0380    0.0000    0.0000    0.0000   12.0370    0.0000   87.9630    0.0000    0.0000    0.0000    0.0000 -999.0000    0.0000    0.0000    0.0000    0.0000    0.0000  126.4372 
4687.0000    8.5240  -19.2146    7.1800    0.0002    1.0000    0.0002    0.9582    0.0411    0.0000    0.0000    0.0000   12.0100    0.0000   87.9900    0.0000    0.0000    0.0000    0.0000 -999.0000    0.0000    0.0000    0.0000    0.0000    0.0000  126.4427 
4687.5000    8.6350  -19.3966    7.1730    0.0003    1.0000    0.0003    0.9548    0.0444    0.0000    0.0000    0.0000   11.9830    0.0000   88.0170    0.0000    0.0000    0.0000    0.0000 -999.0000    0.0000    0.0000    0.0000    0.0000    0.0000  126.4482 
4688.0000    8.8570  -19.6076    7.0870    0.0003    1.0000    0.0003    0.9508    0.0482    0.0000    0.0000    0.0000   11.9560    0.0000   88.0440    0.0000    0.0000    0.0000    0.0000 -999.0000    0.0000    0.0000    0.0000    0.0000    0.0000  126.4537 
4688.5000    8.9590  -19.7226    7.0020    0.0003    1.0000    0.0003    0.9486    0.0503    0.0000    0.0000    0.0000   11.9290    0.0000   88.0710    0.0000    0.0000    0.0000    0.0000 -999.0000    0.0000    0.0000    0.0000    0.0000    0.0000  126.4591 
4689.0000    9.1940  -19.8706    6.9130    0.0004    1.0000    0.0004    0.9458    0.0530    0.0000    0.0000    0.0000   11.9020    0.0000   88.0980    0.0000    0.0000    0.0000    0.0000 -999.0000    0.0000    0.0000    0.0000    0.0000    0.0000  126.4646 
4689.5000    9.3220  -19.8896    6.7910    0.0004    1.0000    0.0004    0.9455    0.0533    0.0000    0.0000    0.0000   11.8885    0.0000   88.1115    0.0000    0.0000    0.0000    0.0000 -999.0000    0.0000    0.0000    0.0000    0.0000    0.0000  126.4701 
4690.0000    9.5310  -19.7116    6.7830    0.0003    1.0000    0.0003    0.9488    0.0501    0.0000    0.0000    0.0000   11.8750    0.0000   88.1250    0.0000    0.0000    0.0000    0.0000 -999.0000    0.0000    0.0000    0.0000    0.0000    0.0000  126.4756 
4690.5000    9.5790  -19.4006    6.7770    0.0003    1.0000    0.0003    0.9547    0.0444    0.0000    0.0000    0.0000    5.9375    5.9375   88.1250    0.0000    0.0000    0.0000    0.0000 -999.0000    0.0000    0.0000    0.0000    0.0000    0.0000  126.4811 
4691.0000    9.4620  -19.2596    6.7860    0.0002    1.0000    0.0002    0.9574    0.0419    0.0000    0.0000    0.0000    0.0000   11.8750   88.1250    0.0000    0.0000    0.0000    0.0000 -999.0000    0.0000    0.0000    0.0000    0.0000    0.0000  126.4866 
4691.5000    9.2760  -18.9866    6.7740    0.0002    1.0000    0.0002    0.9625    0.0369    0.0000    0.0000    0.0000    0.0000   11.8750   88.1250    0.0000    0.0000    0.0000    0.0000 -999.0000    0.0000    0.0000    0.0000    0.0000    0.0000  126.4921 
4692.0000    9.1780  -18.6396    6.8360    0.0001    1.0000    0.0001    0.9691    0.0305    0.0000    0.0000    0.0000    0.0000   11.8750   88.1250    0.0000    0.0000    0.0000    0.0000 -999.0000    0.0000    0.0000    0.0000    0.0000    0.0000  126.4976 
4692.5000    9.0180  -18.3636    6.8720    0.0001    1.0000    0.0001    0.9743    0.0254    0.0000    0.0000    0.0000    0.0000   11.8750   88.1250    0.0000    0.0000    0.0000    0.0000 -999.0000    0.0000    0.0000    0.0000    0.0000    0.0000  126.5031 
4693.0000    9.1980  -18.1086    6.8910    0.0001    1.0000    0.0001    0.9791    0.0206    0.0000    0.0000    0.0000    0.0000   11.8750   88.1250    0.0000    0.0000    0.0000    0.0000 -999.0000    0.0000    0.0000    0.0000    0.0000    0.0000  126.5085 
4693.5000    9.3470  -17.9186    6.8840    0.0001    1.0000    0.0001    0.9827    0.0170    0.0000    0.0000    0.0000    0.0000   11.8750   88.1250    0.0000    0.0000    0.0000    0.0000 -999.0000    0.0000    0.0000    0.0000    0.0000    0.0000  126.5140 
4694.0000    9.5120  -17.9396    6.9740    0.0001    1.0000    0.0001    0.9823    0.0174    0.0000    0.0000    0.0000    0.0000   11.8750   88.1250    0.0000    0.0000    0.0000    0.0000 -999.0000    0.0000    0.0000    0.0000    0.0000    0.0000  126.5195 
4694.5000    9.6510  -17.9286    7.0740    0.0001    1.0000    0.0001    0.9825    0.0172    0.0000    0.0000    0.0000    0.0000   11.8750   88.1250    0.0000    0.0000    0.0000    0.0000 -999.0000    0.0000    0.0000    0.0000    0.0000    0.0000  126.5250 
4695.0000    9.5230  -17.9736    7.0760    0.0001    1.0000    0.0001    0.9816    0.0180    0.0000    0.0000    0.0000    0.0000   11.8750   88.1250    0.0000    0.0000    0.0000    0.0000 -999.0000    0.0000    0.0000    0.0000    0.0000    0.0000  126.5305 
4695.5000    9.4950  -18.1536    6.9740    0.0001    1.0000    0.0001    0.9782    0.0214    0.0000    0.0000    0.0000    0.0000   11.8750   88.1250    0.0000    0.0000    0.0000    0.0000 -999.0000    0.0000    0.0000    0.0000    0.0000    0.0000  126.5360 
4696.0000    9.5450  -18.4586    6.8860    0.0001    1.0000    0.0001    0.9725    0.0272    0.0000    0.0000    0.0000    0.0000   11.8750   88.1250    0.0000    0.0000    0.0000    0.0000 -999.0000    0.0000    0.0000    0.0000    0.0000    0.0000  126.5415 
4696.5000    9.3400  -18.8146    6.6590    0.0002    1.0000    0.0002    0.9658    0.0337    0.0000    0.0000    0.0000    0.0000   11.8750   88.1250    0.0000    0.0000    0.0000    0.0000 -999.0000    0.0000    0.0000    0.0000    0.0000    0.0000  126.5470 
4697.0000    9.2560  -19.1706    6.4910    0.0002    1.0000    0.0002    0.9590    0.0403    0.0000    0.0000    0.0000    0.0000   11.8750   88.1250    0.0000    0.0000    0.0000    0.0000 -999.0000    0.0000    0.0000    0.0000    0.0000    0.0000  126.5524 
4697.5000    9.1630  -19.2166    6.3380    0.0002    1.0000    0.0002    0.9582    0.0411    0.0000    0.0000    0.0000    0.0000   11.8750   88.1250    0.0000    0.0000    0.0000    0.0000 -999.0000    0.0000    0.0000    0.0000    0.0000    0.0000  126.5579 
4698.0000    8.7900  -19.4346    6.1000    0.0003    1.0000    0.0003    0.9541    0.0451    0.0000    0.0000    0.0000    0.0000   11.8750   88.1250    0.0000    0.0000    0.0000    0.0000 -999.0000    0.0000    0.0000    0.0000    0.0000    0.0000  126.5634 
4698.5000    8.5230  -19.5426    6.0210    0.0003    1.0000    0.0003    0.9520    0.0470    0.0000    0.0000    0.0000    0.0000   11.8750   88.1250    0.0000    0.0000    0.0000    0.0000 -999.0000    0.0000    0.0000    0.0000    0.0000    0.0000  126.5689 
4699.0000    8.3330  -19.6816    5.7960    0.0003    1.0000    0.0003    0.9494    0.0495    0.0000    0.0000    0.0000    0.0000   11.8750   88.1250    0.0000    0.0000    0.0000    0.0000 -999.0000    0.0000    0.0000    0.0000    0.0000    0.0000  126.5744 
4699.5000    8.1370  -19.7446    5.6480    0.0003    1.0000    0.0003    0.9482    0.0507    0.0000    0.0000    0.0000    0.0000   11.8750   88.1250    0.0000    0.0000    0.0000    0.0000 -999.0000    0.0000    0.0000    0.0000    0.0000    0.0000  126.5799 
4700.0000    8.0180  -19.6026    5.4450    0.0003    1.0000    0.0003    0.9509    0.0481    0.0000    0.0000    0.0000    0.0000   11.8750   88.1250    0.0000    0.0000    0.0000    0.0000 -999.0000    0.0000    0.0000    0.0000    0.0000    0.0000  126.5854 
4700.5000    7.9830  -19.3846    5.2860    0.0003    1.0000    0.0003    0.9550    0.0442    0.0000    0.0000    0.0000    0.0000   11.8750   88.1250    0.0000    0.0000    0.0000    0.0000 -999.0000    0.0000    0.0000    0.0000    0.0000    0.0000  126.5909 
4701.0000    8.0070  -19.0216    5.1630    0.0002    1.0000    0.0002    0.9619    0.0375    0.0000    0.0000    0.0000    0.0000   11.8750   88.1250    0.0000    0.0000    0.0000    0.0000 -999.0000    0.0000    0.0000    0.0000    0.0000    0.0000  126.5963 
