~VERSION INFORMATION
 VERS.                 2.0:   CWLS LOG ASCII STANDARD - VERSION 2.0
 WRAP.                  NO:   SINGLE LINE PER DEPTH STEP
 CREA.                 16/2/2017 12:08:22 p. m.
#CREATED USING IP VERSION 4.2.2015.61 BY PANESSOR ON 16/2/2017 12:08:22 p. m.
~WELL INFORMATION
#MNEM.UNIT       DATA                          DESCRIPTION MNEMONIC
#---------      ---------------------------   --------------------------
 STRT    .FT        470.0000                  : START DEPTH
 STOP    .FT        5740.0000                 : STOP DEPTH
 STEP    .FT        0.5000                    : STEP VALUE
 NULL    .      -999.0000                     : NULL VALUE
 DATE    .      16/2/2017                     : LAS file Creation Date
 WELL  .      CRISOL-2      : Well Name
 COMP  .      INTERCOL      : Company
 FLD   .      141-AGUACHICA : Field
 STATE .      MAGDALENA     : State
 COUNT .      COLOMBIA      : Country
 API   .      CRIL0002      : API Number
 UWI   .      100000000372  : Unique Well Identifier (UWI)
 LOC   .                    : Location
 LATI  .      1.0038888889  : Latitude/Northing
 LONG  .      1.0080555556  : Longitude/Easting
 RWS   .      -999          : Def_Rw
 WST   .      -999          : Def_Rwt
 PROV  .                    : Province
 SRVC  .      SCH           : Contractor
~CURVE INFORMATION
#MNEM                UNIT       API CODE     Description
#----------    --------------- ----------  --------------
 DEPTH        .FT                        : 
 RM_IR        .OHMM                      : Resistivity AM 16"
 SPC_IR       .MV                        : Spontaneous Potential
 RD_E_IR      .OHMM                      : Formation Resitivity
 PHIE_IR      .Dec                       : Effective Porosity
 SW_IR        .Dec                       : Water Saturation
 BVW_IR       .Dec                       : Bulk Volume water (Phie x SW)
 VWCL_IR      .Dec                       : Volume wet Clay
 VSILT_IR     .Dec                       : Volume Silt
 CONG_IR      .%                         : Mudlog CONGLOMERATE
 SS_IR        .%                         : Mudlog SANDSTONE
 LS_IR        .%                         : Mudlog LIMESTONE
 MARL_IR      .%                         : Mudlog MARLSTONE
 SLST_IR      .%                         : Mudlog SILSTONE
 SH_IR        .%                         : Mudlog SHALE
 COAL_IR      .%                         : Mudlog  COAL
 IGNEOUS_IR   .%                         : Mudlog IGNEOUS
 ResFlag_IR   .                          : Net Reservoir
 PayFlag_IR   .                          : Net Pay
 PERFS_IR     .B/E                       : Perforations
 Perm_IR      .md                        : Calculated Permeability
 PayFlagRT_IR .                          : Pay Flag Rock Type
 K_PHI_IR     .                          : K/PHI RATIO
 ResFlagRT_IR .                          : Net Reservoir Rock Type
 Rock_Type_IR .microns                   : Pore Throat Size - Rock Types
 Temp_IR      .F                         : Formation Temperature
~P Interactive Petrophysics parameters
#Name        Value                 Description
#----- --------------------------  -----------
#Logging Run 
 RUN  .     1           : Run Number
 DATE .     27/02/1954  : Date                      | RUN[0]
 DFT  .     /           : Type of Fluid in Hole     | RUN[1]
~A  DEPTH   RM_IR     SPC_IR   RD_E_IR   PHIE_IR    SW_IR     BVW_IR   VWCL_IR   VSILT_IR  CONG_IR    SS_IR     LS_IR    MARL_IR   SLST_IR    SH_IR    COAL_IR  IGNEOUS_~ ResFlag_~ PayFlag_~  PERFS_IR  Perm_IR  PayFlagR~  K_PHI_IR ResFlagR~ Rock_Typ~  Temp_IR  
# ...
 842.0000    7.6190  -11.7478    8.7020 -999.0000 -999.0000 -999.0000 -999.0000 -999.0000   35.4290   47.6960    0.0000    0.0000    0.0000   16.8750    0.0000    0.0000    0.0000    0.0000 -999.0000    0.0000    0.0000 -999.0000    0.0000 -999.0000   84.2415 
 842.5000    7.9140  -11.5571    8.7780 -999.0000 -999.0000 -999.0000 -999.0000 -999.0000   35.3620   47.7630    0.0000    0.0000    0.0000   16.8750    0.0000    0.0000    0.0000    0.0000 -999.0000    0.0000    0.0000 -999.0000    0.0000 -999.0000   84.2469 
 843.0000    8.4450  -11.7095    8.9030 -999.0000 -999.0000 -999.0000 -999.0000 -999.0000   35.2950   47.8300    0.0000    0.0000    0.0000   16.8750    0.0000    0.0000    0.0000    0.0000 -999.0000    0.0000    0.0000 -999.0000    0.0000 -999.0000   84.2524 
 843.5000    8.8810  -12.1338    9.0040 -999.0000 -999.0000 -999.0000 -999.0000 -999.0000   35.2285   47.8965    0.0000    0.0000    0.0000   16.8750    0.0000    0.0000    0.0000    0.0000 -999.0000    0.0000    0.0000 -999.0000    0.0000 -999.0000   84.2579 
 844.0000    9.1610  -12.5962    9.3180 -999.0000 -999.0000 -999.0000 -999.0000 -999.0000   35.1620   47.9630    0.0000    0.0000    0.0000   16.8750    0.0000    0.0000    0.0000    0.0000 -999.0000    0.0000    0.0000 -999.0000    0.0000 -999.0000   84.2634 
 844.5000    9.6720  -12.9225    9.6370 -999.0000 -999.0000 -999.0000 -999.0000 -999.0000   35.0950   48.0300    0.0000    0.0000    0.0000   16.8750    0.0000    0.0000    0.0000    0.0000 -999.0000    0.0000    0.0000 -999.0000    0.0000 -999.0000   84.2689 
 845.0000    9.9170  -13.3719    9.9750 -999.0000 -999.0000 -999.0000 -999.0000 -999.0000   35.0280   48.0970    0.0000    0.0000    0.0000   16.8750    0.0000    0.0000    0.0000    0.0000 -999.0000    0.0000    0.0000 -999.0000    0.0000 -999.0000   84.2744 
 845.5000   10.3300  -13.5812   10.3070 -999.0000 -999.0000 -999.0000 -999.0000 -999.0000   34.9615   48.1635    0.0000    0.0000    0.0000   16.8750    0.0000    0.0000    0.0000    0.0000 -999.0000    0.0000    0.0000 -999.0000    0.0000 -999.0000   84.2799 
 846.0000   10.6000  -13.7686   10.6210 -999.0000 -999.0000 -999.0000 -999.0000 -999.0000   34.8950   48.2300    0.0000    0.0000    0.0000   16.8750    0.0000    0.0000    0.0000    0.0000 -999.0000    0.0000    0.0000 -999.0000    0.0000 -999.0000   84.2854 
 846.5000   11.0020  -13.8719   10.9710 -999.0000 -999.0000 -999.0000 -999.0000 -999.0000   34.8280   48.2970    0.0000    0.0000    0.0000   16.8750    0.0000    0.0000    0.0000    0.0000 -999.0000    0.0000    0.0000 -999.0000    0.0000 -999.0000   84.2909 
 847.0000   11.2080  -14.2473   11.3700 -999.0000 -999.0000 -999.0000 -999.0000 -999.0000   34.7610   48.3640    0.0000    0.0000    0.0000   16.8750    0.0000    0.0000    0.0000    0.0000 -999.0000    0.0000    0.0000 -999.0000    0.0000 -999.0000   84.2963 
 847.5000   11.6640  -14.6667   11.8100 -999.0000 -999.0000 -999.0000 -999.0000 -999.0000   34.6945   48.4305    0.0000    0.0000    0.0000   16.8750    0.0000    0.0000    0.0000    0.0000 -999.0000    0.0000    0.0000 -999.0000    0.0000 -999.0000   84.3018 
 848.0000   12.0090  -14.4860   12.2230 -999.0000 -999.0000 -999.0000 -999.0000 -999.0000   34.6280   48.4970    0.0000    0.0000    0.0000   16.8750    0.0000    0.0000    0.0000    0.0000 -999.0000    0.0000    0.0000 -999.0000    0.0000 -999.0000   84.3073 
 848.5000   12.5200  -14.3004   12.6210 -999.0000 -999.0000 -999.0000 -999.0000 -999.0000   34.5610   48.5640    0.0000    0.0000    0.0000   16.8750    0.0000    0.0000    0.0000    0.0000 -999.0000    0.0000    0.0000 -999.0000    0.0000 -999.0000   84.3128 
 849.0000   12.8000  -14.2317   13.0870 -999.0000 -999.0000 -999.0000 -999.0000 -999.0000   34.4940   48.6310    0.0000    0.0000    0.0000   16.8750    0.0000    0.0000    0.0000    0.0000 -999.0000    0.0000    0.0000 -999.0000    0.0000 -999.0000   84.3183 
 849.5000   13.0050  -14.0351   13.4570 -999.0000 -999.0000 -999.0000 -999.0000 -999.0000   34.4345   48.6905    0.0000    0.0000    0.0000   16.8750    0.0000    0.0000    0.0000    0.0000 -999.0000    0.0000    0.0000 -999.0000    0.0000 -999.0000   84.3238 
 850.0000   13.1510  -13.8724   14.0420 -999.0000 -999.0000 -999.0000 -999.0000 -999.0000   34.3750   48.7500    0.0000    0.0000    0.0000   16.8750    0.0000    0.0000    0.0000    0.0000 -999.0000    0.0000    0.0000 -999.0000    0.0000 -999.0000   84.3293 
 850.5000   13.3670  -13.6898   14.5760 -999.0000 -999.0000 -999.0000 -999.0000 -999.0000   18.7485   61.8765    0.0000    0.0000    0.0000   19.3750    0.0000    0.0000    0.0000    0.0000 -999.0000    0.0000    0.0000 -999.0000    0.0000 -999.0000   84.3348 
 851.0000   13.4690  -13.3891   14.7920 -999.0000 -999.0000 -999.0000 -999.0000 -999.0000    3.1220   75.0030    0.0000    0.0000    0.0000   21.8750    0.0000    0.0000    0.0000    0.0000 -999.0000    0.0000    0.0000 -999.0000    0.0000 -999.0000   84.3402 
 851.5000   13.7530  -12.9205   14.8470 -999.0000 -999.0000 -999.0000 -999.0000 -999.0000    1.5610   76.5640    0.0000    0.0000    0.0000   21.8750    0.0000    0.0000    0.0000    0.0000 -999.0000    0.0000    0.0000 -999.0000    0.0000 -999.0000   84.3457 
 852.0000   13.9450  -12.1158   14.8660 -999.0000 -999.0000 -999.0000 -999.0000 -999.0000    0.0000   78.1250    0.0000    0.0000    0.0000   21.8750    0.0000    0.0000    0.0000    0.0000 -999.0000    0.0000    0.0000 -999.0000    0.0000 -999.0000   84.3512 
 852.5000   14.1490  -11.3852   14.8470 -999.0000 -999.0000 -999.0000 -999.0000 -999.0000    0.0000   78.1250    0.0000    0.0000    0.0000   21.8750    0.0000    0.0000    0.0000    0.0000 -999.0000    0.0000    0.0000 -999.0000    0.0000 -999.0000   84.3567 
 853.0000   14.4070  -10.9275   14.5100 -999.0000 -999.0000 -999.0000 -999.0000 -999.0000    0.0000   78.1250    0.0000    0.0000    0.0000   21.8750    0.0000    0.0000    0.0000    0.0000 -999.0000    0.0000    0.0000 -999.0000    0.0000 -999.0000   84.3622 
 853.5000   14.4380  -10.5149   14.0830 -999.0000 -999.0000 -999.0000 -999.0000 -999.0000    0.0000   78.1250    0.0000    0.0000    0.0000   21.8750    0.0000    0.0000    0.0000    0.0000 -999.0000    0.0000    0.0000 -999.0000    0.0000 -999.0000   84.3677 
 854.0000   14.4180  -10.1432   13.6910 -999.0000 -999.0000 -999.0000 -999.0000 -999.0000    0.0000   78.1250    0.0000    0.0000    0.0000   21.8750    0.0000    0.0000    0.0000    0.0000 -999.0000    0.0000    0.0000 -999.0000    0.0000 -999.0000   84.3732 
 854.5000   13.9940  -10.0266   13.3250 -999.0000 -999.0000 -999.0000 -999.0000 -999.0000    0.0000   78.1250    0.0000    0.0000    0.0000   21.8750    0.0000    0.0000    0.0000    0.0000 -999.0000    0.0000    0.0000 -999.0000    0.0000 -999.0000   84.3787 
 855.0000   13.2560  -10.5810   12.7910 -999.0000 -999.0000 -999.0000 -999.0000 -999.0000    0.0000   78.1250    0.0000    0.0000    0.0000   21.8750    0.0000    0.0000    0.0000    0.0000 -999.0000    0.0000    0.0000 -999.0000    0.0000 -999.0000   84.3841 
 855.5000   12.7010  -11.1113   12.0820 -999.0000 -999.0000 -999.0000 -999.0000 -999.0000    0.0000   78.1250    0.0000    0.0000    0.0000   21.8750    0.0000    0.0000    0.0000    0.0000 -999.0000    0.0000    0.0000 -999.0000    0.0000 -999.0000   84.3896 
 856.0000   11.7390  -11.6127   11.4580 -999.0000 -999.0000 -999.0000 -999.0000 -999.0000    0.0000   78.1250    0.0000    0.0000    0.0000   21.8750    0.0000    0.0000    0.0000    0.0000 -999.0000    0.0000    0.0000 -999.0000    0.0000 -999.0000   84.3951 
 856.5000   10.9170  -11.9760   10.9060 -999.0000 -999.0000 -999.0000 -999.0000 -999.0000    0.0000   78.1250    0.0000    0.0000    0.0000   21.8750    0.0000    0.0000    0.0000    0.0000 -999.0000    0.0000    0.0000 -999.0000    0.0000 -999.0000   84.4006 
 857.0000   10.2830  -12.2004   10.6540 -999.0000 -999.0000 -999.0000 -999.0000 -999.0000    0.0000   78.1250    0.0000    0.0000    0.0000   21.8750    0.0000    0.0000    0.0000    0.0000 -999.0000    0.0000    0.0000 -999.0000    0.0000 -999.0000   84.4061 
