~VERSION INFORMATION
 VERS.                 2.0:   CWLS LOG ASCII STANDARD - VERSION 2.0
 WRAP.                  NO:   SINGLE LINE PER DEPTH STEP
 CREA.                 03/05/2017 10:34:44
#CREATED USING IP VERSION 4.2.2015.61 BY PANESSOR ON 03/05/2017 10:34:44
~WELL INFORMATION
#MNEM.UNIT       DATA                          DESCRIPTION MNEMONIC
#---------      ---------------------------   --------------------------
 STRT    .FT        500.0000                  : START DEPTH
 STOP    .FT        5680.0000                 : STOP DEPTH
 STEP    .FT        0.5000                    : STEP VALUE
 NULL    .      -999.0000                     : NULL VALUE
 DATE    .      03/05/2017                    : LAS file Creation Date
 WELL  .      CRISOL-3            : Well Name
 COMP  .      INTERCOL            : Company
 FLD   .      WILDCAT             : Field
 STATE .      MAGDALENA           : State
 COUNT .      COLOMBIA            : Country
 API   .      CRIL0003            : API Number
 UWI   .      100000000377        : Unique Well Identifier (UWI)
 LOC   .      GAUSS ORIGIN BOGOTA : Location
 LATI  .      1                   : Latitude/Northing
 LONG  .      1                   : Longitude/Easting
 RWS   .      -999                : Def_Rw
 WST   .      -999                : Def_Rwt
 CNTY  .      N/A                 : County
 PROV  .                          : Province
 SRVC  .      SCH                 : Contractor
~CURVE INFORMATION
#MNEM                UNIT       API CODE     Description
#----------    --------------- ----------  --------------
 DEPTH        .FT                        : 
 RM_IR        .OHMM                      : Medium Resistivity
 RD_IR        .OHMM                      : Formation Deep Resitivity
 LAT_E_IR     .OHMM                      : Lateral AO18'8"
 SPC_IR       .MV                        : Spontaneous Potential
 PHIE_IR      .Dec                       : Effective Porosity
 SW_IR        .Dec                       : Effective Water Saturation
 BVW_IR       .Dec                       : Bulk Volume water (Phie x SW)
 VWCL_IR      .Dec                       : Volume wet Clay
 VSILT_IR     .Dec                       : Volume Silt
 SLST_IR      .%                         : Mudlog SILSTONE
 SS_IR        .%                         : Mudlog SANDSTONE
 CONG_IR      .%                         : Mudlog CONGLOMERATE
 MARL_IR      .%                         : Mudlog MARLSTONE
 ResFlag_IR   .                          : Net Reservoir
 IGNEOUS_IR   .us/ft                     : Mudlog IGNEOUS
 LS_IR        .us/ft                     : Mudlog LIMESTONE
 SH_IR        .%                         : Mudlog SHALE
 PayFlag_IR   .                          : Net Pay
 Perm_IR      .md                        : Calculated Permeability
 PayFlagRT_IR .                          : Pay Flag Rock Type
 ResFlagRT_IR .                          : Net Reservoir Rock Type
 K_PHI_IR     .                          : K/PHI RATIO
 Rock_Type_IR .microns                   : Pore Throat Size - Rock Types
 Temp_IR      .F                         : Formation Temperature
~P Interactive Petrophysics parameters
#Name        Value                 Description
#----- --------------------------  -----------
#Logging Run 
 RUN  .     1           : Run Number
 DATE .     23/04/1954  : Date                      | RUN[0]
 DFT  .     /           : Type of Fluid in Hole     | RUN[1]
~A  DEPTH   RM_IR     RD_IR    LAT_E_IR   SPC_IR   PHIE_IR    SW_IR     BVW_IR   VWCL_IR   VSILT_IR  SLST_IR    SS_IR    CONG_IR   MARL_IR  ResFlag_~ IGNEOUS_~   LS_IR     SH_IR   PayFlag_~  Perm_IR  PayFlagR~ ResFlagR~  K_PHI_IR Rock_Typ~  Temp_IR  
 500.0000 -999.0000 -999.0000 -999.0000  -37.6119 -999.0000 -999.0000 -999.0000 -999.0000 -999.0000   26.2820   52.5640   21.1540    0.0000    0.0000    0.0000    0.0000    0.0000    0.0000    0.0000    0.0000    0.0000 -999.0000 -999.0000   80.2314 
 500.5000 -999.0000 -999.0000 -999.0000  -37.2014 -999.0000 -999.0000 -999.0000 -999.0000 -999.0000   26.2820   52.5640   21.1540    0.0000    0.0000    0.0000    0.0000    0.0000    0.0000    0.0000    0.0000    0.0000 -999.0000 -999.0000   80.2367 
 501.0000 -999.0000 -999.0000 -999.0000  -36.8588 -999.0000 -999.0000 -999.0000 -999.0000 -999.0000   26.2820   52.5640   21.1540    0.0000    0.0000    0.0000    0.0000    0.0000    0.0000    0.0000    0.0000    0.0000 -999.0000 -999.0000   80.2419 
 501.5000 -999.0000 -999.0000 -999.0000  -35.6398 -999.0000 -999.0000 -999.0000 -999.0000 -999.0000   26.2820   52.5865   21.1315    0.0000    0.0000    0.0000    0.0000    0.0000    0.0000    0.0000    0.0000    0.0000 -999.0000 -999.0000   80.2471 
 502.0000 -999.0000 -999.0000 -999.0000  -34.6882 -999.0000 -999.0000 -999.0000 -999.0000 -999.0000   26.2820   52.6090   21.1090    0.0000    0.0000    0.0000    0.0000    0.0000    0.0000    0.0000    0.0000    0.0000 -999.0000 -999.0000   80.2523 
 502.5000 -999.0000 -999.0000 -999.0000  -33.1851 -999.0000 -999.0000 -999.0000 -999.0000 -999.0000   26.2820   52.6405   21.0775    0.0000    0.0000    0.0000    0.0000    0.0000    0.0000    0.0000    0.0000    0.0000 -999.0000 -999.0000   80.2576 
 503.0000 -999.0000 -999.0000 -999.0000  -31.3198 -999.0000 -999.0000 -999.0000 -999.0000 -999.0000   26.2820   52.6720   21.0460    0.0000    0.0000    0.0000    0.0000    0.0000    0.0000    0.0000    0.0000    0.0000 -999.0000 -999.0000   80.2628 
 503.5000 -999.0000 -999.0000 -999.0000  -30.9556 -999.0000 -999.0000 -999.0000 -999.0000 -999.0000   26.2820   52.7030   21.0150    0.0000    0.0000    0.0000    0.0000    0.0000    0.0000    0.0000    0.0000    0.0000 -999.0000 -999.0000   80.2680 
 504.0000 -999.0000 -999.0000 -999.0000  -28.1451 -999.0000 -999.0000 -999.0000 -999.0000 -999.0000   26.2820   52.7340   20.9840    0.0000    0.0000    0.0000    0.0000    0.0000    0.0000    0.0000    0.0000    0.0000 -999.0000 -999.0000   80.2733 
 504.5000 -999.0000 -999.0000 -999.0000  -25.1340 -999.0000 -999.0000 -999.0000 -999.0000 -999.0000   26.2820   52.7650   20.9530    0.0000    0.0000    0.0000    0.0000    0.0000    0.0000    0.0000    0.0000    0.0000 -999.0000 -999.0000   80.2785 
 505.0000 -999.0000 -999.0000 -999.0000  -23.6256 -999.0000 -999.0000 -999.0000 -999.0000 -999.0000   26.2820   52.7960   20.9220    0.0000    0.0000    0.0000    0.0000    0.0000    0.0000    0.0000    0.0000    0.0000 -999.0000 -999.0000   80.2837 
 505.5000    7.5820 -999.0000 -999.0000  -22.1414 -999.0000 -999.0000 -999.0000 -999.0000 -999.0000   26.2820   52.8270   20.8910    0.0000    0.0000    0.0000    0.0000    0.0000    0.0000    0.0000    0.0000    0.0000 -999.0000 -999.0000   80.2890 
 506.0000    8.5320 -999.0000 -999.0000  -21.6577 -999.0000 -999.0000 -999.0000 -999.0000 -999.0000   26.2820   52.8580   20.8600    0.0000    0.0000    0.0000    0.0000    0.0000    0.0000    0.0000    0.0000    0.0000 -999.0000 -999.0000   80.2942 
 506.5000    9.4830 -999.0000 -999.0000  -20.9819 -999.0000 -999.0000 -999.0000 -999.0000 -999.0000   26.2795   52.8690   20.8515    0.0000    0.0000    0.0000    0.0000    0.0000    0.0000    0.0000    0.0000    0.0000 -999.0000 -999.0000   80.2994 
 507.0000   10.4330    4.4210 -999.0000  -20.3624 -999.0000 -999.0000 -999.0000 -999.0000 -999.0000   26.2770   52.8800   20.8430    0.0000    0.0000    0.0000    0.0000    0.0000    0.0000    0.0000    0.0000    0.0000 -999.0000 -999.0000   80.3047 
 507.5000   11.3830    5.9690 -999.0000  -19.5540 -999.0000 -999.0000 -999.0000 -999.0000 -999.0000   26.2795   52.9155   20.8050    0.0000    0.0000    0.0000    0.0000    0.0000    0.0000    0.0000    0.0000    0.0000 -999.0000 -999.0000   80.3099 
 508.0000   12.3730    7.4550 -999.0000  -19.0567 -999.0000 -999.0000 -999.0000 -999.0000 -999.0000   26.2820   52.9510   20.7670    0.0000    0.0000    0.0000    0.0000    0.0000    0.0000    0.0000    0.0000    0.0000 -999.0000 -999.0000   80.3151 
 508.5000   12.4570    9.3380 -999.0000  -18.6467 -999.0000 -999.0000 -999.0000 -999.0000 -999.0000   26.2820   52.9825   20.7355    0.0000    0.0000    0.0000    0.0000    0.0000    0.0000    0.0000    0.0000    0.0000 -999.0000 -999.0000   80.3204 
 509.0000   12.5180   10.5190 -999.0000  -18.2440 -999.0000 -999.0000 -999.0000 -999.0000 -999.0000   26.2820   53.0140   20.7040    0.0000    0.0000    0.0000    0.0000    0.0000    0.0000    0.0000    0.0000    0.0000 -999.0000 -999.0000   80.3256 
 509.5000   12.5180   11.8620 -999.0000  -17.7667 -999.0000 -999.0000 -999.0000 -999.0000 -999.0000   26.2820   53.0450   20.6730    0.0000    0.0000    0.0000    0.0000    0.0000    0.0000    0.0000    0.0000    0.0000 -999.0000 -999.0000   80.3308 
 510.0000   12.4460   13.0520 -999.0000  -17.5314 -999.0000 -999.0000 -999.0000 -999.0000 -999.0000   26.2820   53.0760   20.6420    0.0000    0.0000    0.0000    0.0000    0.0000    0.0000    0.0000    0.0000    0.0000 -999.0000 -999.0000   80.3361 
 510.5000   12.1050   13.1980 -999.0000  -17.7230 -999.0000 -999.0000 -999.0000 -999.0000 -999.0000   26.2820   53.1070   20.6110    0.0000    0.0000    0.0000    0.0000    0.0000    0.0000    0.0000    0.0000    0.0000 -999.0000 -999.0000   80.3413 
 511.0000   11.7160   13.1250 -999.0000  -17.7946 -999.0000 -999.0000 -999.0000 -999.0000 -999.0000   26.2820   53.1380   20.5800    0.0000    0.0000    0.0000    0.0000    0.0000    0.0000    0.0000    0.0000    0.0000 -999.0000 -999.0000   80.3465 
 511.5000   11.3950   12.6400 -999.0000  -17.9298 -999.0000 -999.0000 -999.0000 -999.0000 -999.0000   26.2820   53.1690   20.5490    0.0000    0.0000    0.0000    0.0000    0.0000    0.0000    0.0000    0.0000    0.0000 -999.0000 -999.0000   80.3517 
 512.0000   10.4950   11.8600 -999.0000  -18.3251 -999.0000 -999.0000 -999.0000 -999.0000 -999.0000   26.2820   53.2000   20.5180    0.0000    0.0000    0.0000    0.0000    0.0000    0.0000    0.0000    0.0000    0.0000 -999.0000 -999.0000   80.3570 
 512.5000    9.7280   11.0330 -999.0000  -18.6693 -999.0000 -999.0000 -999.0000 -999.0000 -999.0000   26.2820   53.2310   20.4870    0.0000    0.0000    0.0000    0.0000    0.0000    0.0000    0.0000    0.0000    0.0000 -999.0000 -999.0000   80.3622 
 513.0000    8.9620   10.3060 -999.0000  -18.6540 -999.0000 -999.0000 -999.0000 -999.0000 -999.0000   26.2820   53.2620   20.4560    0.0000    0.0000    0.0000    0.0000    0.0000    0.0000    0.0000    0.0000    0.0000 -999.0000 -999.0000   80.3674 
 513.5000    8.0620   10.2630 -999.0000  -18.3782 -999.0000 -999.0000 -999.0000 -999.0000 -999.0000   26.2820   53.2930   20.4250    0.0000    0.0000    0.0000    0.0000    0.0000    0.0000    0.0000    0.0000    0.0000 -999.0000 -999.0000   80.3727 
 514.0000    7.6370   10.2880 -999.0000  -17.5667 -999.0000 -999.0000 -999.0000 -999.0000 -999.0000   26.2820   53.3240   20.3940    0.0000    0.0000    0.0000    0.0000    0.0000    0.0000    0.0000    0.0000    0.0000 -999.0000 -999.0000   80.3779 
 514.5000    7.1230   10.5660 -999.0000  -16.8240 -999.0000 -999.0000 -999.0000 -999.0000 -999.0000   26.2820   53.3550   20.3630    0.0000    0.0000    0.0000    0.0000    0.0000    0.0000    0.0000    0.0000    0.0000 -999.0000 -999.0000   80.3831 
 515.0000    6.7030   10.9650 -999.0000  -15.9467 -999.0000 -999.0000 -999.0000 -999.0000 -999.0000   26.2820   53.3860   20.3320    0.0000    0.0000    0.0000    0.0000    0.0000    0.0000    0.0000    0.0000    0.0000 -999.0000 -999.0000   80.3884 
 515.5000    6.6490   11.3490 -999.0000  -15.0840 -999.0000 -999.0000 -999.0000 -999.0000 -999.0000   26.2820   53.4175   20.3005    0.0000    0.0000    0.0000    0.0000    0.0000    0.0000    0.0000    0.0000    0.0000 -999.0000 -999.0000   80.3936 
