~VERSION INFORMATION
 VERS.                 2.0:   CWLS LOG ASCII STANDARD - VERSION 2.0
 WRAP.                  NO:   SINGLE LINE PER DEPTH STEP
 CREA.                 03/05/2017 12:05:25
#CREATED USING IP VERSION 4.2.2015.61 BY PANESSOR ON 03/05/2017 12:05:25
~WELL INFORMATION
#MNEM.UNIT       DATA                          DESCRIPTION MNEMONIC
#---------      ---------------------------   --------------------------
 STRT    .FT        500.0000                  : START DEPTH
 STOP    .FT        4532.0000                 : STOP DEPTH
 STEP    .FT        0.5000                    : STEP VALUE
 NULL    .      -999.0000                     : NULL VALUE
 DATE    .      03/05/2017                    : LAS file Creation Date
 WELL  .      CRISOL-1            : Well Name
 COMP  .      INTERCOL            : Company
 FLD   .      WILDCAT             : Field
 STATE .      CESAR               : State
 COUNT .      COLOMBIA            : Country
 API   .      CRIL0001            : API Number
 UWI   .      CRIL0001            : Unique Well Identifier (UWI)
 LOC   .      GAUSS ORIGIN BOGOTA : Location
 LATI  .      1.0147222222        : Latitude/Northing
 LONG  .      1.0086111111        : Longitude/Easting
 RWS   .      -999                : Def_Rw
 WST   .      -999                : Def_Rwt
 PROV  .                          : Province
 SRVC  .      SCH                 : Contractor
~CURVE INFORMATION
#MNEM                 UNIT       API CODE     Description
#----------     --------------- ----------  --------------
 DEPTH         .FT                        : 
 RM_IR         .OHMM                      : Medium Resistivity
 SPC_IR        .MV                        : Spontaneous Potential
 RD_E_IR       .OHMM                      : Formation Deep Resitivity
 PHIE_IR       .Dec                       : Effective Porosity
 SW_IR         .Dec                       : Effective Water Saturation
 BVW_IR        .Dec                       : Bulk Volume water (Phie x SW)
 VWCL_IR       .Dec                       : Volume wet Clay
 VSILT_IR      .Dec                       : Volume Silt
 Perfs_IR      .B/E                       : Photoelectric Factor
 Perm_IR       .md                        : Calculated Permeability
 CGL_IR        .%                         : Mudlog CONGLOMERATE
 SS_IR         .%                         : Mudlog SANDSTONE
 SLS_IR        .%                         : Mudlog SILSTONE
 CLST_IR       .%                         : Mudlog CLAYSTONE
 SH_IR         .%                         : Mudlog Shale
 MARL_IR       .%                         : Mudlog MARLSTONE
 LS_IR         .%                         : Mudlog LIMESTONE
 ResFlag_IR    .                          : Net Reservoir
 PayFlag_IR    .                          : Net Pay
 K_PHI_IR      .                          : K/PHI RATIO
 PayFlagRT_IR  .                          : Pay Flag Rock Type
 ResFlagRT_IR  .                          : Net Reservoir Rock Type
 Rock_Type_IR  .microns                   : Pore Throat Size - Rock Types
 Temp_IR       .F                         : Formation Temperature
 MUD_WEIGHT_IR .PPG                       : MUD_WEIGHT
~P Interactive Petrophysics parameters
#Name        Value                 Description
#----- --------------------------  -----------
#Logging Run 
 RUN  .     1                    : Run Number
 DATE .     24-OCT-1953          : Date                      | RUN[0]
 BLI  .     2565                 : Btm Log Interval          | RUN[1]
 TLI  .     517                  : Top Log Interval          | RUN[1]
 BS   .     8.625                : Bit Size                  | RUN[1]
 DFT  .     /                    : Type of Fluid in Hole     | RUN[1]
 RM   .     5.9                  : Rm                        | RUN[1]
 MST  .     84                   : at Meas Temp              | RUN[1]
 R1   .     SPS LTDA.            : Remark 1                  | RUN[1]
 R2   .     PLUG BACK 3808 FT.   : Remark 2                  | RUN[1]
 R3   .     ABANDONED GAS WELL.  : Remark 3                  | RUN[1]
#Logging Run 
 RUN  .     2                    : Run Number
 DATE .     14-NOV-1953          : Date                      | RUN[1]
 BLI  .     4053                 : Btm Log Interval          | RUN[2]
 TLI  .     3000                 : Top Log Interval          | RUN[2]
 BS   .     9.625                : Bit Size                  | RUN[2]
 RM   .     3.8                  : Rm                        | RUN[2]
 MST  .     87                   : at Meas Temp              | RUN[2]
 R1   .     SPS LTDA.            : Remark 1                  | RUN[2]
 R2   .     PLUG BACK 3808 FT.   : Remark 2                  | RUN[2]
 R3   .     ABANDONED GAS WELL.  : Remark 3                  | RUN[2]
~A  DEPTH   RM_IR     SPC_IR   RD_E_IR   PHIE_IR    SW_IR     BVW_IR   VWCL_IR   VSILT_IR  Perfs_IR  Perm_IR    CGL_IR    SS_IR     SLS_IR   CLST_IR    SH_IR    MARL_IR    LS_IR   ResFlag_~ PayFlag_~  K_PHI_IR PayFlagR~ ResFlagR~ Rock_Typ~  Temp_IR  MUD_WEIG~ 
# ...
3383.0000    2.8340  -10.9315    2.8340    0.0001    1.0000    0.0001    1.0000    0.0000 -999.0000    0.0000    0.0000    0.0000    0.0000    0.0000  100.0000    0.0000    0.0000    0.0000    0.0000    0.0000    0.0000    0.0000    0.0000  110.8835   10.1000 
3383.5000    2.8455  -10.8486    2.8455    0.0001    1.0000    0.0001    1.0000    0.0000 -999.0000    0.0000    0.0000    0.0000    0.0000    0.0000  100.0000    0.0000    0.0000    0.0000    0.0000    0.0000    0.0000    0.0000    0.0000  110.8881   10.1000 
3384.0000    2.8570  -10.7656    2.8570    0.0001    1.0000    0.0001    1.0000    0.0000 -999.0000    0.0000    0.0000    0.0000    0.0000    0.0000  100.0000    0.0000    0.0000    0.0000    0.0000    0.0000    0.0000    0.0000    0.0000  110.8927   10.1000 
3384.5000    2.8655  -11.2207    2.8655    0.0001    1.0000    0.0001    0.9924    0.0073 -999.0000    0.0000    0.0000    0.0000    0.0000    0.0000  100.0000    0.0000    0.0000    0.0000    0.0000    0.0000    0.0000    0.0000    0.0000  110.8972   10.1000 
3385.0000    2.8740  -11.6758    2.8740    0.0001    1.0000    0.0001    0.9767    0.0230 -999.0000    0.0000    0.0000    0.0000    0.0000    0.0000  100.0000    0.0000    0.0000    0.0000    0.0000    0.0000    0.0000    0.0000    0.0000  110.9018   10.1000 
3385.5000    2.8740  -12.6919    2.8740    0.0004    1.0000    0.0004    0.9417    0.0569 -999.0000    0.0000    0.0000    0.0000    0.0000    0.0000  100.0000    0.0000    0.0000    0.0000    0.0000    0.0000    0.0000    0.0000    0.0000  110.9064   10.1000 
3386.0000    2.8740  -13.7080    2.8740    0.0013    1.0000    0.0013    0.9066    0.0890 -999.0000    0.0000    0.0000    0.0000    0.0000    0.0000  100.0000    0.0000    0.0000    0.0000    0.0000    0.0000    0.0000    0.0000    0.0001  110.9109   10.1000 
3386.5000    2.8390  -13.7641    2.8390    0.0014    1.0000    0.0014    0.9047    0.0907 -999.0000    0.0000    0.0000    0.0000    0.0000    0.0000  100.0000    0.0000    0.0000    0.0000    0.0000    0.0000    0.0000    0.0000    0.0001  110.9155   10.1000 
3387.0000    2.8040  -13.8202    2.8040    0.0015    1.0000    0.0015    0.9028    0.0924 -999.0000    0.0000    0.0000    0.0000    0.0000    0.0000  100.0000    0.0000    0.0000    0.0000    0.0000    0.0000    0.0000    0.0000    0.0001  110.9201   10.1000 
3387.5000    2.7645  -13.3358    2.7645    0.0009    1.0000    0.0009    0.9195    0.0776 -999.0000    0.0000    0.0000    0.0000    0.0000    0.0000  100.0000    0.0000    0.0000    0.0000    0.0000    0.0000    0.0000    0.0000    0.0000  110.9246   10.1000 
3388.0000    2.7250  -12.8514    2.7250    0.0005    1.0000    0.0005    0.9362    0.0621 -999.0000    0.0000    0.0000    0.0000    0.0000    0.0000  100.0000    0.0000    0.0000    0.0000    0.0000    0.0000    0.0000    0.0000    0.0000  110.9292   10.1000 
3388.5000    2.7080  -12.8615    2.7080    0.0005    1.0000    0.0005    0.9358    0.0625 -999.0000    0.0000    0.0000    0.0000    0.0000    0.0000  100.0000    0.0000    0.0000    0.0000    0.0000    0.0000    0.0000    0.0000    0.0000  110.9338   10.1000 
3389.0000    2.6910  -12.8716    2.6910    0.0005    1.0000    0.0005    0.9355    0.0628 -999.0000    0.0000    0.0000    0.0000    0.0000    0.0000  100.0000    0.0000    0.0000    0.0000    0.0000    0.0000    0.0000    0.0000    0.0000  110.9383   10.1000 
3389.5000    2.7070  -13.0107    2.7070    0.0006    1.0000    0.0006    0.9307    0.0673 -999.0000    0.0000    0.0000    0.0000    0.0000    0.0000  100.0000    0.0000    0.0000    0.0000    0.0000    0.0000    0.0000    0.0000    0.0000  110.9429   10.1000 
3390.0000    2.7230  -13.1497    2.7230    0.0007    1.0000    0.0007    0.9259    0.0717 -999.0000    0.0000    0.0000    0.0000    0.0000    0.0000  100.0000    0.0000    0.0000    0.0000    0.0000    0.0000    0.0000    0.0000    0.0000  110.9474   10.1000 
3390.5000    2.7415  -13.1393    2.7415    0.0007    1.0000    0.0007    0.9262    0.0714 -999.0000    0.0000    0.0000    0.0000    0.0000    0.0000  100.0000    0.0000    0.0000    0.0000    0.0000    0.0000    0.0000    0.0000    0.0000  110.9520   10.1000 
3391.0000    2.7600  -13.1289    2.7600    0.0007    1.0000    0.0007    0.9266    0.0710 -999.0000    0.0000    0.0000    0.0000    0.0000    0.0000  100.0000    0.0000    0.0000    0.0000    0.0000    0.0000    0.0000    0.0000    0.0000  110.9566   10.1000 
3391.5000    2.7690  -13.0195    2.7690    0.0006    1.0000    0.0006    0.9304    0.0676 -999.0000    0.0000    0.0000    0.0000    0.0000    0.0000  100.0000    0.0000    0.0000    0.0000    0.0000    0.0000    0.0000    0.0000    0.0000  110.9611   10.1000 
3392.0000    2.7780  -12.9101    2.7780    0.0006    1.0000    0.0006    0.9341    0.0640 -999.0000    0.0000    0.0000    0.0000    0.0000    0.0000  100.0000    0.0000    0.0000    0.0000    0.0000    0.0000    0.0000    0.0000    0.0000  110.9657   10.1000 
3392.5000    2.7295  -12.8212    2.7295    0.0005    1.0000    0.0005    0.9372    0.0611 -999.0000    0.0000    0.0000    0.0000    0.0000    0.0000  100.0000    0.0000    0.0000    0.0000    0.0000    0.0000    0.0000    0.0000    0.0000  110.9703   10.1000 
3393.0000    2.6810  -12.7323    2.6810    0.0004    1.0000    0.0004    0.9403    0.0583 -999.0000    0.0000    0.0000    0.0000    0.0000    0.0000  100.0000    0.0000    0.0000    0.0000    0.0000    0.0000    0.0000    0.0000    0.0000  110.9748   10.1000 
3393.5000    2.5855  -12.7584    2.5855    0.0005    1.0000    0.0005    0.9394    0.0591 -999.0000    0.0000    0.0000    0.0000    0.0000    0.0000  100.0000    0.0000    0.0000    0.0000    0.0000    0.0000    0.0000    0.0000    0.0000  110.9794   10.1000 
3394.0000    2.4900  -12.7845    2.4900    0.0005    1.0000    0.0005    0.9385    0.0600 -999.0000    0.0000    0.0000    0.0000    0.0000    0.0000  100.0000    0.0000    0.0000    0.0000    0.0000    0.0000    0.0000    0.0000    0.0000  110.9840   10.1000 
3394.5000    2.4045  -12.9461    2.4045    0.0006    1.0000    0.0006    0.9329    0.0652 -999.0000    0.0000    0.0000    0.0000    0.0000    0.0000  100.0000    0.0000    0.0000    0.0000    0.0000    0.0000    0.0000    0.0000    0.0000  110.9885   10.1000 
3395.0000    2.3190  -13.1077    2.3190    0.0007    1.0000    0.0007    0.9273    0.0704 -999.0000    0.0000    0.0000    0.0000    0.0000    0.0000  100.0000    0.0000    0.0000    0.0000    0.0000    0.0000    0.0000    0.0000    0.0000  110.9931   10.1000 
3395.5000    2.3720  -13.2763    2.3720    0.0008    1.0000    0.0008    0.9215    0.0757 -999.0000    0.0000    0.0000    0.0000    0.0000    0.0000  100.0000    0.0000    0.0000    0.0000    0.0000    0.0000    0.0000    0.0000    0.0000  110.9977   10.1000 
3396.0000    2.4250  -13.4449    2.4250    0.0010    1.0000    0.0010    0.9157    0.0810 -999.0000    0.0000    0.0000    0.0000    0.0000    0.0000  100.0000    0.0000    0.0000    0.0000    0.0000    0.0000    0.0000    0.0000    0.0000  111.0022   10.1000 
3396.5000    2.5530  -14.0719    2.5530    0.0019    1.0000    0.0019    0.8941    0.0998 -999.0000    0.0000    0.0000    0.0000    0.0000    0.0000  100.0000    0.0000    0.0000    0.0000    0.0000    0.0000    0.0000    0.0000    0.0001  111.0068   10.1000 
3397.0000    2.6810  -14.6990    2.6810    0.0032    1.0000    0.0032    0.8724    0.1168 -999.0000    0.0000    0.0000    0.0000    0.0000    0.0000  100.0000    0.0000    0.0000    0.0000    0.0000    0.0000    0.0000    0.0000    0.0003  111.0114   10.1000 
3397.5000    2.5915  -14.7286    2.5915    0.0033    1.0000    0.0033    0.8714    0.1175 -999.0000    0.0000    0.0000    0.0000    0.0000    0.0000  100.0000    0.0000    0.0000    0.0000    0.0000    0.0000    0.0000    0.0000    0.0003  111.0159   10.1000 
3398.0000    2.5020  -14.7582    2.5020    0.0034    1.0000    0.0034    0.8704    0.1182 -999.0000    0.0000    0.0000    0.0000    0.0000    0.0000  100.0000    0.0000    0.0000    0.0000    0.0000    0.0000    0.0000    0.0000    0.0003  111.0205   10.1000 
