~VERSION INFORMATION
 VERS.                 2.0:   CWLS LOG ASCII STANDARD - VERSION 2.0
 WRAP.                  NO:   SINGLE LINE PER DEPTH STEP
 CREA.                 16/2/2017 12:08:22 p. m.
#CREATED USING IP VERSION 4.2.2015.61 BY PANESSOR ON 16/2/2017 12:08:22 p. m.
~WELL INFORMATION
#MNEM.UNIT       DATA                          DESCRIPTION MNEMONIC
#---------      ---------------------------   --------------------------
 STRT    .FT        470.0000                  : START DEPTH
 STOP    .FT        5740.0000                 : STOP DEPTH
 STEP    .FT        0.5000                    : STEP VALUE
 NULL    .      -999.0000                     : NULL VALUE
 DATE    .      16/2/2017                     : LAS file Creation Date
 WELL  .      CRISOL-2      : Well Name
 COMP  .      INTERCOL      : Company
 FLD   .      141-AGUACHICA : Field
 STATE .      MAGDALENA     : State
 COUNT .      COLOMBIA      : Country
 API   .      CRIL0002      : API Number
 UWI   .      100000000372  : Unique Well Identifier (UWI)
 LOC   .                    : Location
 LATI  .      1.0038888889  : Latitude/Northing
 LONG  .      1.0080555556  : Longitude/Easting
 RWS   .      -999          : Def_Rw
 WST   .      -999          : Def_Rwt
 PROV  .                    : Province
 SRVC  .      SCH           : Contractor
~CURVE INFORMATION
#MNEM                UNIT       API CODE     Description
#----------    --------------- ----------  --------------
 DEPTH        .FT                        : 
 RM_IR        .OHMM                      : Resistivity AM 16"
 SPC_IR       .MV                        : Spontaneous Potential
 RD_E_IR      .OHMM                      : Formation Resitivity
 PHIE_IR      .Dec                       : Effective Porosity
 SW_IR        .Dec                       : Water Saturation
 BVW_IR       .Dec                       : Bulk Volume water (Phie x SW)
 VWCL_IR      .Dec                       : Volume wet Clay
 VSILT_IR     .Dec                       : Volume Silt
 CONG_IR      .%                         : Mudlog CONGLOMERATE
 SS_IR        .%                         : Mudlog SANDSTONE
 LS_IR        .%                         : Mudlog LIMESTONE
 MARL_IR      .%                         : Mudlog MARLSTONE
 SLST_IR      .%                         : Mudlog SILSTONE
 SH_IR        .%                         : Mudlog SHALE
 COAL_IR      .%                         : Mudlog  COAL
 IGNEOUS_IR   .%                         : Mudlog IGNEOUS
 ResFlag_IR   .                          : Net Reservoir
 PayFlag_IR   .                          : Net Pay
 PERFS_IR     .B/E                       : Perforations
 Perm_IR      .md                        : Calculated Permeability
 PayFlagRT_IR .                          : Pay Flag Rock Type
 K_PHI_IR     .                          : K/PHI RATIO
 ResFlagRT_IR .                          : Net Reservoir Rock Type
 Rock_Type_IR .microns                   : Pore Throat Size - Rock Types
 Temp_IR      .F                         : Formation Temperature
~P Interactive Petrophysics parameters
#Name        Value                 Description
#----- --------------------------  -----------
#Logging Run 
 RUN  .     1           : Run Number
 DATE .     27/02/1954  : Date                      | RUN[0]
 DFT  .     /           : Type of Fluid in Hole     | RUN[1]
~A  DEPTH   RM_IR     SPC_IR   RD_E_IR   PHIE_IR    SW_IR     BVW_IR   VWCL_IR   VSILT_IR  CONG_IR    SS_IR     LS_IR    MARL_IR   SLST_IR    SH_IR    COAL_IR  IGNEOUS_~ ResFlag_~ PayFlag_~  PERFS_IR  Perm_IR  PayFlagR~  K_PHI_IR ResFlagR~ Rock_Typ~  Temp_IR  
# ...
2237.0000    6.0790  -12.2388    6.3570 -999.0000 -999.0000 -999.0000 -999.0000 -999.0000    0.0000   54.3750    0.0000    0.0000    0.0000   45.6250    0.0000    0.0000    0.0000    0.0000 -999.0000    0.0000    0.0000 -999.0000    0.0000 -999.0000   99.5524 
2237.5000    6.1240  -12.0447    6.1500 -999.0000 -999.0000 -999.0000 -999.0000 -999.0000    0.0000   54.3750    0.0000    0.0000    0.0000   45.6250    0.0000    0.0000    0.0000    0.0000 -999.0000    0.0000    0.0000 -999.0000    0.0000 -999.0000   99.5579 
2238.0000    6.0420  -12.1035    5.8310 -999.0000 -999.0000 -999.0000 -999.0000 -999.0000    0.0000   54.3750    0.0000    0.0000    0.0000   45.6250    0.0000    0.0000    0.0000    0.0000 -999.0000    0.0000    0.0000 -999.0000    0.0000 -999.0000   99.5634 
2238.5000    6.4030  -12.0964    5.8230 -999.0000 -999.0000 -999.0000 -999.0000 -999.0000    0.0000   54.3750    0.0000    0.0000    0.0000   45.6250    0.0000    0.0000    0.0000    0.0000 -999.0000    0.0000    0.0000 -999.0000    0.0000 -999.0000   99.5689 
2239.0000    6.3570  -12.1773    5.8990 -999.0000 -999.0000 -999.0000 -999.0000 -999.0000    0.0000   54.3750    0.0000    0.0000    0.0000   45.6250    0.0000    0.0000    0.0000    0.0000 -999.0000    0.0000    0.0000 -999.0000    0.0000 -999.0000   99.5744 
2239.5000    6.2370  -12.6781    6.0080 -999.0000 -999.0000 -999.0000 -999.0000 -999.0000    0.0000   54.3750    0.0000    0.0000    0.0000   45.6250    0.0000    0.0000    0.0000    0.0000 -999.0000    0.0000    0.0000 -999.0000    0.0000 -999.0000   99.5799 
2240.0000    6.2200  -13.2010    6.1000 -999.0000 -999.0000 -999.0000 -999.0000 -999.0000    0.0000   54.3750    0.0000    0.0000    0.0000   45.6250    0.0000    0.0000    0.0000    0.0000 -999.0000    0.0000    0.0000 -999.0000    0.0000 -999.0000   99.5854 
2240.5000    6.3490  -13.7928    6.2280 -999.0000 -999.0000 -999.0000 -999.0000 -999.0000    0.0000   54.3750    0.0000    0.0000    0.0000   45.6250    0.0000    0.0000    0.0000    0.0000 -999.0000    0.0000    0.0000 -999.0000    0.0000 -999.0000   99.5909 
2241.0000    6.3490  -13.9567    6.3450 -999.0000 -999.0000 -999.0000 -999.0000 -999.0000    0.0000   54.3750    0.0000    0.0000    0.0000   45.6250    0.0000    0.0000    0.0000    0.0000 -999.0000    0.0000    0.0000 -999.0000    0.0000 -999.0000   99.5963 
2241.5000    6.3040  -14.1095    6.4420 -999.0000 -999.0000 -999.0000 -999.0000 -999.0000    0.0000   54.3750    0.0000    0.0000    0.0000   45.6250    0.0000    0.0000    0.0000    0.0000 -999.0000    0.0000    0.0000 -999.0000    0.0000 -999.0000   99.6018 
2242.0000    6.0380  -14.1414    6.4590 -999.0000 -999.0000 -999.0000 -999.0000 -999.0000    0.0000   54.3750    0.0000    0.0000    0.0000   45.6250    0.0000    0.0000    0.0000    0.0000 -999.0000    0.0000    0.0000 -999.0000    0.0000 -999.0000   99.6073 
2242.5000    5.9090  -14.1262    6.4410 -999.0000 -999.0000 -999.0000 -999.0000 -999.0000    0.0000   54.3750    0.0000    0.0000    0.0000   45.6250    0.0000    0.0000    0.0000    0.0000 -999.0000    0.0000    0.0000 -999.0000    0.0000 -999.0000   99.6128 
2243.0000    5.9190  -14.2921    6.3790 -999.0000 -999.0000 -999.0000 -999.0000 -999.0000    0.0000   54.3750    0.0000    0.0000    0.0000   45.6250    0.0000    0.0000    0.0000    0.0000 -999.0000    0.0000    0.0000 -999.0000    0.0000 -999.0000   99.6183 
2243.5000    5.9160  -14.3389    6.3660 -999.0000 -999.0000 -999.0000 -999.0000 -999.0000    0.0000   54.3750    0.0000    0.0000    0.0000   45.6250    0.0000    0.0000    0.0000    0.0000 -999.0000    0.0000    0.0000 -999.0000    0.0000 -999.0000   99.6238 
2244.0000    5.9010  -14.3488    6.2770 -999.0000 -999.0000 -999.0000 -999.0000 -999.0000    0.0000   54.3750    0.0000    0.0000    0.0000   45.6250    0.0000    0.0000    0.0000    0.0000 -999.0000    0.0000    0.0000 -999.0000    0.0000 -999.0000   99.6293 
2244.5000    5.7780  -14.3516    6.1990 -999.0000 -999.0000 -999.0000 -999.0000 -999.0000    0.0000   54.3750    0.0000    0.0000    0.0000   45.6250    0.0000    0.0000    0.0000    0.0000 -999.0000    0.0000    0.0000 -999.0000    0.0000 -999.0000   99.6348 
2245.0000    5.7000  -14.2895    6.1700 -999.0000 -999.0000 -999.0000 -999.0000 -999.0000    0.0000   54.3750    0.0000    0.0000    0.0000   45.6250    0.0000    0.0000    0.0000    0.0000 -999.0000    0.0000    0.0000 -999.0000    0.0000 -999.0000   99.6402 
2245.5000    5.6460  -14.0423    6.1060 -999.0000 -999.0000 -999.0000 -999.0000 -999.0000    0.0000   54.3750    0.0000    0.0000    0.0000   45.6250    0.0000    0.0000    0.0000    0.0000 -999.0000    0.0000    0.0000 -999.0000    0.0000 -999.0000   99.6457 
2246.0000    5.6290  -13.9212    6.2340 -999.0000 -999.0000 -999.0000 -999.0000 -999.0000    0.0000   54.3750    0.0000    0.0000    0.0000   45.6250    0.0000    0.0000    0.0000    0.0000 -999.0000    0.0000    0.0000 -999.0000    0.0000 -999.0000   99.6512 
2246.5000    5.6280  -13.7100    6.2200 -999.0000 -999.0000 -999.0000 -999.0000 -999.0000    0.0000   54.3750    0.0000    0.0000    0.0000   45.6250    0.0000    0.0000    0.0000    0.0000 -999.0000    0.0000    0.0000 -999.0000    0.0000 -999.0000   99.6567 
2247.0000    5.6320  -13.5359    6.1600 -999.0000 -999.0000 -999.0000 -999.0000 -999.0000    0.0000   54.3750    0.0000    0.0000    0.0000   45.6250    0.0000    0.0000    0.0000    0.0000 -999.0000    0.0000    0.0000 -999.0000    0.0000 -999.0000   99.6622 
2247.5000    5.6280  -13.4187    6.0900 -999.0000 -999.0000 -999.0000 -999.0000 -999.0000    0.0000   54.3750    0.0000    0.0000    0.0000   45.6250    0.0000    0.0000    0.0000    0.0000 -999.0000    0.0000    0.0000 -999.0000    0.0000 -999.0000   99.6677 
2248.0000    5.6310  -13.1926    6.1010 -999.0000 -999.0000 -999.0000 -999.0000 -999.0000    0.0000   54.3750    0.0000    0.0000    0.0000   45.6250    0.0000    0.0000    0.0000    0.0000 -999.0000    0.0000    0.0000 -999.0000    0.0000 -999.0000   99.6732 
2248.5000    5.6280  -13.0655    6.0950 -999.0000 -999.0000 -999.0000 -999.0000 -999.0000    0.0000   54.3750    0.0000    0.0000    0.0000   45.6250    0.0000    0.0000    0.0000    0.0000 -999.0000    0.0000    0.0000 -999.0000    0.0000 -999.0000   99.6787 
2249.0000    5.6320  -13.1473    6.1010 -999.0000 -999.0000 -999.0000 -999.0000 -999.0000    0.0000   54.3750    0.0000    0.0000    0.0000   45.6250    0.0000    0.0000    0.0000    0.0000 -999.0000    0.0000    0.0000 -999.0000    0.0000 -999.0000   99.6841 
2249.5000    5.6100  -13.1762    6.0690 -999.0000 -999.0000 -999.0000 -999.0000 -999.0000    0.0000   54.3750    0.0000    0.0000    0.0000   45.6250    0.0000    0.0000    0.0000    0.0000 -999.0000    0.0000    0.0000 -999.0000    0.0000 -999.0000   99.6896 
2250.0000    5.6410  -13.1830    6.0610 -999.0000 -999.0000 -999.0000 -999.0000 -999.0000    0.0000   54.3750    0.0000    0.0000    0.0000   45.6250    0.0000    0.0000    0.0000    0.0000 -999.0000    0.0000    0.0000 -999.0000    0.0000 -999.0000   99.6951 
2250.5000    5.7470  -13.1969    6.0610 -999.0000 -999.0000 -999.0000 -999.0000 -999.0000    0.0000   52.5060    0.0000    0.0000    0.0000   47.4940    0.0000    0.0000    0.0000    0.0000 -999.0000    0.0000    0.0000 -999.0000    0.0000 -999.0000   99.7006 
2251.0000    5.7750  -13.1817    6.0610 -999.0000 -999.0000 -999.0000 -999.0000 -999.0000    0.0000   50.6370    0.0000    0.0000    0.0000   49.3630    0.0000    0.0000    0.0000    0.0000 -999.0000    0.0000    0.0000 -999.0000    0.0000 -999.0000   99.7061 
2251.5000    5.8910  -13.3506    6.0630 -999.0000 -999.0000 -999.0000 -999.0000 -999.0000    0.0000   50.6580    0.0000    0.0000    0.0000   49.3420    0.0000    0.0000    0.0000    0.0000 -999.0000    0.0000    0.0000 -999.0000    0.0000 -999.0000   99.7116 
2252.0000    5.9810  -13.3954    6.0620 -999.0000 -999.0000 -999.0000 -999.0000 -999.0000    0.0000   50.6790    0.0000    0.0000    0.0000   49.3210    0.0000    0.0000    0.0000    0.0000 -999.0000    0.0000    0.0000 -999.0000    0.0000 -999.0000   99.7171 
