~VERSION INFORMATION
 VERS.                 2.0:   CWLS LOG ASCII STANDARD - VERSION 2.0
 WRAP.                  NO:   SINGLE LINE PER DEPTH STEP
 CREA.                 03/05/2017 10:34:44
#CREATED USING IP VERSION 4.2.2015.61 BY PANESSOR ON 03/05/2017 10:34:44
~WELL INFORMATION
#MNEM.UNIT       DATA                          DESCRIPTION MNEMONIC
#---------      ---------------------------   --------------------------
 STRT    .FT        500.0000                  : START DEPTH
 STOP    .FT        5680.0000                 : STOP DEPTH
 STEP    .FT        0.5000                    : STEP VALUE
 NULL    .      -999.0000                     : NULL VALUE
 DATE    .      03/05/2017                    : LAS file Creation Date
 WELL  .      CRISOL-3            : Well Name
 COMP  .      INTERCOL            : Company
 FLD   .      WILDCAT             : Field
 STATE .      MAGDALENA           : State
 COUNT .      COLOMBIA            : Country
 API   .      CRIL0003            : API Number
 UWI   .      100000000377        : Unique Well Identifier (UWI)
 LOC   .      GAUSS ORIGIN BOGOTA : Location
 LATI  .      1                   : Latitude/Northing
 LONG  .      1                   : Longitude/Easting
 RWS   .      -999                : Def_Rw
 WST   .      -999                : Def_Rwt
 CNTY  .      N/A                 : County
 PROV  .                          : Province
 SRVC  .      SCH                 : Contractor
~CURVE INFORMATION
#MNEM                UNIT       API CODE     Description
#----------    --------------- ----------  --------------
 DEPTH        .FT                        : 
 RM_IR        .OHMM                      : Medium Resistivity
 RD_IR        .OHMM                      : Formation Deep Resitivity
 LAT_E_IR     .OHMM                      : Lateral AO18'8"
 SPC_IR       .MV                        : Spontaneous Potential
 PHIE_IR      .Dec                       : Effective Porosity
 SW_IR        .Dec                       : Effective Water Saturation
 BVW_IR       .Dec                       : Bulk Volume water (Phie x SW)
 VWCL_IR      .Dec                       : Volume wet Clay
 VSILT_IR     .Dec                       : Volume Silt
 SLST_IR      .%                         : Mudlog SILSTONE
 SS_IR        .%                         : Mudlog SANDSTONE
 CONG_IR      .%                         : Mudlog CONGLOMERATE
 MARL_IR      .%                         : Mudlog MARLSTONE
 ResFlag_IR   .                          : Net Reservoir
 IGNEOUS_IR   .us/ft                     : Mudlog IGNEOUS
 LS_IR        .us/ft                     : Mudlog LIMESTONE
 SH_IR        .%                         : Mudlog SHALE
 PayFlag_IR   .                          : Net Pay
 Perm_IR      .md                        : Calculated Permeability
 PayFlagRT_IR .                          : Pay Flag Rock Type
 ResFlagRT_IR .                          : Net Reservoir Rock Type
 K_PHI_IR     .                          : K/PHI RATIO
 Rock_Type_IR .microns                   : Pore Throat Size - Rock Types
 Temp_IR      .F                         : Formation Temperature
~P Interactive Petrophysics parameters
#Name        Value                 Description
#----- --------------------------  -----------
#Logging Run 
 RUN  .     1           : Run Number
 DATE .     23/04/1954  : Date                      | RUN[0]
 DFT  .     /           : Type of Fluid in Hole     | RUN[1]
~A  DEPTH   RM_IR     RD_IR    LAT_E_IR   SPC_IR   PHIE_IR    SW_IR     BVW_IR   VWCL_IR   VSILT_IR  SLST_IR    SS_IR    CONG_IR   MARL_IR  ResFlag_~ IGNEOUS_~   LS_IR     SH_IR   PayFlag_~  Perm_IR  PayFlagR~ ResFlagR~  K_PHI_IR Rock_Typ~  Temp_IR  
# ...
1524.0000    6.6490    8.7340   15.2450  -15.3448 -999.0000 -999.0000 -999.0000 -999.0000 -999.0000    0.0000   13.4620    0.0000    0.0000    0.0000    0.0000    0.0000   86.5380    0.0000    0.0000    0.0000    0.0000 -999.0000 -999.0000   90.9454 
1524.5000    6.6020    8.7710   14.9950  -15.3768 -999.0000 -999.0000 -999.0000 -999.0000 -999.0000    0.0000   13.4620    0.0000    0.0000    0.0000    0.0000    0.0000   86.5380    0.0000    0.0000    0.0000    0.0000 -999.0000 -999.0000   90.9506 
1525.0000    6.5400    8.8380   14.7080  -15.4368 -999.0000 -999.0000 -999.0000 -999.0000 -999.0000    0.0000   13.4620    0.0000    0.0000    0.0000    0.0000    0.0000   86.5380    0.0000    0.0000    0.0000    0.0000 -999.0000 -999.0000   90.9558 
1525.5000    6.4670    8.9110   14.4800  -15.4684 -999.0000 -999.0000 -999.0000 -999.0000 -999.0000    0.0000   13.4620    0.0000    0.0000    0.0000    0.0000    0.0000   86.5380    0.0000    0.0000    0.0000    0.0000 -999.0000 -999.0000   90.9611 
1526.0000    6.4670    8.9510   14.2550  -15.5304 -999.0000 -999.0000 -999.0000 -999.0000 -999.0000    0.0000   13.4620    0.0000    0.0000    0.0000    0.0000    0.0000   86.5380    0.0000    0.0000    0.0000    0.0000 -999.0000 -999.0000   90.9663 
1526.5000    6.4670    8.9870   14.0780  -15.5583 -999.0000 -999.0000 -999.0000 -999.0000 -999.0000    0.0000   13.4620    0.0000    0.0000    0.0000    0.0000    0.0000   86.5380    0.0000    0.0000    0.0000    0.0000 -999.0000 -999.0000   90.9715 
1527.0000    6.5400    8.9840   14.0090  -15.6251 -999.0000 -999.0000 -999.0000 -999.0000 -999.0000    0.0000   13.4620    0.0000    0.0000    0.0000    0.0000    0.0000   86.5380    0.0000    0.0000    0.0000    0.0000 -999.0000 -999.0000   90.9768 
1527.5000    6.7210    8.9850   13.9380  -15.5593 -999.0000 -999.0000 -999.0000 -999.0000 -999.0000    0.0000   13.4620    0.0000    0.0000    0.0000    0.0000    0.0000   86.5380    0.0000    0.0000    0.0000    0.0000 -999.0000 -999.0000   90.9820 
1528.0000    6.9380    8.8830   14.0540  -15.5187 -999.0000 -999.0000 -999.0000 -999.0000 -999.0000    0.0000   13.4620    0.0000    0.0000    0.0000    0.0000    0.0000   86.5380    0.0000    0.0000    0.0000    0.0000 -999.0000 -999.0000   90.9872 
1528.5000    7.0530    8.8790   14.2600  -15.4229 -999.0000 -999.0000 -999.0000 -999.0000 -999.0000    0.0000   13.4620    0.0000    0.0000    0.0000    0.0000    0.0000   86.5380    0.0000    0.0000    0.0000    0.0000 -999.0000 -999.0000   90.9925 
1529.0000    7.3010    8.7730   14.9330  -15.1787 -999.0000 -999.0000 -999.0000 -999.0000 -999.0000    0.0000   13.4620    0.0000    0.0000    0.0000    0.0000    0.0000   86.5380    0.0000    0.0000    0.0000    0.0000 -999.0000 -999.0000   90.9977 
1529.5000    7.3610    8.7380   15.4690  -15.1060 -999.0000 -999.0000 -999.0000 -999.0000 -999.0000    0.0000   13.4620    0.0000    0.0000    0.0000    0.0000    0.0000   86.5380    0.0000    0.0000    0.0000    0.0000 -999.0000 -999.0000   91.0029 
1530.0000    7.4330    8.7410   15.8870  -14.8976 -999.0000 -999.0000 -999.0000 -999.0000 -999.0000    0.0000   13.4620    0.0000    0.0000    0.0000    0.0000    0.0000   86.5380    0.0000    0.0000    0.0000    0.0000 -999.0000 -999.0000   91.0082 
1530.5000    7.5040    8.8470   16.5000  -14.6917 -999.0000 -999.0000 -999.0000 -999.0000 -999.0000    0.0000   13.4620    0.0000    0.0000    0.0000    0.0000    0.0000   86.5380    0.0000    0.0000    0.0000    0.0000 -999.0000 -999.0000   91.0134 
1531.0000    7.5910    8.9510   16.9460  -14.5022 -999.0000 -999.0000 -999.0000 -999.0000 -999.0000    0.0000   13.4620    0.0000    0.0000    0.0000    0.0000    0.0000   86.5380    0.0000    0.0000    0.0000    0.0000 -999.0000 -999.0000   91.0186 
1531.5000    7.5360    9.0600   16.9560  -14.4985 -999.0000 -999.0000 -999.0000 -999.0000 -999.0000    0.0000   13.4620    0.0000    0.0000    0.0000    0.0000    0.0000   86.5380    0.0000    0.0000    0.0000    0.0000 -999.0000 -999.0000   91.0238 
1532.0000    7.4680    9.1660   16.7880  -14.4911 -999.0000 -999.0000 -999.0000 -999.0000 -999.0000    0.0000   13.4620    0.0000    0.0000    0.0000    0.0000    0.0000   86.5380    0.0000    0.0000    0.0000    0.0000 -999.0000 -999.0000   91.0291 
1532.5000    7.4000    9.2750   16.3430  -14.4964 -999.0000 -999.0000 -999.0000 -999.0000 -999.0000    0.0000   13.4620    0.0000    0.0000    0.0000    0.0000    0.0000   86.5380    0.0000    0.0000    0.0000    0.0000 -999.0000 -999.0000   91.0343 
1533.0000    7.3550    9.3780   16.1210  -14.4921 -999.0000 -999.0000 -999.0000 -999.0000 -999.0000    0.0000   13.4620    0.0000    0.0000    0.0000    0.0000    0.0000   86.5380    0.0000    0.0000    0.0000    0.0000 -999.0000 -999.0000   91.0396 
1533.5000    7.3370    9.4910   15.8830  -14.5584 -999.0000 -999.0000 -999.0000 -999.0000 -999.0000    0.0000   13.4620    0.0000    0.0000    0.0000    0.0000    0.0000   86.5380    0.0000    0.0000    0.0000    0.0000 -999.0000 -999.0000   91.0448 
1534.0000    7.3370    9.5720   15.6590  -14.5873 -999.0000 -999.0000 -999.0000 -999.0000 -999.0000    0.0000   13.4620    0.0000    0.0000    0.0000    0.0000    0.0000   86.5380    0.0000    0.0000    0.0000    0.0000 -999.0000 -999.0000   91.0500 
1534.5000    7.3370    9.6710   15.4130  -14.6815 -999.0000 -999.0000 -999.0000 -999.0000 -999.0000    0.0000   13.4620    0.0000    0.0000    0.0000    0.0000    0.0000   86.5380    0.0000    0.0000    0.0000    0.0000 -999.0000 -999.0000   91.0552 
1535.0000    7.3370    9.7110   15.1980  -14.7809 -999.0000 -999.0000 -999.0000 -999.0000 -999.0000    0.0000   13.4620    0.0000    0.0000    0.0000    0.0000    0.0000   86.5380    0.0000    0.0000    0.0000    0.0000 -999.0000 -999.0000   91.0605 
1535.5000    7.3370    9.7510   14.9800  -14.9072 -999.0000 -999.0000 -999.0000 -999.0000 -999.0000    0.0000   13.4620    0.0000    0.0000    0.0000    0.0000    0.0000   86.5380    0.0000    0.0000    0.0000    0.0000 -999.0000 -999.0000   91.0657 
1536.0000    7.3730    9.8510   14.7340  -14.9830 -999.0000 -999.0000 -999.0000 -999.0000 -999.0000    0.0000   13.4620    0.0000    0.0000    0.0000    0.0000    0.0000   86.5380    0.0000    0.0000    0.0000    0.0000 -999.0000 -999.0000   91.0709 
1536.5000    7.4460    9.8910   14.4820  -15.1987 -999.0000 -999.0000 -999.0000 -999.0000 -999.0000    0.0000   13.4620    0.0000    0.0000    0.0000    0.0000    0.0000   86.5380    0.0000    0.0000    0.0000    0.0000 -999.0000 -999.0000   91.0762 
1537.0000    7.5000    9.9610   14.2710  -15.2587 -999.0000 -999.0000 -999.0000 -999.0000 -999.0000    0.0000   13.4620    0.0000    0.0000    0.0000    0.0000    0.0000   86.5380    0.0000    0.0000    0.0000    0.0000 -999.0000 -999.0000   91.0814 
1537.5000    7.6490    9.9950   14.0540  -15.4755 -999.0000 -999.0000 -999.0000 -999.0000 -999.0000    0.0000   13.4620    0.0000    0.0000    0.0000    0.0000    0.0000   86.5380    0.0000    0.0000    0.0000    0.0000 -999.0000 -999.0000   91.0866 
1538.0000    7.7930   10.0050   14.0490  -15.5634 -999.0000 -999.0000 -999.0000 -999.0000 -999.0000    0.0000   13.4620    0.0000    0.0000    0.0000    0.0000    0.0000   86.5380    0.0000    0.0000    0.0000    0.0000 -999.0000 -999.0000   91.0919 
1538.5000    7.9170   10.0430   14.0810  -15.8544 -999.0000 -999.0000 -999.0000 -999.0000 -999.0000    0.0000   13.4620    0.0000    0.0000    0.0000    0.0000    0.0000   86.5380    0.0000    0.0000    0.0000    0.0000 -999.0000 -999.0000   91.0971 
1539.0000    7.9530   10.1410   14.2590  -15.9054 -999.0000 -999.0000 -999.0000 -999.0000 -999.0000    0.0000   13.4620    0.0000    0.0000    0.0000    0.0000    0.0000   86.5380    0.0000    0.0000    0.0000    0.0000 -999.0000 -999.0000   91.1023 
1539.5000    8.0180   10.1840   14.3420  -15.9675 -999.0000 -999.0000 -999.0000 -999.0000 -999.0000    0.0000   13.4620    0.0000    0.0000    0.0000    0.0000    0.0000   86.5380    0.0000    0.0000    0.0000    0.0000 -999.0000 -999.0000   91.1076 
