~VERSION INFORMATION
 VERS.                 2.0:   CWLS LOG ASCII STANDARD - VERSION 2.0
 WRAP.                  NO:   SINGLE LINE PER DEPTH STEP
 CREA.                 16/2/2017 12:08:22 p. m.
#CREATED USING IP VERSION 4.2.2015.61 BY PANESSOR ON 16/2/2017 12:08:22 p. m.
~WELL INFORMATION
#MNEM.UNIT       DATA                          DESCRIPTION MNEMONIC
#---------      ---------------------------   --------------------------
 STRT    .FT        470.0000                  : START DEPTH
 STOP    .FT        5740.0000                 : STOP DEPTH
 STEP    .FT        0.5000                    : STEP VALUE
 NULL    .      -999.0000                     : NULL VALUE
 DATE    .      16/2/2017                     : LAS file Creation Date
 WELL  .      CRISOL-2      : Well Name
 COMP  .      INTERCOL      : Company
 FLD   .      141-AGUACHICA : Field
 STATE .      MAGDALENA     : State
 COUNT .      COLOMBIA      : Country
 API   .      CRIL0002      : API Number
 UWI   .      100000000372  : Unique Well Identifier (UWI)
 LOC   .                    : Location
 LATI  .      1.0038888889  : Latitude/Northing
 LONG  .      1.0080555556  : Longitude/Easting
 RWS   .      -999          : Def_Rw
 WST   .      -999          : Def_Rwt
 PROV  .                    : Province
 SRVC  .      SCH           : Contractor
~CURVE INFORMATION
#MNEM                UNIT       API CODE     Description
#----------    --------------- ----------  --------------
 DEPTH        .FT                        : 
 RM_IR        .OHMM                      : Resistivity AM 16"
 SPC_IR       .MV                        : Spontaneous Potential
 RD_E_IR      .OHMM                      : Formation Resitivity
 PHIE_IR      .Dec                       : Effective Porosity
 SW_IR        .Dec                       : Water Saturation
 BVW_IR       .Dec                       : Bulk Volume water (Phie x SW)
 VWCL_IR      .Dec                       : Volume wet Clay
 VSILT_IR     .Dec                       : Volume Silt
 CONG_IR      .%                         : Mudlog CONGLOMERATE
 SS_IR        .%                         : Mudlog SANDSTONE
 LS_IR        .%                         : Mudlog LIMESTONE
 MARL_IR      .%                         : Mudlog MARLSTONE
 SLST_IR      .%                         : Mudlog SILSTONE
 SH_IR        .%                         : Mudlog SHALE
 COAL_IR      .%                         : Mudlog  COAL
 IGNEOUS_IR   .%                         : Mudlog IGNEOUS
 ResFlag_IR   .                          : Net Reservoir
 PayFlag_IR   .                          : Net Pay
 PERFS_IR     .B/E                       : Perforations
 Perm_IR      .md                        : Calculated Permeability
 PayFlagRT_IR .                          : Pay Flag Rock Type
 K_PHI_IR     .                          : K/PHI RATIO
 ResFlagRT_IR .                          : Net Reservoir Rock Type
 Rock_Type_IR .microns                   : Pore Throat Size - Rock Types
 Temp_IR      .F                         : Formation Temperature
~P Interactive Petrophysics parameters
#Name        Value                 Description
#----- --------------------------  -----------
#Logging Run 
 RUN  .     1           : Run Number
 DATE .     27/02/1954  : Date                      | RUN[0]
 DFT  .     /           : Type of Fluid in Hole     | RUN[1]
~A  DEPTH   RM_IR     SPC_IR   RD_E_IR   PHIE_IR    SW_IR     BVW_IR   VWCL_IR   VSILT_IR  CONG_IR    SS_IR     LS_IR    MARL_IR   SLST_IR    SH_IR    COAL_IR  IGNEOUS_~ ResFlag_~ PayFlag_~  PERFS_IR  Perm_IR  PayFlagR~  K_PHI_IR ResFlagR~ Rock_Typ~  Temp_IR  
# ...
1198.5000    6.5930  -14.0413    9.0700 -999.0000 -999.0000 -999.0000 -999.0000 -999.0000    0.0000   66.8750    0.0000    0.0000    0.0000   33.1250    0.0000    0.0000    0.0000    0.0000 -999.0000    0.0000    0.0000 -999.0000    0.0000 -999.0000   88.1543 
1199.0000    6.5780  -13.6605    9.2450 -999.0000 -999.0000 -999.0000 -999.0000 -999.0000    0.0000   66.8750    0.0000    0.0000    0.0000   33.1250    0.0000    0.0000    0.0000    0.0000 -999.0000    0.0000    0.0000 -999.0000    0.0000 -999.0000   88.1598 
1199.5000    6.5940  -13.7197    9.4490 -999.0000 -999.0000 -999.0000 -999.0000 -999.0000    0.0000   66.8750    0.0000    0.0000    0.0000   33.1250    0.0000    0.0000    0.0000    0.0000 -999.0000    0.0000    0.0000 -999.0000    0.0000 -999.0000   88.1652 
1200.0000    6.7350  -13.7189    9.5610 -999.0000 -999.0000 -999.0000 -999.0000 -999.0000    0.0000   66.8750    0.0000    0.0000    0.0000   33.1250    0.0000    0.0000    0.0000    0.0000 -999.0000    0.0000    0.0000 -999.0000    0.0000 -999.0000   88.1707 
1200.5000    6.9800  -14.0630    9.5460 -999.0000 -999.0000 -999.0000 -999.0000 -999.0000    0.0000   66.8750    0.0000    0.0000    0.0000   33.1250    0.0000    0.0000    0.0000    0.0000 -999.0000    0.0000    0.0000 -999.0000    0.0000 -999.0000   88.1762 
1201.0000    7.1640  -14.3152    9.5490 -999.0000 -999.0000 -999.0000 -999.0000 -999.0000    0.0000   66.8750    0.0000    0.0000    0.0000   33.1250    0.0000    0.0000    0.0000    0.0000 -999.0000    0.0000    0.0000 -999.0000    0.0000 -999.0000   88.1817 
1201.5000    7.4290  -14.7454    9.5540 -999.0000 -999.0000 -999.0000 -999.0000 -999.0000    0.0000   66.8750    0.0000    0.0000    0.0000   33.1250    0.0000    0.0000    0.0000    0.0000 -999.0000    0.0000    0.0000 -999.0000    0.0000 -999.0000   88.1872 
1202.0000    7.8090  -14.9146    9.5420 -999.0000 -999.0000 -999.0000 -999.0000 -999.0000    0.0000   66.8750    0.0000    0.0000    0.0000   33.1250    0.0000    0.0000    0.0000    0.0000 -999.0000    0.0000    0.0000 -999.0000    0.0000 -999.0000   88.1927 
1202.5000    8.3990  -15.2028    9.6080 -999.0000 -999.0000 -999.0000 -999.0000 -999.0000    0.0000   66.8750    0.0000    0.0000    0.0000   33.1250    0.0000    0.0000    0.0000    0.0000 -999.0000    0.0000    0.0000 -999.0000    0.0000 -999.0000   88.1982 
1203.0000    8.8960  -15.4009    9.6250 -999.0000 -999.0000 -999.0000 -999.0000 -999.0000    0.0000   66.8750    0.0000    0.0000    0.0000   33.1250    0.0000    0.0000    0.0000    0.0000 -999.0000    0.0000    0.0000 -999.0000    0.0000 -999.0000   88.2037 
1203.5000    9.5820  -15.6731    9.6200 -999.0000 -999.0000 -999.0000 -999.0000 -999.0000    0.0000   66.8750    0.0000    0.0000    0.0000   33.1250    0.0000    0.0000    0.0000    0.0000 -999.0000    0.0000    0.0000 -999.0000    0.0000 -999.0000   88.2091 
1204.0000   10.0060  -15.8513    9.6560 -999.0000 -999.0000 -999.0000 -999.0000 -999.0000    0.0000   66.8750    0.0000    0.0000    0.0000   33.1250    0.0000    0.0000    0.0000    0.0000 -999.0000    0.0000    0.0000 -999.0000    0.0000 -999.0000   88.2146 
1204.5000   10.5210  -16.1425    9.7090 -999.0000 -999.0000 -999.0000 -999.0000 -999.0000    0.0000   66.8750    0.0000    0.0000    0.0000   33.1250    0.0000    0.0000    0.0000    0.0000 -999.0000    0.0000    0.0000 -999.0000    0.0000 -999.0000   88.2201 
1205.0000   10.7740  -16.0137    9.7290 -999.0000 -999.0000 -999.0000 -999.0000 -999.0000    0.0000   66.8750    0.0000    0.0000    0.0000   33.1250    0.0000    0.0000    0.0000    0.0000 -999.0000    0.0000    0.0000 -999.0000    0.0000 -999.0000   88.2256 
1205.5000   10.8190  -15.8579    9.7790 -999.0000 -999.0000 -999.0000 -999.0000 -999.0000    0.0000   66.8750    0.0000    0.0000    0.0000   33.1250    0.0000    0.0000    0.0000    0.0000 -999.0000    0.0000    0.0000 -999.0000    0.0000 -999.0000   88.2311 
1206.0000   10.8720  -15.6630    9.8380 -999.0000 -999.0000 -999.0000 -999.0000 -999.0000    0.0000   66.8750    0.0000    0.0000    0.0000   33.1250    0.0000    0.0000    0.0000    0.0000 -999.0000    0.0000    0.0000 -999.0000    0.0000 -999.0000   88.2366 
1206.5000   10.8350  -15.4802    9.8460 -999.0000 -999.0000 -999.0000 -999.0000 -999.0000    0.0000   66.8750    0.0000    0.0000    0.0000   33.1250    0.0000    0.0000    0.0000    0.0000 -999.0000    0.0000    0.0000 -999.0000    0.0000 -999.0000   88.2421 
1207.0000   10.4670  -15.3684    9.9930 -999.0000 -999.0000 -999.0000 -999.0000 -999.0000    0.0000   66.8750    0.0000    0.0000    0.0000   33.1250    0.0000    0.0000    0.0000    0.0000 -999.0000    0.0000    0.0000 -999.0000    0.0000 -999.0000   88.2476 
1207.5000   10.2680  -15.2046   10.1280 -999.0000 -999.0000 -999.0000 -999.0000 -999.0000    0.0000   66.8750    0.0000    0.0000    0.0000   33.1250    0.0000    0.0000    0.0000    0.0000 -999.0000    0.0000    0.0000 -999.0000    0.0000 -999.0000   88.2531 
1208.0000   10.1290  -15.0218   10.4360 -999.0000 -999.0000 -999.0000 -999.0000 -999.0000    0.0000   66.8750    0.0000    0.0000    0.0000   33.1250    0.0000    0.0000    0.0000    0.0000 -999.0000    0.0000    0.0000 -999.0000    0.0000 -999.0000   88.2585 
1208.5000    9.9550  -14.8339   10.6610 -999.0000 -999.0000 -999.0000 -999.0000 -999.0000    0.0000   66.8750    0.0000    0.0000    0.0000   33.1250    0.0000    0.0000    0.0000    0.0000 -999.0000    0.0000    0.0000 -999.0000    0.0000 -999.0000   88.2640 
1209.0000    9.7160  -14.6971   10.8790 -999.0000 -999.0000 -999.0000 -999.0000 -999.0000    0.0000   66.8750    0.0000    0.0000    0.0000   33.1250    0.0000    0.0000    0.0000    0.0000 -999.0000    0.0000    0.0000 -999.0000    0.0000 -999.0000   88.2695 
1209.5000    9.3270  -14.6303   11.0000 -999.0000 -999.0000 -999.0000 -999.0000 -999.0000    0.0000   66.8750    0.0000    0.0000    0.0000   33.1250    0.0000    0.0000    0.0000    0.0000 -999.0000    0.0000    0.0000 -999.0000    0.0000 -999.0000   88.2750 
1210.0000    9.0290  -14.4765   11.1200 -999.0000 -999.0000 -999.0000 -999.0000 -999.0000    0.0000   66.8750    0.0000    0.0000    0.0000   33.1250    0.0000    0.0000    0.0000    0.0000 -999.0000    0.0000    0.0000 -999.0000    0.0000 -999.0000   88.2805 
1210.5000    8.7690  -14.2387   11.2560 -999.0000 -999.0000 -999.0000 -999.0000 -999.0000    0.0000   52.5000    0.0000    0.0000    0.0000   47.5000    0.0000    0.0000    0.0000    0.0000 -999.0000    0.0000    0.0000 -999.0000    0.0000 -999.0000   88.2860 
1211.0000    8.7610  -14.2769   11.2780 -999.0000 -999.0000 -999.0000 -999.0000 -999.0000    0.0000   38.1250    0.0000    0.0000    0.0000   61.8750    0.0000    0.0000    0.0000    0.0000 -999.0000    0.0000    0.0000 -999.0000    0.0000 -999.0000   88.2915 
1211.5000    8.7540  -14.4620   11.2780 -999.0000 -999.0000 -999.0000 -999.0000 -999.0000    0.0000   38.1480    0.0000    0.0000    0.0000   61.8520    0.0000    0.0000    0.0000    0.0000 -999.0000    0.0000    0.0000 -999.0000    0.0000 -999.0000   88.2970 
1212.0000    8.5720  -14.6642   11.2760 -999.0000 -999.0000 -999.0000 -999.0000 -999.0000    0.0000   38.1710    0.0000    0.0000    0.0000   61.8290    0.0000    0.0000    0.0000    0.0000 -999.0000    0.0000    0.0000 -999.0000    0.0000 -999.0000   88.3024 
1212.5000    8.6560  -14.7244   11.2780 -999.0000 -999.0000 -999.0000 -999.0000 -999.0000    0.0000   38.1930    0.0000    0.0000    0.0000   61.8070    0.0000    0.0000    0.0000    0.0000 -999.0000    0.0000    0.0000 -999.0000    0.0000 -999.0000   88.3079 
1213.0000    8.8300  -15.2666   11.2760 -999.0000 -999.0000 -999.0000 -999.0000 -999.0000    0.0000   38.2150    0.0000    0.0000    0.0000   61.7850    0.0000    0.0000    0.0000    0.0000 -999.0000    0.0000    0.0000 -999.0000    0.0000 -999.0000   88.3134 
1213.5000    8.8720  -15.7858   11.2800 -999.0000 -999.0000 -999.0000 -999.0000 -999.0000    0.0000   38.2365    0.0000    0.0000    0.0000   61.7635    0.0000    0.0000    0.0000    0.0000 -999.0000    0.0000    0.0000 -999.0000    0.0000 -999.0000   88.3189 
