~VERSION INFORMATION
 VERS.                 2.0:   CWLS LOG ASCII STANDARD - VERSION 2.0
 WRAP.                  NO:   SINGLE LINE PER DEPTH STEP
 CREA.                 03/05/2017 10:34:44
#CREATED USING IP VERSION 4.2.2015.61 BY PANESSOR ON 03/05/2017 10:34:44
~WELL INFORMATION
#MNEM.UNIT       DATA                          DESCRIPTION MNEMONIC
#---------      ---------------------------   --------------------------
 STRT    .FT        500.0000                  : START DEPTH
 STOP    .FT        5680.0000                 : STOP DEPTH
 STEP    .FT        0.5000                    : STEP VALUE
 NULL    .      -999.0000                     : NULL VALUE
 DATE    .      03/05/2017                    : LAS file Creation Date
 WELL  .      CRISOL-3            : Well Name
 COMP  .      INTERCOL            : Company
 FLD   .      WILDCAT             : Field
 STATE .      MAGDALENA           : State
 COUNT .      COLOMBIA            : Country
 API   .      CRIL0003            : API Number
 UWI   .      100000000377        : Unique Well Identifier (UWI)
 LOC   .      GAUSS ORIGIN BOGOTA : Location
 LATI  .      1                   : Latitude/Northing
 LONG  .      1                   : Longitude/Easting
 RWS   .      -999                : Def_Rw
 WST   .      -999                : Def_Rwt
 CNTY  .      N/A                 : County
 PROV  .                          : Province
 SRVC  .      SCH                 : Contractor
~CURVE INFORMATION
#MNEM                UNIT       API CODE     Description
#----------    --------------- ----------  --------------
 DEPTH        .FT                        : 
 RM_IR        .OHMM                      : Medium Resistivity
 RD_IR        .OHMM                      : Formation Deep Resitivity
 LAT_E_IR     .OHMM                      : Lateral AO18'8"
 SPC_IR       .MV                        : Spontaneous Potential
 PHIE_IR      .Dec                       : Effective Porosity
 SW_IR        .Dec                       : Effective Water Saturation
 BVW_IR       .Dec                       : Bulk Volume water (Phie x SW)
 VWCL_IR      .Dec                       : Volume wet Clay
 VSILT_IR     .Dec                       : Volume Silt
 SLST_IR      .%                         : Mudlog SILSTONE
 SS_IR        .%                         : Mudlog SANDSTONE
 CONG_IR      .%                         : Mudlog CONGLOMERATE
 MARL_IR      .%                         : Mudlog MARLSTONE
 ResFlag_IR   .                          : Net Reservoir
 IGNEOUS_IR   .us/ft                     : Mudlog IGNEOUS
 LS_IR        .us/ft                     : Mudlog LIMESTONE
 SH_IR        .%                         : Mudlog SHALE
 PayFlag_IR   .                          : Net Pay
 Perm_IR      .md                        : Calculated Permeability
 PayFlagRT_IR .                          : Pay Flag Rock Type
 ResFlagRT_IR .                          : Net Reservoir Rock Type
 K_PHI_IR     .                          : K/PHI RATIO
 Rock_Type_IR .microns                   : Pore Throat Size - Rock Types
 Temp_IR      .F                         : Formation Temperature
~P Interactive Petrophysics parameters
#Name        Value                 Description
#----- --------------------------  -----------
#Logging Run 
 RUN  .     1           : Run Number
 DATE .     23/04/1954  : Date                      | RUN[0]
 DFT  .     /           : Type of Fluid in Hole     | RUN[1]
~A  DEPTH   RM_IR     RD_IR    LAT_E_IR   SPC_IR   PHIE_IR    SW_IR     BVW_IR   VWCL_IR   VSILT_IR  SLST_IR    SS_IR    CONG_IR   MARL_IR  ResFlag_~ IGNEOUS_~   LS_IR     SH_IR   PayFlag_~  Perm_IR  PayFlagR~ ResFlagR~  K_PHI_IR Rock_Typ~  Temp_IR  
# ...
4612.0000    6.3410    5.9164   10.6000  -18.4614    0.0088    1.0000    0.0088    0.8284    0.1422   29.3186    0.0000    0.0000    0.0000    0.0000    0.0000    7.0510   63.6304    0.0000    0.0000    0.0000    0.0000    0.0002    0.0022  123.2547 
4612.5000    6.1960    5.7878   10.5960  -18.5908    0.0098    1.0000    0.0098    0.8234    0.1439   29.3469    0.0000    0.0000    0.0000    0.0000    0.0000    7.0515   63.6016    0.0000    0.0000    0.0000    0.0000    0.0002    0.0026  123.2599 
4613.0000    6.1230    5.6592   10.5930  -18.8496    0.0120    1.0000    0.0120    0.8135    0.1466   29.3752    0.0000    0.0000    0.0000    0.0000    0.0000    7.0520   63.5728    0.0000    0.0000    0.0000    0.0000    0.0005    0.0039  123.2651 
4613.5000    6.0510    5.5305   10.5500  -19.3737    0.0177    1.0000    0.0177    0.7933    0.1478   29.4035    0.0000    0.0000    0.0000    0.0000    0.0000    7.0530   63.5435    0.0000    0.0000    0.0000    0.0000    0.0022    0.0084  123.2703 
4614.0000    6.1230    5.6592   10.5020  -19.7099    0.0224    1.0000    0.0224    0.7804    0.1451   29.4317    0.0000    0.0000    0.0000    0.0000    0.0000    7.0540   63.5143    0.0000    0.0001    0.0000    0.0000    0.0053    0.0133  123.2756 
4614.5000    5.9780    5.6592   10.3860  -20.0109    0.0273    1.0000    0.0273    0.7688    0.1401   29.4600    0.0000    0.0000    0.0000    0.0000    0.0000    7.0540   63.4860    0.0000    0.0003    0.0000    0.0000    0.0115    0.0197  123.2808 
4615.0000    5.9060    5.6592   10.3190  -20.1534    0.0300    1.0000    0.0300    0.7633    0.1368   29.4883    0.0000    0.0000    0.0000    0.0000    0.0000    7.0540   63.4577    0.0000    0.0005    0.0000    0.0000    0.0163    0.0236  123.2860 
4615.5000    5.9060    5.5305   10.2630  -20.1496    0.0299    1.0000    0.0299    0.7635    0.1369   29.5166    0.0000    0.0000    0.0000    0.0000    0.0000    7.0490   63.4344    0.0000    0.0005    0.0000    0.0000    0.0161    0.0235  123.2913 
4616.0000    5.7610    5.4019   10.1980  -19.8206    0.0241    1.0000    0.0241    0.7761    0.1436   29.5448    0.0000    0.0000    0.0000    0.0000    0.0000    7.0440   63.4112    0.0000    0.0002    0.0000    0.0000    0.0071    0.0154  123.2965 
4616.5000    5.6880    5.2733   10.0900  -19.2121    0.0157    1.0000    0.0157    0.7995    0.1480   29.5731    0.0000    0.0000    0.0000    0.0000    0.0000    7.0610   63.3659    0.0000    0.0000    0.0000    0.0000    0.0014    0.0067  123.3017 
4617.0000    5.6160    5.2733   10.0150  -18.6256    0.0101    1.0000    0.0101    0.8221    0.1443   29.6014    0.0000    0.0000    0.0000    0.0000    0.0000    7.0780   63.3206    0.0000    0.0000    0.0000    0.0000    0.0003    0.0028  123.3070 
4617.5000    5.5430    5.2733    9.9120  -18.5718    0.0096    1.0000    0.0096    0.8242    0.1437   29.6297    0.0000    0.0000    0.0000    0.0000    0.0000    7.0435   63.3269    0.0000    0.0000    0.0000    0.0000    0.0002    0.0026  123.3122 
4618.0000    5.6160    5.2733    9.8070  -18.7238    0.0109    1.0000    0.0109    0.8183    0.1454   29.6579    0.0000    0.0000    0.0000    0.0000    0.0000    7.0090   63.3331    0.0000    0.0000    0.0000    0.0000    0.0003    0.0032  123.3174 
4618.5000    5.6160    5.2733    9.7280  -19.0669    0.0141    1.0000    0.0141    0.8051    0.1478   29.6861    0.0000    0.0000    0.0000    0.0000    0.0000    7.0540   63.2598    0.0000    0.0000    0.0000    0.0000    0.0009    0.0054  123.3227 
4619.0000    5.6880    5.2733    9.6170  -19.2926    0.0167    1.0000    0.0167    0.7964    0.1480   29.7144    0.0000    0.0000    0.0000    0.0000    0.0000    7.0990   63.1866    0.0000    0.0000    0.0000    0.0000    0.0018    0.0075  123.3279 
4619.5000    5.7610    5.2733    9.5490  -19.3093    0.0169    1.0000    0.0169    0.7958    0.1480   29.7427    0.0000    0.0000   10.9415    0.0000    0.0000    7.1410   52.1749    0.0000    0.0000    0.0000    0.0000    0.0018    0.0077  123.3331 
4620.0000    5.8700    5.4019    9.4380  -19.4629    0.0188    1.0000    0.0188    0.7899    0.1473   29.7710    0.0000    0.0000   21.8829    0.0000    0.0000    7.1830   41.1631    0.0000    0.0001    0.0000    0.0000    0.0028    0.0095  123.3384 
4620.5000    5.9780    5.5305    9.3600  -19.5612    0.0202    1.0000    0.0202    0.7861    0.1466   14.8855    0.0000    0.0000   36.7684    0.0000    0.0000    8.3330   40.0131    0.0000    0.0001    0.0000    0.0000    0.0036    0.0109  123.3436 
4621.0000    5.9780    5.5305    9.2580  -19.7690    0.0233    1.0000    0.0233    0.7781    0.1443    0.0000    0.0000    0.0000   51.6539    0.0000    0.0000    9.4830   38.8631    0.0000    0.0001    0.0000    0.0000    0.0062    0.0144  123.3488 
4621.5000    5.9780    5.5305    9.2290  -19.9310    0.0259    1.0000    0.0259    0.7719    0.1417    0.0000    0.0000    0.0000   51.6539    0.0000    0.0000    9.5250   38.8211    0.0000    0.0002    0.0000    0.0000    0.0094    0.0178  123.3540 
4622.0000    6.0510    5.6592    9.1820  -20.2135    0.0311    1.0000    0.0311    0.7610    0.1352    0.0000    0.0000    0.0000   51.6539    0.0000    0.0000    9.5670   38.7791    0.0000    0.0006    0.0000    0.0000    0.0188    0.0254  123.3593 
4622.5000    6.0510    5.6592    9.1490  -20.3329    0.0335    1.0000    0.0335    0.7564    0.1319    0.0000    0.0000    0.0000   51.6539    0.0000    0.0000    9.6120   38.7341    0.0000    0.0008    0.0000    0.0000    0.0249    0.0293  123.3645 
4623.0000    5.9780    5.6592    9.1210  -20.5259    0.0344    1.0000    0.0344    0.7490    0.1363    0.0000    0.0000    0.0000   51.6539    0.0000    0.0000    9.6570   38.6891    0.0000    0.0009    0.0000    0.0000    0.0275    0.0309  123.3698 
4623.5000    6.0160    5.5305    9.1120  -20.7074    0.0352    1.0000    0.0352    0.7420    0.1405    0.0000    0.0000    0.0000   51.6539    0.0000    0.0000    9.7903   38.5557    0.0000    0.0011    0.0000    0.0000    0.0301    0.0324  123.3750 
4624.0000    5.9780    5.4019    9.1110  -20.6805    0.0351    1.0000    0.0351    0.7431    0.1399    0.0000    0.0000    0.0000   51.6539    0.0000    0.0000    9.9237   38.4224    0.0000    0.0010    0.0000    0.0000    0.0297    0.0322  123.3802 
4624.5000    5.9060    5.4019    9.1140  -20.8961    0.0361    1.0000    0.0361    0.7348    0.1449    0.0000    0.0000    0.0000   51.6539    0.0000    0.0000    9.9034   38.4427    0.0000    0.0012    0.0000    0.0000    0.0330    0.0340  123.3854 
4625.0000    5.9060    5.2733    9.1120  -20.9460    0.0363    1.0000    0.0363    0.7328    0.1460    0.0000    0.0000    0.0000   51.6539    0.0000    0.0000    9.8830   38.4631    0.0000    0.0012    0.0000    0.0000    0.0338    0.0344  123.3907 
4625.5000    5.9060    5.2733    9.1110  -20.4501    0.0340    1.0000    0.0340    0.7519    0.1346    0.0000    0.0000    0.0000   51.6539    0.0000    0.0000    9.8626   38.4835    0.0000    0.0009    0.0000    0.0000    0.0264    0.0303  123.3959 
4626.0000    5.9060    5.2733    9.1200  -19.3185    0.0170    1.0000    0.0170    0.7954    0.1479    0.0000    0.0000    0.0000   51.6539    0.0000    0.0000    9.8422   38.5039    0.0000    0.0000    0.0000    0.0000    0.0019    0.0078  123.4011 
4626.5000    5.9060    5.2733    9.1590  -19.2784    0.0165    1.0000    0.0165    0.7970    0.1480    0.0000    0.0000    0.0000   51.6539    0.0000    0.0000    9.8218   38.5243    0.0000    0.0000    0.0000    0.0000    0.0017    0.0073  123.4064 
4627.0000    5.9060    5.2733    9.1870  -19.1725    0.0153    1.0000    0.0153    0.8011    0.1480    0.0000    0.0000    0.0000   51.6539    0.0000    0.0000    9.8015   38.5446    0.0000    0.0000    0.0000    0.0000    0.0013    0.0063  123.4116 
4627.5000    5.8330    5.2733    9.1900  -19.3034    0.0168    1.0000    0.0168    0.7960    0.1480    0.0000    0.0000    0.0000   51.6539    0.0000    0.0000    9.7812   38.5649    0.0000    0.0000    0.0000    0.0000    0.0018    0.0076  123.4168 
