~VERSION INFORMATION
 VERS.                 2.0:   CWLS LOG ASCII STANDARD - VERSION 2.0
 WRAP.                  NO:   SINGLE LINE PER DEPTH STEP
 CREA.                 03/05/2017 12:05:25
#CREATED USING IP VERSION 4.2.2015.61 BY PANESSOR ON 03/05/2017 12:05:25
~WELL INFORMATION
#MNEM.UNIT       DATA                          DESCRIPTION MNEMONIC
#---------      ---------------------------   --------------------------
 STRT    .FT        500.0000                  : START DEPTH
 STOP    .FT        4532.0000                 : STOP DEPTH
 STEP    .FT        0.5000                    : STEP VALUE
 NULL    .      -999.0000                     : NULL VALUE
 DATE    .      03/05/2017                    : LAS file Creation Date
 WELL  .      CRISOL-1            : Well Name
 COMP  .      INTERCOL            : Company
 FLD   .      WILDCAT             : Field
 STATE .      CESAR               : State
 COUNT .      COLOMBIA            : Country
 API   .      CRIL0001            : API Number
 UWI   .      CRIL0001            : Unique Well Identifier (UWI)
 LOC   .      GAUSS ORIGIN BOGOTA : Location
 LATI  .      1.0147222222        : Latitude/Northing
 LONG  .      1.0086111111        : Longitude/Easting
 RWS   .      -999                : Def_Rw
 WST   .      -999                : Def_Rwt
 PROV  .                          : Province
 SRVC  .      SCH                 : Contractor
~CURVE INFORMATION
#MNEM                 UNIT       API CODE     Description
#----------     --------------- ----------  --------------
 DEPTH         .FT                        : 
 RM_IR         .OHMM                      : Medium Resistivity
 SPC_IR        .MV                        : Spontaneous Potential
 RD_E_IR       .OHMM                      : Formation Deep Resitivity
 PHIE_IR       .Dec                       : Effective Porosity
 SW_IR         .Dec                       : Effective Water Saturation
 BVW_IR        .Dec                       : Bulk Volume water (Phie x SW)
 VWCL_IR       .Dec                       : Volume wet Clay
 VSILT_IR      .Dec                       : Volume Silt
 Perfs_IR      .B/E                       : Photoelectric Factor
 Perm_IR       .md                        : Calculated Permeability
 CGL_IR        .%                         : Mudlog CONGLOMERATE
 SS_IR         .%                         : Mudlog SANDSTONE
 SLS_IR        .%                         : Mudlog SILSTONE
 CLST_IR       .%                         : Mudlog CLAYSTONE
 SH_IR         .%                         : Mudlog Shale
 MARL_IR       .%                         : Mudlog MARLSTONE
 LS_IR         .%                         : Mudlog LIMESTONE
 ResFlag_IR    .                          : Net Reservoir
 PayFlag_IR    .                          : Net Pay
 K_PHI_IR      .                          : K/PHI RATIO
 PayFlagRT_IR  .                          : Pay Flag Rock Type
 ResFlagRT_IR  .                          : Net Reservoir Rock Type
 Rock_Type_IR  .microns                   : Pore Throat Size - Rock Types
 Temp_IR       .F                         : Formation Temperature
 MUD_WEIGHT_IR .PPG                       : MUD_WEIGHT
~P Interactive Petrophysics parameters
#Name        Value                 Description
#----- --------------------------  -----------
#Logging Run 
 RUN  .     1                    : Run Number
 DATE .     24-OCT-1953          : Date                      | RUN[0]
 BLI  .     2565                 : Btm Log Interval          | RUN[1]
 TLI  .     517                  : Top Log Interval          | RUN[1]
 BS   .     8.625                : Bit Size                  | RUN[1]
 DFT  .     /                    : Type of Fluid in Hole     | RUN[1]
 RM   .     5.9                  : Rm                        | RUN[1]
 MST  .     84                   : at Meas Temp              | RUN[1]
 R1   .     SPS LTDA.            : Remark 1                  | RUN[1]
 R2   .     PLUG BACK 3808 FT.   : Remark 2                  | RUN[1]
 R3   .     ABANDONED GAS WELL.  : Remark 3                  | RUN[1]
#Logging Run 
 RUN  .     2                    : Run Number
 DATE .     14-NOV-1953          : Date                      | RUN[1]
 BLI  .     4053                 : Btm Log Interval          | RUN[2]
 TLI  .     3000                 : Top Log Interval          | RUN[2]
 BS   .     9.625                : Bit Size                  | RUN[2]
 RM   .     3.8                  : Rm                        | RUN[2]
 MST  .     87                   : at Meas Temp              | RUN[2]
 R1   .     SPS LTDA.            : Remark 1                  | RUN[2]
 R2   .     PLUG BACK 3808 FT.   : Remark 2                  | RUN[2]
 R3   .     ABANDONED GAS WELL.  : Remark 3                  | RUN[2]
~A  DEPTH   RM_IR     SPC_IR   RD_E_IR   PHIE_IR    SW_IR     BVW_IR   VWCL_IR   VSILT_IR  Perfs_IR  Perm_IR    CGL_IR    SS_IR     SLS_IR   CLST_IR    SH_IR    MARL_IR    LS_IR   ResFlag_~ PayFlag_~  K_PHI_IR PayFlagR~ ResFlagR~ Rock_Typ~  Temp_IR  MUD_WEIG~ 
# ...
1027.0000    6.5100  -11.5084    6.4360    0.0001    1.0000    0.0001    0.9825    0.0169 -999.0000    0.0000   37.5000    0.0000    0.0000    0.0000   62.5000    0.0000    0.0000    0.0000    0.0000    0.0000    0.0000    0.0000    0.0000   89.3755   10.1000 
1027.5000    6.4860  -11.8613    6.4620    0.0001    1.0000    0.0001    0.9703    0.0290 -999.0000    0.0000   37.5000    0.0000    0.0000    0.0000   62.5000    0.0000    0.0000    0.0000    0.0000    0.0000    0.0000    0.0000    0.0000   89.3801   10.1000 
1028.0000    6.4620  -12.1952    6.4490    0.0001    1.0000    0.0001    0.9588    0.0405 -999.0000    0.0000   37.5000    0.0000    0.0000    0.0000   62.5000    0.0000    0.0000    0.0000    0.0000    0.0000    0.0000    0.0000    0.0000   89.3847   10.1000 
1028.5000    6.4380  -12.4192    6.4390    0.0001    1.0000    0.0001    0.9511    0.0482 -999.0000    0.0000   37.5150    0.0000    0.0000    0.0000   62.4850    0.0000    0.0000    0.0000    0.0000    0.0000    0.0000    0.0000    0.0000   89.3892   10.1000 
1029.0000    6.3420  -12.5411    6.4410    0.0001    1.0000    0.0001    0.9469    0.0522 -999.0000    0.0000   37.5300    0.0000    0.0000    0.0000   62.4700    0.0000    0.0000    0.0000    0.0000    0.0000    0.0000    0.0000    0.0000   89.3938   10.1000 
1029.5000    6.2700  -12.5170    6.5050    0.0001    1.0000    0.0001    0.9477    0.0514 -999.0000    0.0000   37.4350    0.0000    0.0000    0.0000   62.5650    0.0000    0.0000    0.0000    0.0000    0.0000    0.0000    0.0000    0.0000   89.3983   10.1000 
1030.0000    6.2210  -12.2199    6.5690    0.0001    1.0000    0.0001    0.9579    0.0414 -999.0000    0.0000   37.3400    0.0000    0.0000    0.0000   62.6600    0.0000    0.0000    0.0000    0.0000    0.0000    0.0000    0.0000    0.0000   89.4029   10.1000 
1030.5000    6.2210  -11.9228    6.5880    0.0001    1.0000    0.0001    0.9682    0.0312 -999.0000    0.0000   34.0050    0.0000    0.0000    0.0000   65.9950    0.0000    0.0000    0.0000    0.0000    0.0000    0.0000    0.0000    0.0000   89.4075   10.1000 
1031.0000    6.2700  -11.6257    6.6260    0.0001    1.0000    0.0001    0.9784    0.0209 -999.0000    0.0000   30.6700    0.0000    0.0000    0.0000   69.3300    0.0000    0.0000    0.0000    0.0000    0.0000    0.0000    0.0000    0.0000   89.4120   10.1000 
1031.5000    6.3320  -11.3767    6.6300    0.0001    1.0000    0.0001    0.9870    0.0123 -999.0000    0.0000   30.4550    0.0000    0.0000    0.0000   69.5450    0.0000    0.0000    0.0000    0.0000    0.0000    0.0000    0.0000    0.0000   89.4166   10.1000 
1032.0000    6.4210  -11.1336    6.6300    0.0001    1.0000    0.0001    0.9954    0.0039 -999.0000    0.0000   30.2400    0.0000    0.0000    0.0000   69.7600    0.0000    0.0000    0.0000    0.0000    0.0000    0.0000    0.0000    0.0000   89.4212   10.1000 
1032.5000    6.5100  -10.8895    6.6310    0.0001    1.0000    0.0001    1.0000    0.0000 -999.0000    0.0000   30.2400    0.0000    0.0000    0.0000   69.7600    0.0000    0.0000    0.0000    0.0000    0.0000    0.0000    0.0000    0.0000   89.4257   10.1000 
1033.0000    6.6130  -10.8884    6.5970    0.0001    1.0000    0.0001    1.0000    0.0000 -999.0000    0.0000   30.2400    0.0000    0.0000    0.0000   69.7600    0.0000    0.0000    0.0000    0.0000    0.0000    0.0000    0.0000    0.0000   89.4303   10.1000 
1033.5000    6.7770  -11.1303    6.4800    0.0001    1.0000    0.0001    0.9955    0.0038 -999.0000    0.0000   30.2400    0.0000    0.0000    0.0000   69.7600    0.0000    0.0000    0.0000    0.0000    0.0000    0.0000    0.0000    0.0000   89.4349   10.1000 
1034.0000    6.8710  -11.4713    6.3670    0.0001    1.0000    0.0001    0.9837    0.0156 -999.0000    0.0000   30.2400    0.0000    0.0000    0.0000   69.7600    0.0000    0.0000    0.0000    0.0000    0.0000    0.0000    0.0000    0.0000   89.4394   10.1000 
1034.5000    6.9150  -11.7792    6.2710    0.0001    1.0000    0.0001    0.9731    0.0262 -999.0000    0.0000   30.2400    0.0000    0.0000    0.0000   69.7600    0.0000    0.0000    0.0000    0.0000    0.0000    0.0000    0.0000    0.0000   89.4440   10.1000 
1035.0000    6.8950  -12.0871    6.2480    0.0001    1.0000    0.0001    0.9625    0.0368 -999.0000    0.0000   30.2400    0.0000    0.0000    0.0000   69.7600    0.0000    0.0000    0.0000    0.0000    0.0000    0.0000    0.0000    0.0000   89.4486   10.1000 
1035.5000    6.8760  -12.3950    6.2460    0.0001    1.0000    0.0001    0.9519    0.0473 -999.0000    0.0000   30.2400    0.0000    0.0000    0.0000   69.7600    0.0000    0.0000    0.0000    0.0000    0.0000    0.0000    0.0000    0.0000   89.4531   10.1000 
1036.0000    6.8320  -12.7539    6.3920    0.0002    1.0000    0.0002    0.9395    0.0593 -999.0000    0.0000   30.2400    0.0000    0.0000    0.0000   69.7600    0.0000    0.0000    0.0000    0.0000    0.0000    0.0000    0.0000    0.0000   89.4577   10.1000 
1036.5000    6.7820  -13.0429    6.5640    0.0003    1.0000    0.0003    0.9296    0.0687 -999.0000    0.0000   30.2400    0.0000    0.0000    0.0000   69.7600    0.0000    0.0000    0.0000    0.0000    0.0000    0.0000    0.0000    0.0000   89.4622   10.1000 
1037.0000    6.7320  -12.8918    6.7900    0.0002    1.0000    0.0002    0.9348    0.0638 -999.0000    0.0000   30.2400    0.0000    0.0000    0.0000   69.7600    0.0000    0.0000    0.0000    0.0000    0.0000    0.0000    0.0000    0.0000   89.4668   10.1000 
1037.5000    6.6820  -12.7407    7.0440    0.0002    1.0000    0.0002    0.9400    0.0588 -999.0000    0.0000   30.2400    0.0000    0.0000    0.0000   69.7600    0.0000    0.0000    0.0000    0.0000    0.0000    0.0000    0.0000    0.0000   89.4714   10.1000 
1038.0000    6.6550  -12.7446    7.1610    0.0002    1.0000    0.0002    0.9398    0.0590 -999.0000    0.0000   30.2400    0.0000    0.0000    0.0000   69.7600    0.0000    0.0000    0.0000    0.0000    0.0000    0.0000    0.0000    0.0000   89.4759   10.1000 
1038.5000    6.6790  -12.8435    7.2180    0.0002    1.0000    0.0002    0.9364    0.0622 -999.0000    0.0000   30.2400    0.0000    0.0000    0.0000   69.7600    0.0000    0.0000    0.0000    0.0000    0.0000    0.0000    0.0000    0.0000   89.4805   10.1000 
1039.0000    6.7880  -12.9394    7.2750    0.0002    1.0000    0.0002    0.9331    0.0654 -999.0000    0.0000   30.2400    0.0000    0.0000    0.0000   69.7600    0.0000    0.0000    0.0000    0.0000    0.0000    0.0000    0.0000    0.0000   89.4851   10.1000 
1039.5000    7.0010  -13.1724    7.2770    0.0003    1.0000    0.0003    0.9251    0.0729 -999.0000    0.0000   30.2400    0.0000    0.0000    0.0000   69.7600    0.0000    0.0000    0.0000    0.0000    0.0000    0.0000    0.0000    0.0000   89.4896   10.1000 
1040.0000    7.3180  -13.3203    7.2740    0.0003    1.0000    0.0003    0.9200    0.0777 -999.0000    0.0000   30.2400    0.0000    0.0000    0.0000   69.7600    0.0000    0.0000    0.0000    0.0000    0.0000    0.0000    0.0000    0.0000   89.4942   10.1000 
1040.5000    7.6350  -13.4682    7.2550    0.0004    1.0000    0.0004    0.9149    0.0824 -999.0000    0.0000   30.2400    0.0000    0.0000    0.0000   69.7600    0.0000    0.0000    0.0000    0.0000    0.0000    0.0000    0.0000    0.0000   89.4988   10.1000 
1041.0000    7.9060  -13.4911    7.2530    0.0004    1.0000    0.0004    0.9141    0.0831 -999.0000    0.0000   30.2400    0.0000    0.0000    0.0000   69.7600    0.0000    0.0000    0.0000    0.0000    0.0000    0.0000    0.0000    0.0000   89.5033   10.1000 
1041.5000    8.0130  -13.3860    7.3080    0.0004    1.0000    0.0004    0.9177    0.0798 -999.0000    0.0000   30.2400    0.0000    0.0000    0.0000   69.7600    0.0000    0.0000    0.0000    0.0000    0.0000    0.0000    0.0000    0.0000   89.5079   10.1000 
1042.0000    8.0570  -13.2810    7.4220    0.0003    1.0000    0.0003    0.9213    0.0764 -999.0000    0.0000   30.2400    0.0000    0.0000    0.0000   69.7600    0.0000    0.0000    0.0000    0.0000    0.0000    0.0000    0.0000    0.0000   89.5125   10.1000 
