~VERSION INFORMATION
 VERS.                 2.0:   CWLS LOG ASCII STANDARD - VERSION 2.0
 WRAP.                  NO:   SINGLE LINE PER DEPTH STEP
 CREA.                 03/05/2017 10:34:44
#CREATED USING IP VERSION 4.2.2015.61 BY PANESSOR ON 03/05/2017 10:34:44
~WELL INFORMATION
#MNEM.UNIT       DATA                          DESCRIPTION MNEMONIC
#---------      ---------------------------   --------------------------
 STRT    .FT        500.0000                  : START DEPTH
 STOP    .FT        5680.0000                 : STOP DEPTH
 STEP    .FT        0.5000                    : STEP VALUE
 NULL    .      -999.0000                     : NULL VALUE
 DATE    .      03/05/2017                    : LAS file Creation Date
 WELL  .      CRISOL-3            : Well Name
 COMP  .      INTERCOL            : Company
 FLD   .      WILDCAT             : Field
 STATE .      MAGDALENA           : State
 COUNT .      COLOMBIA            : Country
 API   .      CRIL0003            : API Number
 UWI   .      100000000377        : Unique Well Identifier (UWI)
 LOC   .      GAUSS ORIGIN BOGOTA : Location
 LATI  .      1                   : Latitude/Northing
 LONG  .      1                   : Longitude/Easting
 RWS   .      -999                : Def_Rw
 WST   .      -999                : Def_Rwt
 CNTY  .      N/A                 : County
 PROV  .                          : Province
 SRVC  .      SCH                 : Contractor
~CURVE INFORMATION
#MNEM                UNIT       API CODE     Description
#----------    --------------- ----------  --------------
 DEPTH        .FT                        : 
 RM_IR        .OHMM                      : Medium Resistivity
 RD_IR        .OHMM                      : Formation Deep Resitivity
 LAT_E_IR     .OHMM                      : Lateral AO18'8"
 SPC_IR       .MV                        : Spontaneous Potential
 PHIE_IR      .Dec                       : Effective Porosity
 SW_IR        .Dec                       : Effective Water Saturation
 BVW_IR       .Dec                       : Bulk Volume water (Phie x SW)
 VWCL_IR      .Dec                       : Volume wet Clay
 VSILT_IR     .Dec                       : Volume Silt
 SLST_IR      .%                         : Mudlog SILSTONE
 SS_IR        .%                         : Mudlog SANDSTONE
 CONG_IR      .%                         : Mudlog CONGLOMERATE
 MARL_IR      .%                         : Mudlog MARLSTONE
 ResFlag_IR   .                          : Net Reservoir
 IGNEOUS_IR   .us/ft                     : Mudlog IGNEOUS
 LS_IR        .us/ft                     : Mudlog LIMESTONE
 SH_IR        .%                         : Mudlog SHALE
 PayFlag_IR   .                          : Net Pay
 Perm_IR      .md                        : Calculated Permeability
 PayFlagRT_IR .                          : Pay Flag Rock Type
 ResFlagRT_IR .                          : Net Reservoir Rock Type
 K_PHI_IR     .                          : K/PHI RATIO
 Rock_Type_IR .microns                   : Pore Throat Size - Rock Types
 Temp_IR      .F                         : Formation Temperature
~P Interactive Petrophysics parameters
#Name        Value                 Description
#----- --------------------------  -----------
#Logging Run 
 RUN  .     1           : Run Number
 DATE .     23/04/1954  : Date                      | RUN[0]
 DFT  .     /           : Type of Fluid in Hole     | RUN[1]
~A  DEPTH   RM_IR     RD_IR    LAT_E_IR   SPC_IR   PHIE_IR    SW_IR     BVW_IR   VWCL_IR   VSILT_IR  SLST_IR    SS_IR    CONG_IR   MARL_IR  ResFlag_~ IGNEOUS_~   LS_IR     SH_IR   PayFlag_~  Perm_IR  PayFlagR~ ResFlagR~  K_PHI_IR Rock_Typ~  Temp_IR  
# ...
3236.0000   17.1380   24.0610   46.8970  -36.5843    0.0066    1.0000    0.0066    0.8420    0.1360    0.0000    0.0000    0.0000   86.4260    0.0000    0.0000   13.5740    0.0000    0.0000    0.0000    0.0000    0.0000    0.0001    0.0005  108.8578 
3236.5000   17.2100   24.0440   44.7380  -34.9804    0.0038    1.0000    0.0038    0.8660    0.1214    0.0000    0.0000    0.0000   86.5870    0.0000    0.0000   13.4130    0.0000    0.0000    0.0000    0.0000    0.0000    0.0000    0.0001  108.8630 
3237.0000   17.5000   24.0560   44.0260  -33.7461    0.0024    1.0000    0.0024    0.8844    0.1076    0.0000    0.0000    0.0000   86.7480    0.0000    0.0000   13.2520    0.0000    0.0000    0.0000    0.0000    0.0000    0.0000    0.0001  108.8682 
3237.5000   18.2250   24.0480   43.6690  -32.6959    0.0016    1.0000    0.0016    0.9001    0.0947    0.0000    0.0000    0.0000   86.5540    0.0000    0.0000   13.4460    0.0000    0.0000    0.0000    0.0000    0.0000    0.0000    0.0000  108.8735 
3238.0000   18.8040   24.0540   44.0300  -33.1063    0.0019    1.0000    0.0019    0.8939    0.0999    0.0000    0.0000    0.0000   86.3600    0.0000    0.0000   13.6400    0.0000    0.0000    0.0000    0.0000    0.0000    0.0000    0.0000  108.8787 
3238.5000   19.3120   24.0720   44.3860  -33.9183    0.0026    1.0000    0.0026    0.8818    0.1097    0.0000    0.0000    0.0000   86.3885    0.0000    0.0000   13.6115    0.0000    0.0000    0.0000    0.0000    0.0000    0.0000    0.0001  108.8839 
3239.0000   19.5290   24.4100   45.4680  -36.3165    0.0060    1.0000    0.0060    0.8460    0.1339    0.0000    0.0000    0.0000   86.4170    0.0000    0.0000   13.5830    0.0000    0.0000    0.0000    0.0000    0.0000    0.0000    0.0004  108.8892 
3239.5000   19.7460   24.7450   46.5270  -37.6127    0.0092    1.0000    0.0092    0.8267    0.1428    0.0000    0.0000    0.0000   87.6395    0.0000    0.0000   12.3605    0.0000    0.0000    0.0000    0.0000    0.0000    0.0002    0.0010  108.8944 
3240.0000   19.8910   25.1330   47.2730  -38.7031    0.0127    1.0000    0.0127    0.8104    0.1471    0.0000    0.0000    0.0000   88.8620    0.0000    0.0000   11.1380    0.0000    0.0000    0.0000    0.0000    0.0000    0.0006    0.0021  108.8996 
3240.5000   20.0360   25.4950   49.0920  -38.5019    0.0120    1.0000    0.0120    0.8134    0.1466    0.0000    0.0000    0.0000   94.4310    0.0000    0.0000    5.5690    0.0000    0.0000    0.0000    0.0000    0.0000    0.0005    0.0018  108.9049 
3241.0000   20.1810   25.8380   49.4290  -38.3970    0.0116    1.0000    0.0116    0.8150    0.1462    0.0000    0.0000    0.0000  100.0000    0.0000    0.0000    0.0000    0.0000    0.0000    0.0000    0.0000    0.0000    0.0004    0.0017  108.9101 
3241.5000   20.6160   25.8500   50.8670  -38.1289    0.0107    1.0000    0.0107    0.8190    0.1453    0.0000    0.0000    0.0000  100.0000    0.0000    0.0000    0.0000    0.0000    0.0000    0.0000    0.0000    0.0000    0.0003    0.0014  108.9153 
3242.0000   21.1960   25.8340   51.2540  -38.0288    0.0104    1.0000    0.0104    0.8205    0.1448    0.0000    0.0000    0.0000  100.0000    0.0000    0.0000    0.0000    0.0000    0.0000    0.0000    0.0000    0.0000    0.0003    0.0013  108.9206 
3242.5000   21.4490   25.4840   51.6430  -37.9418    0.0101    1.0000    0.0101    0.8218    0.1444    0.0000    0.0000    0.0000  100.0000    0.0000    0.0000    0.0000    0.0000    0.0000    0.0000    0.0000    0.0000    0.0003    0.0013  108.9258 
3243.0000   21.4130   25.1370   51.6430  -38.0732    0.0106    1.0000    0.0106    0.8198    0.1450    0.0000    0.0000    0.0000  100.0000    0.0000    0.0000    0.0000    0.0000    0.0000    0.0000    0.0000    0.0000    0.0003    0.0014  108.9310 
3243.5000   21.1960   24.7840   53.4490  -38.2636    0.0112    1.0000    0.0112    0.8170    0.1458    0.0000    0.0000    0.0000  100.0000    0.0000    0.0000    0.0000    0.0000    0.0000    0.0000    0.0000    0.0000    0.0004    0.0016  108.9362 
3244.0000   20.4710   23.6750   54.5380  -38.1982    0.0110    1.0000    0.0110    0.8179    0.1455    0.0000    0.0000    0.0000  100.0000    0.0000    0.0000    0.0000    0.0000    0.0000    0.0000    0.0000    0.0000    0.0004    0.0015  108.9415 
3244.5000   20.1090   22.5970   57.0740  -38.0202    0.0104    1.0000    0.0104    0.8206    0.1448    0.0000    0.0000    0.0000  100.0000    0.0000    0.0000    0.0000    0.0000    0.0000    0.0000    0.0000    0.0000    0.0003    0.0013  108.9467 
3245.0000   19.4200   21.1950   59.2430  -37.1432    0.0079    1.0000    0.0079    0.8337    0.1400    0.0000    0.0000    0.0000  100.0000    0.0000    0.0000    0.0000    0.0000    0.0000    0.0000    0.0000    0.0000    0.0001    0.0007  108.9519 
3245.5000   18.2250   20.8190   60.3230  -36.9277    0.0074    1.0000    0.0074    0.8369    0.1385    0.0000    0.0000    0.0000  100.0000    0.0000    0.0000    0.0000    0.0000    0.0000    0.0000    0.0000    0.0000    0.0001    0.0006  108.9572 
3246.0000   16.7750   20.4280   61.7690  -37.0129    0.0076    1.0000    0.0076    0.8356    0.1391    0.0000    0.0000    0.0000  100.0000    0.0000    0.0000    0.0000    0.0000    0.0000    0.0000    0.0000    0.0000    0.0001    0.0007  108.9624 
3246.5000   15.3990   20.4620   61.7690  -37.3932    0.0085    1.0000    0.0085    0.8300    0.1416    0.0000    0.0000    0.0000  100.0000    0.0000    0.0000    0.0000    0.0000    0.0000    0.0000    0.0000    0.0000    0.0001    0.0009  108.9676 
3247.0000   14.8910   20.4410   59.6010  -37.6641    0.0093    1.0000    0.0093    0.8259    0.1431    0.0000    0.0000    0.0000  100.0000    0.0000    0.0000    0.0000    0.0000    0.0000    0.0000    0.0000    0.0000    0.0002    0.0011  108.9729 
3247.5000   14.9280   20.7800   57.4280  -37.9435    0.0101    1.0000    0.0101    0.8217    0.1445    0.0000    0.0000    0.0000  100.0000    0.0000    0.0000    0.0000    0.0000    0.0000    0.0000    0.0000    0.0000    0.0003    0.0013  108.9781 
3248.0000   15.5430   20.8190   50.5430  -38.2891    0.0113    1.0000    0.0113    0.8166    0.1459    0.0000    0.0000    0.0000  100.0000    0.0000    0.0000    0.0000    0.0000    0.0000    0.0000    0.0000    0.0000    0.0004    0.0016  108.9833 
3248.5000   16.0510   21.1820   45.4710  -38.3279    0.0114    1.0000    0.0114    0.8160    0.1460    0.0000    0.0000    0.0000  100.0000    0.0000    0.0000    0.0000    0.0000    0.0000    0.0000    0.0000    0.0000    0.0004    0.0016  108.9886 
3249.0000   17.3550   21.5050   41.4860  -38.4283    0.0117    1.0000    0.0117    0.8145    0.1463    0.0000    0.0000    0.0000  100.0000    0.0000    0.0000    0.0000    0.0000    0.0000    0.0000    0.0000    0.0000    0.0005    0.0018  108.9938 
3249.5000   18.0800   21.8590   37.8620  -38.3245    0.0114    1.0000    0.0114    0.8161    0.1460    0.0000    0.0000    0.0000  100.0000    0.0000    0.0000    0.0000    0.0000    0.0000    0.0000    0.0000    0.0000    0.0004    0.0016  108.9990 
3250.0000   19.4570   21.8770   37.5000  -38.3132    0.0113    1.0000    0.0113    0.8162    0.1460    0.0000    0.0000    0.0000  100.0000    0.0000    0.0000    0.0000    0.0000    0.0000    0.0000    0.0000    0.0000    0.0004    0.0016  109.0043 
3250.5000   19.6920   21.8830   38.2250  -38.2947    0.0113    1.0000    0.0113    0.8165    0.1459    0.0000    0.0000    0.0000  100.0000    0.0000    0.0000    0.0000    0.0000    0.0000    0.0000    0.0000    0.0000    0.0004    0.0016  109.0095 
3251.0000   19.8190   21.8780   39.3120  -38.4903    0.0120    1.0000    0.0120    0.8136    0.1465    0.0000    0.0000    0.0000  100.0000    0.0000    0.0000    0.0000    0.0000    0.0000    0.0000    0.0000    0.0000    0.0005    0.0018  109.0147 
3251.5000   19.8190   21.8780   40.3990  -39.0454    0.0141    1.0000    0.0141    0.8053    0.1478    0.0000    0.0000    0.0000  100.0000    0.0000    0.0000    0.0000    0.0000    0.0000    0.0000    0.0000    0.0000    0.0009    0.0026  109.0200 
