~VERSION INFORMATION
 VERS.                 2.0:   CWLS LOG ASCII STANDARD - VERSION 2.0
 WRAP.                  NO:   SINGLE LINE PER DEPTH STEP
 CREA.                 16/2/2017 12:08:22 p. m.
#CREATED USING IP VERSION 4.2.2015.61 BY PANESSOR ON 16/2/2017 12:08:22 p. m.
~WELL INFORMATION
#MNEM.UNIT       DATA                          DESCRIPTION MNEMONIC
#---------      ---------------------------   --------------------------
 STRT    .FT        470.0000                  : START DEPTH
 STOP    .FT        5740.0000                 : STOP DEPTH
 STEP    .FT        0.5000                    : STEP VALUE
 NULL    .      -999.0000                     : NULL VALUE
 DATE    .      16/2/2017                     : LAS file Creation Date
 WELL  .      CRISOL-2      : Well Name
 COMP  .      INTERCOL      : Company
 FLD   .      141-AGUACHICA : Field
 STATE .      MAGDALENA     : State
 COUNT .      COLOMBIA      : Country
 API   .      CRIL0002      : API Number
 UWI   .      100000000372  : Unique Well Identifier (UWI)
 LOC   .                    : Location
 LATI  .      1.0038888889  : Latitude/Northing
 LONG  .      1.0080555556  : Longitude/Easting
 RWS   .      -999          : Def_Rw
 WST   .      -999          : Def_Rwt
 PROV  .                    : Province
 SRVC  .      SCH           : Contractor
~CURVE INFORMATION
#MNEM                UNIT       API CODE     Description
#----------    --------------- ----------  --------------
 DEPTH        .FT                        : 
 RM_IR        .OHMM                      : Resistivity AM 16"
 SPC_IR       .MV                        : Spontaneous Potential
 RD_E_IR      .OHMM                      : Formation Resitivity
 PHIE_IR      .Dec                       : Effective Porosity
 SW_IR        .Dec                       : Water Saturation
 BVW_IR       .Dec                       : Bulk Volume water (Phie x SW)
 VWCL_IR      .Dec                       : Volume wet Clay
 VSILT_IR     .Dec                       : Volume Silt
 CONG_IR      .%                         : Mudlog CONGLOMERATE
 SS_IR        .%                         : Mudlog SANDSTONE
 LS_IR        .%                         : Mudlog LIMESTONE
 MARL_IR      .%                         : Mudlog MARLSTONE
 SLST_IR      .%                         : Mudlog SILSTONE
 SH_IR        .%                         : Mudlog SHALE
 COAL_IR      .%                         : Mudlog  COAL
 IGNEOUS_IR   .%                         : Mudlog IGNEOUS
 ResFlag_IR   .                          : Net Reservoir
 PayFlag_IR   .                          : Net Pay
 PERFS_IR     .B/E                       : Perforations
 Perm_IR      .md                        : Calculated Permeability
 PayFlagRT_IR .                          : Pay Flag Rock Type
 K_PHI_IR     .                          : K/PHI RATIO
 ResFlagRT_IR .                          : Net Reservoir Rock Type
 Rock_Type_IR .microns                   : Pore Throat Size - Rock Types
 Temp_IR      .F                         : Formation Temperature
~P Interactive Petrophysics parameters
#Name        Value                 Description
#----- --------------------------  -----------
#Logging Run 
 RUN  .     1           : Run Number
 DATE .     27/02/1954  : Date                      | RUN[0]
 DFT  .     /           : Type of Fluid in Hole     | RUN[1]
~A  DEPTH   RM_IR     SPC_IR   RD_E_IR   PHIE_IR    SW_IR     BVW_IR   VWCL_IR   VSILT_IR  CONG_IR    SS_IR     LS_IR    MARL_IR   SLST_IR    SH_IR    COAL_IR  IGNEOUS_~ ResFlag_~ PayFlag_~  PERFS_IR  Perm_IR  PayFlagR~  K_PHI_IR ResFlagR~ Rock_Typ~  Temp_IR  
# ...
5027.0000   84.7120  -31.2796  114.5680    0.0573    1.0000    0.0573    0.5634    0.2455    0.0000    0.0000   27.9340   72.0660    0.0000    0.0000    0.0000    0.0000    0.0000    0.0000 -999.0000    0.0110    0.0000    0.1912    0.0000    0.0840  130.1744 
5027.5000   86.8710  -31.5576  112.4100    0.0583    1.0000    0.0583    0.5555    0.2503    0.0000    0.0000   27.9670   72.0330    0.0000    0.0000    0.0000    0.0000    0.0000    0.0000 -999.0000    0.0119    0.0000    0.2035    0.0000    0.0867  130.1799 
5028.0000   90.1080  -32.0186  120.3240    0.0598    0.9912    0.0593    0.5423    0.2583    0.0000    0.0000   28.0000   72.0000    0.0000    0.0000    0.0000    0.0000    0.0000    0.0000 -999.0000    0.0136    0.0000    0.2267    0.0000    0.0918  130.1854 
5028.5000   92.2660  -31.8666  123.9210    0.0593    0.9854    0.0584    0.5467    0.2557    0.0000    0.0000   28.0330   71.9670    0.0000    0.0000    0.0000    0.0000    0.0000    0.0000 -999.0000    0.0131    0.0000    0.2205    0.0000    0.0905  130.1909 
5029.0000   95.5040  -30.9456  125.7190    0.0562    1.0000    0.0562    0.5730    0.2397    0.0000    0.0000   28.0660   71.9340    0.0000    0.0000    0.0000    0.0000    0.0000    0.0000 -999.0000    0.0100    0.0000    0.1772    0.0000    0.0808  130.1964 
5029.5000   98.7410  -29.5826  126.4390    0.0516    1.0000    0.0516    0.6119    0.2162    0.0000    0.0000   28.0955   71.9045    0.0000    0.0000    0.0000    0.0000    0.0000    0.0000 -999.0000    0.0066    0.0000    0.1279    0.0000    0.0683  130.2018 
5030.0000  100.1800  -28.4006  127.1580    0.0475    1.0000    0.0475    0.6457    0.1958    0.0000    0.0000   28.1250   71.8750    0.0000    0.0000    0.0000    0.0000    0.0000    0.0000 -999.0000    0.0045    0.0000    0.0940    0.0000    0.0582  130.2073 
5030.5000  100.8990  -27.2396  126.0790    0.0436    1.0000    0.0436    0.6789    0.1758    0.0000    0.0000   31.2500   68.7500    0.0000    0.0000    0.0000    0.0000    0.0000    0.0000 -999.0000    0.0029    0.0000    0.0676    0.0000    0.0492  130.2128 
5031.0000  100.1800  -25.9966  124.6340    0.0394    1.0000    0.0394    0.7144    0.1543    0.0000    0.0000   34.3750   65.6250    0.0000    0.0000    0.0000    0.0000    0.0000    0.0000 -999.0000    0.0018    0.0000    0.0459    0.0000    0.0403  130.2183 
5031.5000   97.6620  -24.8386  122.8450    0.0355    1.0000    0.0355    0.7475    0.1344    0.0000    0.0000   34.3750   65.6250    0.0000    0.0000    0.0000    0.0000    0.0000    0.0000 -999.0000    0.0011    0.0000    0.0308    0.0000    0.0328  130.2238 
5032.0000   95.5040  -23.6906  124.2910    0.0224    1.0000    0.0224    0.7803    0.1451    0.0000    0.0000   34.3750   65.6250    0.0000    0.0000    0.0000    0.0000    0.0000    0.0000 -999.0000    0.0001    0.0000    0.0054    0.0000    0.0133  130.2293 
5032.5000   91.5470  -23.4846  126.0870    0.0202    1.0000    0.0202    0.7862    0.1467    0.0000    0.0000   34.3750   65.6250    0.0000    0.0000    0.0000    0.0000    0.0000    0.0000 -999.0000    0.0001    0.0000    0.0036    0.0000    0.0108  130.2348 
5033.0000   86.1510  -23.2356  127.8730    0.0177    1.0000    0.0177    0.7933    0.1478    0.0000    0.0000   34.3750   65.6250    0.0000    0.0000    0.0000    0.0000    0.0000    0.0000 -999.0000    0.0000    0.0000    0.0022    0.0000    0.0084  130.2402 
5033.5000   83.2730  -24.1206  130.4670    0.0277    1.0000    0.0277    0.7680    0.1396    0.0000    0.0000   34.3750   65.6250    0.0000    0.0000    0.0000    0.0000    0.0000    0.0000 -999.0000    0.0003    0.0000    0.0121    0.0000    0.0202  130.2457 
5034.0000   81.8350  -24.9596  129.9840    0.0359    1.0000    0.0359    0.7440    0.1364    0.0000    0.0000   34.3750   65.6250    0.0000    0.0000    0.0000    0.0000    0.0000    0.0000 -999.0000    0.0012    0.0000    0.0322    0.0000    0.0335  130.2512 
5034.5000   82.2230  -25.9866  127.8780    0.0394    1.0000    0.0394    0.7147    0.1542    0.0000    0.0000   34.3750   65.6250    0.0000    0.0000    0.0000    0.0000    0.0000    0.0000 -999.0000    0.0018    0.0000    0.0458    0.0000    0.0402  130.2567 
5035.0000   83.3210  -26.9046  126.0790    0.0425    1.0000    0.0425    0.6884    0.1700    0.0000    0.0000   34.3750   65.6250    0.0000    0.0000    0.0000    0.0000    0.0000    0.0000 -999.0000    0.0026    0.0000    0.0612    0.0000    0.0467  130.2622 
5035.5000   84.7830  -27.8696  119.9640    0.0457    1.0000    0.0457    0.6609    0.1867    0.0000    0.0000   34.3750   65.6250    0.0000    0.0000    0.0000    0.0000    0.0000    0.0000 -999.0000    0.0037    0.0000    0.0811    0.0000    0.0540  130.2677 
5036.0000   86.4190  -28.6296  115.2880    0.0483    1.0000    0.0483    0.6392    0.1998    0.0000    0.0000   34.3750   65.6250    0.0000    0.0000    0.0000    0.0000    0.0000    0.0000 -999.0000    0.0048    0.0000    0.0999    0.0000    0.0601  130.2732 
5036.5000   86.2570  -28.7596  110.2520    0.0488    1.0000    0.0488    0.6354    0.2020    0.0000    0.0000   34.3750   65.6250    0.0000    0.0000    0.0000    0.0000    0.0000    0.0000 -999.0000    0.0050    0.0000    0.1035    0.0000    0.0612  130.2787 
5037.0000   84.8190  -28.6746  105.5760    0.0485    1.0000    0.0485    0.6379    0.2005    0.0000    0.0000   34.3750   65.6250    0.0000    0.0000    0.0000    0.0000    0.0000    0.0000 -999.0000    0.0049    0.0000    0.1012    0.0000    0.0605  130.2841 
5037.5000   83.0080  -28.5166  104.4960    0.0479    1.0000    0.0479    0.6424    0.1978    0.0000    0.0000   34.3750   65.6250    0.0000    0.0000    0.0000    0.0000    0.0000    0.0000 -999.0000    0.0046    0.0000    0.0970    0.0000    0.0592  130.2896 
5038.0000   79.3890  -28.9156  105.5760    0.0493    1.0000    0.0493    0.6310    0.2047    0.0000    0.0000   34.3750   65.6250    0.0000    0.0000    0.0000    0.0000    0.0000    0.0000 -999.0000    0.0053    0.0000    0.1078    0.0000    0.0625  130.2951 
5038.5000   77.8780  -29.1516  106.2950    0.0501    1.0000    0.0501    0.6242    0.2088    0.0000    0.0000   34.3750   65.6250    0.0000    0.0000    0.0000    0.0000    0.0000    0.0000 -999.0000    0.0057    0.0000    0.1146    0.0000    0.0645  130.3006 
5039.0000   73.9210  -29.2956  107.0140    0.0506    1.0000    0.0506    0.6201    0.2113    0.0000    0.0000   34.3750   65.6250    0.0000    0.0000    0.0000    0.0000    0.0000    0.0000 -999.0000    0.0060    0.0000    0.1189    0.0000    0.0658  130.3061 
5039.5000   73.2010  -28.7886  105.5760    0.0489    1.0000    0.0489    0.6346    0.2025    0.0000    0.0000   34.3750   65.6250    0.0000    0.0000    0.0000    0.0000    0.0000    0.0000 -999.0000    0.0051    0.0000    0.1043    0.0000    0.0614  130.3116 
5040.0000   72.4820  -27.6836  103.0580    0.0451    1.0000    0.0451    0.6662    0.1834    0.0000    0.0000   34.3750   65.6250    0.0000    0.0000    0.0000    0.0000    0.0000    0.0000 -999.0000    0.0035    0.0000    0.0770    0.0000    0.0525  130.3171 
5040.5000   70.6830  -25.9746  100.8990    0.0393    1.0000    0.0393    0.7150    0.1540    0.0000    0.0000   34.3750   65.6250    0.0000    0.0000    0.0000    0.0000    0.0000    0.0000 -999.0000    0.0018    0.0000    0.0456    0.0000    0.0401  130.3226 
5041.0000   69.9640  -24.6066   98.3810    0.0347    1.0000    0.0347    0.7541    0.1303    0.0000    0.0000   34.3750   65.6250    0.0000    0.0000    0.0000    0.0000    0.0000    0.0000 -999.0000    0.0010    0.0000    0.0283    0.0000    0.0314  130.3280 
5041.5000   67.8060  -22.9956   96.9420    0.0156    1.0000    0.0156    0.8001    0.1480    0.0000    0.0000   34.3750   65.6250    0.0000    0.0000    0.0000    0.0000    0.0000    0.0000 -999.0000    0.0000    0.0000    0.0013    0.0000    0.0065  130.3335 
5042.0000   66.3670  -21.5976   95.5040    0.0069    1.0000    0.0069    0.8401    0.1370    0.0000    0.0000   34.3750   65.6250    0.0000    0.0000    0.0000    0.0000    0.0000    0.0000 -999.0000    0.0000    0.0000    0.0001    0.0000    0.0013  130.3390 
