~VERSION INFORMATION
 VERS.                 2.0:   CWLS LOG ASCII STANDARD - VERSION 2.0
 WRAP.                  NO:   SINGLE LINE PER DEPTH STEP
 CREA.                 16/2/2017 12:08:22 p. m.
#CREATED USING IP VERSION 4.2.2015.61 BY PANESSOR ON 16/2/2017 12:08:22 p. m.
~WELL INFORMATION
#MNEM.UNIT       DATA                          DESCRIPTION MNEMONIC
#---------      ---------------------------   --------------------------
 STRT    .FT        470.0000                  : START DEPTH
 STOP    .FT        5740.0000                 : STOP DEPTH
 STEP    .FT        0.5000                    : STEP VALUE
 NULL    .      -999.0000                     : NULL VALUE
 DATE    .      16/2/2017                     : LAS file Creation Date
 WELL  .      CRISOL-2      : Well Name
 COMP  .      INTERCOL      : Company
 FLD   .      141-AGUACHICA : Field
 STATE .      MAGDALENA     : State
 COUNT .      COLOMBIA      : Country
 API   .      CRIL0002      : API Number
 UWI   .      100000000372  : Unique Well Identifier (UWI)
 LOC   .                    : Location
 LATI  .      1.0038888889  : Latitude/Northing
 LONG  .      1.0080555556  : Longitude/Easting
 RWS   .      -999          : Def_Rw
 WST   .      -999          : Def_Rwt
 PROV  .                    : Province
 SRVC  .      SCH           : Contractor
~CURVE INFORMATION
#MNEM                UNIT       API CODE     Description
#----------    --------------- ----------  --------------
 DEPTH        .FT                        : 
 RM_IR        .OHMM                      : Resistivity AM 16"
 SPC_IR       .MV                        : Spontaneous Potential
 RD_E_IR      .OHMM                      : Formation Resitivity
 PHIE_IR      .Dec                       : Effective Porosity
 SW_IR        .Dec                       : Water Saturation
 BVW_IR       .Dec                       : Bulk Volume water (Phie x SW)
 VWCL_IR      .Dec                       : Volume wet Clay
 VSILT_IR     .Dec                       : Volume Silt
 CONG_IR      .%                         : Mudlog CONGLOMERATE
 SS_IR        .%                         : Mudlog SANDSTONE
 LS_IR        .%                         : Mudlog LIMESTONE
 MARL_IR      .%                         : Mudlog MARLSTONE
 SLST_IR      .%                         : Mudlog SILSTONE
 SH_IR        .%                         : Mudlog SHALE
 COAL_IR      .%                         : Mudlog  COAL
 IGNEOUS_IR   .%                         : Mudlog IGNEOUS
 ResFlag_IR   .                          : Net Reservoir
 PayFlag_IR   .                          : Net Pay
 PERFS_IR     .B/E                       : Perforations
 Perm_IR      .md                        : Calculated Permeability
 PayFlagRT_IR .                          : Pay Flag Rock Type
 K_PHI_IR     .                          : K/PHI RATIO
 ResFlagRT_IR .                          : Net Reservoir Rock Type
 Rock_Type_IR .microns                   : Pore Throat Size - Rock Types
 Temp_IR      .F                         : Formation Temperature
~P Interactive Petrophysics parameters
#Name        Value                 Description
#----- --------------------------  -----------
#Logging Run 
 RUN  .     1           : Run Number
 DATE .     27/02/1954  : Date                      | RUN[0]
 DFT  .     /           : Type of Fluid in Hole     | RUN[1]
~A  DEPTH   RM_IR     SPC_IR   RD_E_IR   PHIE_IR    SW_IR     BVW_IR   VWCL_IR   VSILT_IR  CONG_IR    SS_IR     LS_IR    MARL_IR   SLST_IR    SH_IR    COAL_IR  IGNEOUS_~ ResFlag_~ PayFlag_~  PERFS_IR  Perm_IR  PayFlagR~  K_PHI_IR ResFlagR~ Rock_Typ~  Temp_IR  
# ...
2934.5000    2.6740  -21.2616    2.0330    0.0047    1.0000    0.0047    0.8569    0.1275    0.0000   10.1530    0.0000    0.0000    0.0000   89.8470    0.0000    0.0000    0.0000    0.0000 -999.0000    0.0000    0.0000    0.0000    0.0000    0.0006  107.2079 
2935.0000    2.5700  -20.7196    2.0320    0.0039    1.0000    0.0039    0.8652    0.1219    0.0000   10.1580    0.0000    0.0000    0.0000   89.8420    0.0000    0.0000    0.0000    0.0000 -999.0000    0.0000    0.0000    0.0000    0.0000    0.0004  107.2134 
2935.5000    2.4790  -20.0056    2.0330    0.0029    1.0000    0.0029    0.8763    0.1139    0.0000   10.1635    0.0000    0.0000    0.0000   89.8365    0.0000    0.0000    0.0000    0.0000 -999.0000    0.0000    0.0000    0.0000    0.0000    0.0003  107.2189 
2936.0000    2.4720  -19.9856    2.0320    0.0029    1.0000    0.0029    0.8766    0.1137    0.0000   10.1690    0.0000    0.0000    0.0000   89.8310    0.0000    0.0000    0.0000    0.0000 -999.0000    0.0000    0.0000    0.0000    0.0000    0.0002  107.2244 
2936.5000    2.6100  -19.9666    2.0260    0.0029    1.0000    0.0029    0.8769    0.1135    0.0000   10.1740    0.0000    0.0000    0.0000   89.8260    0.0000    0.0000    0.0000    0.0000 -999.0000    0.0000    0.0000    0.0000    0.0000    0.0002  107.2299 
2937.0000    2.7150  -19.9786    1.9930    0.0029    1.0000    0.0029    0.8767    0.1136    0.0000   10.1790    0.0000    0.0000    0.0000   89.8210    0.0000    0.0000    0.0000    0.0000 -999.0000    0.0000    0.0000    0.0000    0.0000    0.0002  107.2354 
2937.5000    2.7640  -19.9736    1.9910    0.0029    1.0000    0.0029    0.8768    0.1135    0.0000   10.1845    0.0000    0.0000    0.0000   89.8155    0.0000    0.0000    0.0000    0.0000 -999.0000    0.0000    0.0000    0.0000    0.0000    0.0002  107.2409 
2938.0000    2.8370  -19.9736    1.9560    0.0029    1.0000    0.0029    0.8768    0.1135    0.0000   10.1900    0.0000    0.0000    0.0000   89.8100    0.0000    0.0000    0.0000    0.0000 -999.0000    0.0000    0.0000    0.0000    0.0000    0.0002  107.2463 
2938.5000    2.8600  -19.9746    1.9560    0.0029    1.0000    0.0029    0.8767    0.1136    0.0000   10.1950    0.0000    0.0000    0.0000   89.8050    0.0000    0.0000    0.0000    0.0000 -999.0000    0.0000    0.0000    0.0000    0.0000    0.0002  107.2518 
2939.0000    2.8660  -19.9746    1.9190    0.0029    1.0000    0.0029    0.8767    0.1136    0.0000   10.2000    0.0000    0.0000    0.0000   89.8000    0.0000    0.0000    0.0000    0.0000 -999.0000    0.0000    0.0000    0.0000    0.0000    0.0002  107.2573 
2939.5000    2.9000  -19.9696    1.9290    0.0029    1.0000    0.0029    0.8768    0.1135    0.0000   10.2055    0.0000    0.0000    0.0000   89.7945    0.0000    0.0000    0.0000    0.0000 -999.0000    0.0000    0.0000    0.0000    0.0000    0.0002  107.2628 
2940.0000    2.8930  -19.9846    1.8970    0.0029    1.0000    0.0029    0.8766    0.1137    0.0000   10.2110    0.0000    0.0000    0.0000   89.7890    0.0000    0.0000    0.0000    0.0000 -999.0000    0.0000    0.0000    0.0000    0.0000    0.0002  107.2683 
2940.5000    2.8980  -19.9556    1.8850    0.0029    1.0000    0.0029    0.8770    0.1133    0.0000   10.2160    0.0000    0.0000    0.0000   89.7840    0.0000    0.0000    0.0000    0.0000 -999.0000    0.0000    0.0000    0.0000    0.0000    0.0002  107.2738 
2941.0000    2.8940  -20.1156    1.9160    0.0031    1.0000    0.0031    0.8746    0.1152    0.0000   10.2210    0.0000    0.0000    0.0000   89.7790    0.0000    0.0000    0.0000    0.0000 -999.0000    0.0000    0.0000    0.0000    0.0000    0.0003  107.2793 
2941.5000    2.8960  -20.1866    1.9260    0.0032    1.0000    0.0032    0.8735    0.1160    0.0000   10.2265    0.0000    0.0000    0.0000   89.7735    0.0000    0.0000    0.0000    0.0000 -999.0000    0.0000    0.0000    0.0000    0.0000    0.0003  107.2848 
2942.0000    2.9070  -20.3916    1.9320    0.0034    1.0000    0.0034    0.8703    0.1183    0.0000   10.2320    0.0000    0.0000    0.0000   89.7680    0.0000    0.0000    0.0000    0.0000 -999.0000    0.0000    0.0000    0.0000    0.0000    0.0003  107.2902 
2942.5000    3.0040  -20.5416    1.9620    0.0036    1.0000    0.0036    0.8680    0.1200    0.0000   10.2370    0.0000    0.0000    0.0000   89.7630    0.0000    0.0000    0.0000    0.0000 -999.0000    0.0000    0.0000    0.0000    0.0000    0.0004  107.2957 
2943.0000    2.9980  -20.8706    1.9680    0.0041    1.0000    0.0041    0.8629    0.1235    0.0000   10.2420    0.0000    0.0000    0.0000   89.7580    0.0000    0.0000    0.0000    0.0000 -999.0000    0.0000    0.0000    0.0000    0.0000    0.0005  107.3012 
2943.5000    3.0100  -21.2246    1.9970    0.0046    1.0000    0.0046    0.8574    0.1271    0.0000   10.2475    0.0000    0.0000    0.0000   89.7525    0.0000    0.0000    0.0000    0.0000 -999.0000    0.0000    0.0000    0.0000    0.0000    0.0006  107.3067 
2944.0000    2.9720  -21.6096    2.0230    0.0053    1.0000    0.0053    0.8515    0.1308    0.0000   10.2530    0.0000    0.0000    0.0000   89.7470    0.0000    0.0000    0.0000    0.0000 -999.0000    0.0000    0.0000    0.0000    0.0000    0.0008  107.3122 
2944.5000    2.9940  -21.7506    2.0370    0.0056    1.0000    0.0056    0.8493    0.1320    0.0000   10.2580    0.0000    0.0000    0.0000   89.7420    0.0000    0.0000    0.0000    0.0000 -999.0000    0.0000    0.0000    0.0000    0.0000    0.0009  107.3177 
2945.0000    3.0300  -21.5276    2.0250    0.0052    1.0000    0.0052    0.8527    0.1300    0.0000   10.2630    0.0000    0.0000    0.0000   89.7370    0.0000    0.0000    0.0000    0.0000 -999.0000    0.0000    0.0000    0.0000    0.0000    0.0008  107.3232 
2945.5000    3.0440  -21.4096    2.0910    0.0050    1.0000    0.0050    0.8546    0.1289    0.0000   10.2685    0.0000    0.0000    0.0000   89.7315    0.0000    0.0000    0.0000    0.0000 -999.0000    0.0000    0.0000    0.0000    0.0000    0.0007  107.3287 
2946.0000    3.0150  -21.2886    2.1010    0.0048    1.0000    0.0048    0.8564    0.1277    0.0000   10.2740    0.0000    0.0000    0.0000   89.7260    0.0000    0.0000    0.0000    0.0000 -999.0000    0.0000    0.0000    0.0000    0.0000    0.0006  107.3341 
2946.5000    2.9590  -21.0896    2.1330    0.0044    1.0000    0.0044    0.8595    0.1257    0.0000   10.2790    0.0000    0.0000    0.0000   89.7210    0.0000    0.0000    0.0000    0.0000 -999.0000    0.0000    0.0000    0.0000    0.0000    0.0006  107.3396 
2947.0000    2.8850  -21.0116    2.1480    0.0043    1.0000    0.0043    0.8607    0.1250    0.0000   10.2840    0.0000    0.0000    0.0000   89.7160    0.0000    0.0000    0.0000    0.0000 -999.0000    0.0000    0.0000    0.0000    0.0000    0.0005  107.3451 
2947.5000    2.8270  -20.8166    2.1800    0.0040    1.0000    0.0040    0.8637    0.1229    0.0000   10.2895    0.0000    0.0000    0.0000   89.7105    0.0000    0.0000    0.0000    0.0000 -999.0000    0.0000    0.0000    0.0000    0.0000    0.0005  107.3506 
2948.0000    2.8600  -20.7176    2.1730    0.0039    1.0000    0.0039    0.8653    0.1219    0.0000   10.2950    0.0000    0.0000    0.0000   89.7050    0.0000    0.0000    0.0000    0.0000 -999.0000    0.0000    0.0000    0.0000    0.0000    0.0004  107.3561 
2948.5000    2.8990  -20.9016    2.1920    0.0041    1.0000    0.0041    0.8624    0.1238    0.0000   10.3000    0.0000    0.0000    0.0000   89.7000    0.0000    0.0000    0.0000    0.0000 -999.0000    0.0000    0.0000    0.0000    0.0000    0.0005  107.3616 
2949.0000    2.8940  -20.8466    2.2540    0.0040    1.0000    0.0040    0.8633    0.1232    0.0000   10.3050    0.0000    0.0000    0.0000   89.6950    0.0000    0.0000    0.0000    0.0000 -999.0000    0.0000    0.0000    0.0000    0.0000    0.0005  107.3671 
2949.5000    2.9000  -21.0166    2.2690    0.0043    1.0000    0.0043    0.8606    0.1250    0.0000   10.3105    0.0000    0.0000    0.0000   89.6895    0.0000    0.0000    0.0000    0.0000 -999.0000    0.0000    0.0000    0.0000    0.0000    0.0005  107.3726 
