~VERSION INFORMATION
 VERS.                 2.0:   CWLS LOG ASCII STANDARD - VERSION 2.0
 WRAP.                  NO:   SINGLE LINE PER DEPTH STEP
 CREA.                 16/2/2017 12:08:22 p. m.
#CREATED USING IP VERSION 4.2.2015.61 BY PANESSOR ON 16/2/2017 12:08:22 p. m.
~WELL INFORMATION
#MNEM.UNIT       DATA                          DESCRIPTION MNEMONIC
#---------      ---------------------------   --------------------------
 STRT    .FT        470.0000                  : START DEPTH
 STOP    .FT        5740.0000                 : STOP DEPTH
 STEP    .FT        0.5000                    : STEP VALUE
 NULL    .      -999.0000                     : NULL VALUE
 DATE    .      16/2/2017                     : LAS file Creation Date
 WELL  .      CRISOL-2      : Well Name
 COMP  .      INTERCOL      : Company
 FLD   .      141-AGUACHICA : Field
 STATE .      MAGDALENA     : State
 COUNT .      COLOMBIA      : Country
 API   .      CRIL0002      : API Number
 UWI   .      100000000372  : Unique Well Identifier (UWI)
 LOC   .                    : Location
 LATI  .      1.0038888889  : Latitude/Northing
 LONG  .      1.0080555556  : Longitude/Easting
 RWS   .      -999          : Def_Rw
 WST   .      -999          : Def_Rwt
 PROV  .                    : Province
 SRVC  .      SCH           : Contractor
~CURVE INFORMATION
#MNEM                UNIT       API CODE     Description
#----------    --------------- ----------  --------------
 DEPTH        .FT                        : 
 RM_IR        .OHMM                      : Resistivity AM 16"
 SPC_IR       .MV                        : Spontaneous Potential
 RD_E_IR      .OHMM                      : Formation Resitivity
 PHIE_IR      .Dec                       : Effective Porosity
 SW_IR        .Dec                       : Water Saturation
 BVW_IR       .Dec                       : Bulk Volume water (Phie x SW)
 VWCL_IR      .Dec                       : Volume wet Clay
 VSILT_IR     .Dec                       : Volume Silt
 CONG_IR      .%                         : Mudlog CONGLOMERATE
 SS_IR        .%                         : Mudlog SANDSTONE
 LS_IR        .%                         : Mudlog LIMESTONE
 MARL_IR      .%                         : Mudlog MARLSTONE
 SLST_IR      .%                         : Mudlog SILSTONE
 SH_IR        .%                         : Mudlog SHALE
 COAL_IR      .%                         : Mudlog  COAL
 IGNEOUS_IR   .%                         : Mudlog IGNEOUS
 ResFlag_IR   .                          : Net Reservoir
 PayFlag_IR   .                          : Net Pay
 PERFS_IR     .B/E                       : Perforations
 Perm_IR      .md                        : Calculated Permeability
 PayFlagRT_IR .                          : Pay Flag Rock Type
 K_PHI_IR     .                          : K/PHI RATIO
 ResFlagRT_IR .                          : Net Reservoir Rock Type
 Rock_Type_IR .microns                   : Pore Throat Size - Rock Types
 Temp_IR      .F                         : Formation Temperature
~P Interactive Petrophysics parameters
#Name        Value                 Description
#----- --------------------------  -----------
#Logging Run 
 RUN  .     1           : Run Number
 DATE .     27/02/1954  : Date                      | RUN[0]
 DFT  .     /           : Type of Fluid in Hole     | RUN[1]
~A  DEPTH   RM_IR     SPC_IR   RD_E_IR   PHIE_IR    SW_IR     BVW_IR   VWCL_IR   VSILT_IR  CONG_IR    SS_IR     LS_IR    MARL_IR   SLST_IR    SH_IR    COAL_IR  IGNEOUS_~ ResFlag_~ PayFlag_~  PERFS_IR  Perm_IR  PayFlagR~  K_PHI_IR ResFlagR~ Rock_Typ~  Temp_IR  
# ...
3291.0000   13.7550  -12.9303   14.2740    0.0001    1.0000    0.0001    0.9840    0.0157    0.0000    0.0000    0.0000  100.0000    0.0000    0.0000    0.0000    0.0000    0.0000    0.0000 -999.0000    0.0000    0.0000    0.0000    0.0000    0.0000  111.1207 
3291.5000   13.8500  -13.4569   14.3190    0.0001    1.0000    0.0001    0.9749    0.0248    0.0000    0.0000    0.0000  100.0000    0.0000    0.0000    0.0000    0.0000    0.0000    0.0000 -999.0000    0.0000    0.0000    0.0000    0.0000    0.0000  111.1262 
3292.0000   14.0980  -13.8956   14.3960    0.0001    1.0000    0.0001    0.9673    0.0322    0.0000    0.0000    0.0000  100.0000    0.0000    0.0000    0.0000    0.0000    0.0000    0.0000 -999.0000    0.0000    0.0000    0.0000    0.0000    0.0000  111.1317 
3292.5000   14.4460  -14.3922   14.4570    0.0002    1.0000    0.0002    0.9588    0.0405    0.0000    0.0000    0.0000  100.0000    0.0000    0.0000    0.0000    0.0000    0.0000    0.0000 -999.0000    0.0000    0.0000    0.0000    0.0000    0.0000  111.1372 
3293.0000   15.3520  -14.0779   14.5690    0.0002    1.0000    0.0002    0.9642    0.0353    0.0000    0.0000    0.0000  100.0000    0.0000    0.0000    0.0000    0.0000    0.0000    0.0000 -999.0000    0.0000    0.0000    0.0000    0.0000    0.0000  111.1427 
3293.5000   14.9540  -13.5625   14.6310    0.0001    1.0000    0.0001    0.9731    0.0266    0.0000    0.0000    0.0000  100.0000    0.0000    0.0000    0.0000    0.0000    0.0000    0.0000 -999.0000    0.0000    0.0000    0.0000    0.0000    0.0000  111.1482 
3294.0000   14.2530  -13.0151   14.7660    0.0001    1.0000    0.0001    0.9825    0.0172    0.0000    0.0000    0.0000  100.0000    0.0000    0.0000    0.0000    0.0000    0.0000    0.0000 -999.0000    0.0000    0.0000    0.0000    0.0000    0.0000  111.1537 
3294.5000   13.8140  -12.9638   14.8320    0.0001    1.0000    0.0001    0.9834    0.0163    0.0000    0.0000    0.0000  100.0000    0.0000    0.0000    0.0000    0.0000    0.0000    0.0000 -999.0000    0.0000    0.0000    0.0000    0.0000    0.0000  111.1591 
3295.0000   13.9260  -13.2774   14.9410    0.0001    1.0000    0.0001    0.9780    0.0217    0.0000    0.0000    0.0000  100.0000    0.0000    0.0000    0.0000    0.0000    0.0000    0.0000 -999.0000    0.0000    0.0000    0.0000    0.0000    0.0000  111.1646 
3295.5000   14.7190  -13.4960   15.0160    0.0001    1.0000    0.0001    0.9742    0.0255    0.0000    0.0000    0.0000  100.0000    0.0000    0.0000    0.0000    0.0000    0.0000    0.0000 -999.0000    0.0000    0.0000    0.0000    0.0000    0.0000  111.1701 
3296.0000   15.8420  -13.4627   15.1030    0.0001    1.0000    0.0001    0.9748    0.0249    0.0000    0.0000    0.0000  100.0000    0.0000    0.0000    0.0000    0.0000    0.0000    0.0000 -999.0000    0.0000    0.0000    0.0000    0.0000    0.0000  111.1756 
3296.5000   16.9620  -13.4633   15.1950    0.0001    1.0000    0.0001    0.9748    0.0249    0.0000    0.0000    0.0000  100.0000    0.0000    0.0000    0.0000    0.0000    0.0000    0.0000 -999.0000    0.0000    0.0000    0.0000    0.0000    0.0000  111.1811 
3297.0000   17.3980  -13.4700   15.2730    0.0001    1.0000    0.0001    0.9747    0.0250    0.0000    0.0000    0.0000  100.0000    0.0000    0.0000    0.0000    0.0000    0.0000    0.0000 -999.0000    0.0000    0.0000    0.0000    0.0000    0.0000  111.1866 
3297.5000   17.8960  -13.4406   15.3790    0.0001    1.0000    0.0001    0.9752    0.0245    0.0000    0.0000    0.0000  100.0000    0.0000    0.0000    0.0000    0.0000    0.0000    0.0000 -999.0000    0.0000    0.0000    0.0000    0.0000    0.0000  111.1921 
3298.0000   17.8180  -13.5802   15.8430    0.0001    1.0000    0.0001    0.9728    0.0269    0.0000    0.0000    0.0000  100.0000    0.0000    0.0000    0.0000    0.0000    0.0000    0.0000 -999.0000    0.0000    0.0000    0.0000    0.0000    0.0000  111.1976 
3298.5000   18.1170  -13.8059   16.2690    0.0001    1.0000    0.0001    0.9689    0.0307    0.0000    0.0000    0.9375   99.0625    0.0000    0.0000    0.0000    0.0000    0.0000    0.0000 -999.0000    0.0000    0.0000    0.0000    0.0000    0.0000  111.2030 
3299.0000   18.7840  -14.3335   16.7690    0.0002    1.0000    0.0002    0.9598    0.0396    0.0000    0.0000    1.8750   98.1250    0.0000    0.0000    0.0000    0.0000    0.0000    0.0000 -999.0000    0.0000    0.0000    0.0000    0.0000    0.0000  111.2085 
3299.5000   19.4460  -14.6501   17.2690    0.0003    1.0000    0.0003    0.9543    0.0448    0.0000    0.0000    6.2500   93.7500    0.0000    0.0000    0.0000    0.0000    0.0000    0.0000 -999.0000    0.0000    0.0000    0.0000    0.0000    0.0000  111.2140 
3300.0000   21.4010  -14.4998   17.7620    0.0002    1.0000    0.0002    0.9569    0.0423    0.0000    0.0000   10.6250   89.3750    0.0000    0.0000    0.0000    0.0000    0.0000    0.0000 -999.0000    0.0000    0.0000    0.0000    0.0000    0.0000  111.2195 
3300.5000   22.4990  -14.3154   18.1020    0.0002    1.0000    0.0002    0.9601    0.0393    0.0000    0.0000   10.6025   89.3975    0.0000    0.0000    0.0000    0.0000    0.0000    0.0000 -999.0000    0.0000    0.0000    0.0000    0.0000    0.0000  111.2250 
3301.0000   22.4210  -13.9631   18.0120    0.0002    1.0000    0.0002    0.9662    0.0333    0.0000    0.0000   10.5800   89.4200    0.0000    0.0000    0.0000    0.0000    0.0000    0.0000 -999.0000    0.0000    0.0000    0.0000    0.0000    0.0000  111.2305 
3301.5000   22.0160  -13.6247   17.4790    0.0001    1.0000    0.0001    0.9720    0.0276    0.0000    0.0000   10.5480   89.4520    0.0000    0.0000    0.0000    0.0000    0.0000    0.0000 -999.0000    0.0000    0.0000    0.0000    0.0000    0.0000  111.2360 
3302.0000   22.2200  -13.5983   16.7750    0.0001    1.0000    0.0001    0.9724    0.0272    0.0000    0.0000   10.5160   89.4840    0.0000    0.0000    0.0000    0.0000    0.0000    0.0000 -999.0000    0.0000    0.0000    0.0000    0.0000    0.0000  111.2415 
3302.5000   19.2430  -13.5890   15.3600    0.0001    1.0000    0.0001    0.9726    0.0270    0.0000    0.0000   10.4835   89.5165    0.0000    0.0000    0.0000    0.0000    0.0000    0.0000 -999.0000    0.0000    0.0000    0.0000    0.0000    0.0000  111.2469 
3303.0000   19.1370  -13.5916   13.2900    0.0001    1.0000    0.0001    0.9726    0.0271    0.0000    0.0000   10.4510   89.5490    0.0000    0.0000    0.0000    0.0000    0.0000    0.0000 -999.0000    0.0000    0.0000    0.0000    0.0000    0.0000  111.2524 
3303.5000   18.7650  -13.5832   11.9090    0.0001    1.0000    0.0001    0.9727    0.0269    0.0000    0.0000   10.4190   89.5810    0.0000    0.0000    0.0000    0.0000    0.0000    0.0000 -999.0000    0.0000    0.0000    0.0000    0.0000    0.0000  111.2579 
3304.0000   17.7980  -13.5779   10.5880    0.0001    1.0000    0.0001    0.9728    0.0269    0.0000    0.0000   10.3870   89.6130    0.0000    0.0000    0.0000    0.0000    0.0000    0.0000 -999.0000    0.0000    0.0000    0.0000    0.0000    0.0000  111.2634 
3304.5000   14.1730  -13.5815   10.3490    0.0001    1.0000    0.0001    0.9727    0.0269    0.0000    0.0000   10.3545   89.6455    0.0000    0.0000    0.0000    0.0000    0.0000    0.0000 -999.0000    0.0000    0.0000    0.0000    0.0000    0.0000  111.2689 
3305.0000   13.0560  -13.5612   10.3200    0.0001    1.0000    0.0001    0.9731    0.0266    0.0000    0.0000   10.3220   89.6780    0.0000    0.0000    0.0000    0.0000    0.0000    0.0000 -999.0000    0.0000    0.0000    0.0000    0.0000    0.0000  111.2744 
3305.5000   10.4680  -13.5728   10.8570    0.0001    1.0000    0.0001    0.9729    0.0268    0.0000    0.0000   10.2900   89.7100    0.0000    0.0000    0.0000    0.0000    0.0000    0.0000 -999.0000    0.0000    0.0000    0.0000    0.0000    0.0000  111.2799 
3306.0000    9.0640  -13.5854   11.2730    0.0001    1.0000    0.0001    0.9727    0.0270    0.0000    0.0000   10.2580   89.7420    0.0000    0.0000    0.0000    0.0000    0.0000    0.0000 -999.0000    0.0000    0.0000    0.0000    0.0000    0.0000  111.2854 
