~VERSION INFORMATION
 VERS.                 2.0:   CWLS LOG ASCII STANDARD - VERSION 2.0
 WRAP.                  NO:   SINGLE LINE PER DEPTH STEP
 CREA.                 16/2/2017 12:08:22 p. m.
#CREATED USING IP VERSION 4.2.2015.61 BY PANESSOR ON 16/2/2017 12:08:22 p. m.
~WELL INFORMATION
#MNEM.UNIT       DATA                          DESCRIPTION MNEMONIC
#---------      ---------------------------   --------------------------
 STRT    .FT        470.0000                  : START DEPTH
 STOP    .FT        5740.0000                 : STOP DEPTH
 STEP    .FT        0.5000                    : STEP VALUE
 NULL    .      -999.0000                     : NULL VALUE
 DATE    .      16/2/2017                     : LAS file Creation Date
 WELL  .      CRISOL-2      : Well Name
 COMP  .      INTERCOL      : Company
 FLD   .      141-AGUACHICA : Field
 STATE .      MAGDALENA     : State
 COUNT .      COLOMBIA      : Country
 API   .      CRIL0002      : API Number
 UWI   .      100000000372  : Unique Well Identifier (UWI)
 LOC   .                    : Location
 LATI  .      1.0038888889  : Latitude/Northing
 LONG  .      1.0080555556  : Longitude/Easting
 RWS   .      -999          : Def_Rw
 WST   .      -999          : Def_Rwt
 PROV  .                    : Province
 SRVC  .      SCH           : Contractor
~CURVE INFORMATION
#MNEM                UNIT       API CODE     Description
#----------    --------------- ----------  --------------
 DEPTH        .FT                        : 
 RM_IR        .OHMM                      : Resistivity AM 16"
 SPC_IR       .MV                        : Spontaneous Potential
 RD_E_IR      .OHMM                      : Formation Resitivity
 PHIE_IR      .Dec                       : Effective Porosity
 SW_IR        .Dec                       : Water Saturation
 BVW_IR       .Dec                       : Bulk Volume water (Phie x SW)
 VWCL_IR      .Dec                       : Volume wet Clay
 VSILT_IR     .Dec                       : Volume Silt
 CONG_IR      .%                         : Mudlog CONGLOMERATE
 SS_IR        .%                         : Mudlog SANDSTONE
 LS_IR        .%                         : Mudlog LIMESTONE
 MARL_IR      .%                         : Mudlog MARLSTONE
 SLST_IR      .%                         : Mudlog SILSTONE
 SH_IR        .%                         : Mudlog SHALE
 COAL_IR      .%                         : Mudlog  COAL
 IGNEOUS_IR   .%                         : Mudlog IGNEOUS
 ResFlag_IR   .                          : Net Reservoir
 PayFlag_IR   .                          : Net Pay
 PERFS_IR     .B/E                       : Perforations
 Perm_IR      .md                        : Calculated Permeability
 PayFlagRT_IR .                          : Pay Flag Rock Type
 K_PHI_IR     .                          : K/PHI RATIO
 ResFlagRT_IR .                          : Net Reservoir Rock Type
 Rock_Type_IR .microns                   : Pore Throat Size - Rock Types
 Temp_IR      .F                         : Formation Temperature
~P Interactive Petrophysics parameters
#Name        Value                 Description
#----- --------------------------  -----------
#Logging Run 
 RUN  .     1           : Run Number
 DATE .     27/02/1954  : Date                      | RUN[0]
 DFT  .     /           : Type of Fluid in Hole     | RUN[1]
~A  DEPTH   RM_IR     SPC_IR   RD_E_IR   PHIE_IR    SW_IR     BVW_IR   VWCL_IR   VSILT_IR  CONG_IR    SS_IR     LS_IR    MARL_IR   SLST_IR    SH_IR    COAL_IR  IGNEOUS_~ ResFlag_~ PayFlag_~  PERFS_IR  Perm_IR  PayFlagR~  K_PHI_IR ResFlagR~ Rock_Typ~  Temp_IR  
# ...
4329.5000    3.0210  -12.3376    1.9300    0.0001    1.0000    0.0001    0.9942    0.0055    0.0000    0.0000   32.1590    9.7160    0.0000   58.1250    0.0000    0.0000    0.0000    0.0000 -999.0000    0.0000    0.0000    0.0000    0.0000    0.0000  122.5189 
4330.0000    3.0030  -12.3516    1.9710    0.0001    1.0000    0.0001    0.9939    0.0057    0.0000    0.0000   32.1750    9.7000    0.0000   58.1250    0.0000    0.0000    0.0000    0.0000 -999.0000    0.0000    0.0000    0.0000    0.0000    0.0000  122.5244 
4330.5000    3.0050  -12.5086    1.9980    0.0001    1.0000    0.0001    0.9912    0.0084    0.0000    0.0000   32.1905    9.6845    0.0000   58.1250    0.0000    0.0000    0.0000    0.0000 -999.0000    0.0000    0.0000    0.0000    0.0000    0.0000  122.5299 
4331.0000    3.0030  -12.5716    2.0020    0.0001    1.0000    0.0001    0.9901    0.0095    0.0000    0.0000   32.2060    9.6690    0.0000   58.1250    0.0000    0.0000    0.0000    0.0000 -999.0000    0.0000    0.0000    0.0000    0.0000    0.0000  122.5354 
4331.5000    3.0040  -12.7876    2.0370    0.0001    1.0000    0.0001    0.9864    0.0132    0.0000    0.0000   32.2220    9.6530    0.0000   58.1250    0.0000    0.0000    0.0000    0.0000 -999.0000    0.0000    0.0000    0.0000    0.0000    0.0000  122.5409 
4332.0000    3.0050  -12.9316    2.0300    0.0001    1.0000    0.0001    0.9839    0.0157    0.0000    0.0000   32.2380    9.6370    0.0000   58.1250    0.0000    0.0000    0.0000    0.0000 -999.0000    0.0000    0.0000    0.0000    0.0000    0.0000  122.5463 
4332.5000    3.0000  -13.2486    2.0330    0.0001    1.0000    0.0001    0.9785    0.0212    0.0000    0.0000   32.2535    9.6215    0.0000   58.1250    0.0000    0.0000    0.0000    0.0000 -999.0000    0.0000    0.0000    0.0000    0.0000    0.0000  122.5518 
4333.0000    3.0360  -13.6586    2.0310    0.0001    1.0000    0.0001    0.9714    0.0282    0.0000    0.0000   32.2690    9.6060    0.0000   58.1250    0.0000    0.0000    0.0000    0.0000 -999.0000    0.0000    0.0000    0.0000    0.0000    0.0000  122.5573 
4333.5000    3.0310  -13.6346    2.0340    0.0001    1.0000    0.0001    0.9718    0.0278    0.0000    0.0000   32.2850    9.5900    0.0000   58.1250    0.0000    0.0000    0.0000    0.0000 -999.0000    0.0000    0.0000    0.0000    0.0000    0.0000  122.5628 
4334.0000    3.1140  -13.3916    2.0080    0.0001    1.0000    0.0001    0.9760    0.0237    0.0000    0.0000   32.3010    9.5740    0.0000   58.1250    0.0000    0.0000    0.0000    0.0000 -999.0000    0.0000    0.0000    0.0000    0.0000    0.0000  122.5683 
4334.5000    3.1990  -13.1146    1.9670    0.0001    1.0000    0.0001    0.9808    0.0189    0.0000    0.0000   32.3165    9.5585    0.0000   58.1250    0.0000    0.0000    0.0000    0.0000 -999.0000    0.0000    0.0000    0.0000    0.0000    0.0000  122.5738 
4335.0000    3.2990  -12.9746    1.9590    0.0001    1.0000    0.0001    0.9832    0.0165    0.0000    0.0000   32.3320    9.5430    0.0000   58.1250    0.0000    0.0000    0.0000    0.0000 -999.0000    0.0000    0.0000    0.0000    0.0000    0.0000  122.5793 
4335.5000    3.3370  -12.7066    1.9670    0.0001    1.0000    0.0001    0.9878    0.0118    0.0000    0.0000   32.3480    9.5270    0.0000   58.1250    0.0000    0.0000    0.0000    0.0000 -999.0000    0.0000    0.0000    0.0000    0.0000    0.0000  122.5848 
4336.0000    3.4430  -12.5026    2.0010    0.0001    1.0000    0.0001    0.9913    0.0083    0.0000    0.0000   32.3640    9.5110    0.0000   58.1250    0.0000    0.0000    0.0000    0.0000 -999.0000    0.0000    0.0000    0.0000    0.0000    0.0000  122.5902 
4336.5000    3.4850  -12.2346    1.9930    0.0001    1.0000    0.0001    0.9960    0.0037    0.0000    0.0000   32.3800    9.4950    0.0000   58.1250    0.0000    0.0000    0.0000    0.0000 -999.0000    0.0000    0.0000    0.0000    0.0000    0.0000  122.5957 
4337.0000    3.5520  -12.0016    1.9990    0.0001    1.0000    0.0001    1.0000    0.0000    0.0000    0.0000   32.3960    9.4790    0.0000   58.1250    0.0000    0.0000    0.0000    0.0000 -999.0000    0.0000    0.0000    0.0000    0.0000    0.0000  122.6012 
4337.5000    3.5850  -11.8186    2.0010    0.0001    1.0000    0.0001    1.0000    0.0000    0.0000    0.0000   32.4115    9.4635    0.0000   58.1250    0.0000    0.0000    0.0000    0.0000 -999.0000    0.0000    0.0000    0.0000    0.0000    0.0000  122.6067 
4338.0000    3.7750  -11.7176    2.0380    0.0001    1.0000    0.0001    1.0000    0.0000    0.0000    0.0000   32.4270    9.4480    0.0000   58.1250    0.0000    0.0000    0.0000    0.0000 -999.0000    0.0000    0.0000    0.0000    0.0000    0.0000  122.6122 
4338.5000    3.8730  -12.0076    2.0420    0.0001    1.0000    0.0001    0.9999    0.0000    0.0000    0.0000   32.4430    9.4320    0.0000   58.1250    0.0000    0.0000    0.0000    0.0000 -999.0000    0.0000    0.0000    0.0000    0.0000    0.0000  122.6177 
4339.0000    4.1410  -12.3206    2.1630    0.0001    1.0000    0.0001    0.9945    0.0052    0.0000    0.0000   32.4590    9.4160    0.0000   58.1250    0.0000    0.0000    0.0000    0.0000 -999.0000    0.0000    0.0000    0.0000    0.0000    0.0000  122.6232 
4339.5000    4.2190  -12.5356    2.2340    0.0001    1.0000    0.0001    0.9908    0.0089    0.0000    0.0000   32.4745    9.4005    0.0000   58.1250    0.0000    0.0000    0.0000    0.0000 -999.0000    0.0000    0.0000    0.0000    0.0000    0.0000  122.6287 
4340.0000    4.1300  -12.9046    2.3340    0.0001    1.0000    0.0001    0.9844    0.0153    0.0000    0.0000   32.4900    9.3850    0.0000   58.1250    0.0000    0.0000    0.0000    0.0000 -999.0000    0.0000    0.0000    0.0000    0.0000    0.0000  122.6341 
4340.5000    3.8880  -13.2706    2.4270    0.0001    1.0000    0.0001    0.9781    0.0216    0.0000    0.0000   32.5060    9.3690    0.0000   58.1250    0.0000    0.0000    0.0000    0.0000 -999.0000    0.0000    0.0000    0.0000    0.0000    0.0000  122.6396 
4341.0000    3.6940  -13.4906    2.5260    0.0001    1.0000    0.0001    0.9743    0.0254    0.0000    0.0000   32.5220    9.3530    0.0000   58.1250    0.0000    0.0000    0.0000    0.0000 -999.0000    0.0000    0.0000    0.0000    0.0000    0.0000  122.6451 
4341.5000    3.6030  -13.6716    2.6200    0.0001    1.0000    0.0001    0.9712    0.0284    0.0000    0.0000   32.5375    9.3375    0.0000   58.1250    0.0000    0.0000    0.0000    0.0000 -999.0000    0.0000    0.0000    0.0000    0.0000    0.0000  122.6506 
4342.0000    3.6400  -13.8106    2.7120    0.0001    1.0000    0.0001    0.9688    0.0308    0.0000    0.0000   32.5530    9.3220    0.0000   58.1250    0.0000    0.0000    0.0000    0.0000 -999.0000    0.0000    0.0000    0.0000    0.0000    0.0000  122.6561 
4342.5000    3.7090  -13.7946    2.8240    0.0001    1.0000    0.0001    0.9691    0.0305    0.0000    0.0000   32.5690    9.3060    0.0000   58.1250    0.0000    0.0000    0.0000    0.0000 -999.0000    0.0000    0.0000    0.0000    0.0000    0.0000  122.6616 
4343.0000    4.1550  -13.8106    2.9250    0.0001    1.0000    0.0001    0.9688    0.0308    0.0000    0.0000   32.5850    9.2900    0.0000   58.1250    0.0000    0.0000    0.0000    0.0000 -999.0000    0.0000    0.0000    0.0000    0.0000    0.0000  122.6671 
4343.5000    4.5220  -13.7856    3.0330    0.0001    1.0000    0.0001    0.9692    0.0304    0.0000    0.0000   32.6010    9.2740    0.0000   58.1250    0.0000    0.0000    0.0000    0.0000 -999.0000    0.0000    0.0000    0.0000    0.0000    0.0000  122.6726 
4344.0000    4.8380  -13.9436    3.1210    0.0001    1.0000    0.0001    0.9665    0.0330    0.0000    0.0000   32.6170    9.2580    0.0000   58.1250    0.0000    0.0000    0.0000    0.0000 -999.0000    0.0000    0.0000    0.0000    0.0000    0.0000  122.6780 
4344.5000    5.7110  -13.9786    3.2510    0.0002    1.0000    0.0002    0.9659    0.0336    0.0000    0.0000   32.6325    9.2425    0.0000   58.1250    0.0000    0.0000    0.0000    0.0000 -999.0000    0.0000    0.0000    0.0000    0.0000    0.0000  122.6835 
