~VERSION INFORMATION
 VERS.                 2.0:   CWLS LOG ASCII STANDARD - VERSION 2.0
 WRAP.                  NO:   SINGLE LINE PER DEPTH STEP
 CREA.                 03/05/2017 12:05:25
#CREATED USING IP VERSION 4.2.2015.61 BY PANESSOR ON 03/05/2017 12:05:25
~WELL INFORMATION
#MNEM.UNIT       DATA                          DESCRIPTION MNEMONIC
#---------      ---------------------------   --------------------------
 STRT    .FT        500.0000                  : START DEPTH
 STOP    .FT        4532.0000                 : STOP DEPTH
 STEP    .FT        0.5000                    : STEP VALUE
 NULL    .      -999.0000                     : NULL VALUE
 DATE    .      03/05/2017                    : LAS file Creation Date
 WELL  .      CRISOL-1            : Well Name
 COMP  .      INTERCOL            : Company
 FLD   .      WILDCAT             : Field
 STATE .      CESAR               : State
 COUNT .      COLOMBIA            : Country
 API   .      CRIL0001            : API Number
 UWI   .      CRIL0001            : Unique Well Identifier (UWI)
 LOC   .      GAUSS ORIGIN BOGOTA : Location
 LATI  .      1.0147222222        : Latitude/Northing
 LONG  .      1.0086111111        : Longitude/Easting
 RWS   .      -999                : Def_Rw
 WST   .      -999                : Def_Rwt
 PROV  .                          : Province
 SRVC  .      SCH                 : Contractor
~CURVE INFORMATION
#MNEM                 UNIT       API CODE     Description
#----------     --------------- ----------  --------------
 DEPTH         .FT                        : 
 RM_IR         .OHMM                      : Medium Resistivity
 SPC_IR        .MV                        : Spontaneous Potential
 RD_E_IR       .OHMM                      : Formation Deep Resitivity
 PHIE_IR       .Dec                       : Effective Porosity
 SW_IR         .Dec                       : Effective Water Saturation
 BVW_IR        .Dec                       : Bulk Volume water (Phie x SW)
 VWCL_IR       .Dec                       : Volume wet Clay
 VSILT_IR      .Dec                       : Volume Silt
 Perfs_IR      .B/E                       : Photoelectric Factor
 Perm_IR       .md                        : Calculated Permeability
 CGL_IR        .%                         : Mudlog CONGLOMERATE
 SS_IR         .%                         : Mudlog SANDSTONE
 SLS_IR        .%                         : Mudlog SILSTONE
 CLST_IR       .%                         : Mudlog CLAYSTONE
 SH_IR         .%                         : Mudlog Shale
 MARL_IR       .%                         : Mudlog MARLSTONE
 LS_IR         .%                         : Mudlog LIMESTONE
 ResFlag_IR    .                          : Net Reservoir
 PayFlag_IR    .                          : Net Pay
 K_PHI_IR      .                          : K/PHI RATIO
 PayFlagRT_IR  .                          : Pay Flag Rock Type
 ResFlagRT_IR  .                          : Net Reservoir Rock Type
 Rock_Type_IR  .microns                   : Pore Throat Size - Rock Types
 Temp_IR       .F                         : Formation Temperature
 MUD_WEIGHT_IR .PPG                       : MUD_WEIGHT
~P Interactive Petrophysics parameters
#Name        Value                 Description
#----- --------------------------  -----------
#Logging Run 
 RUN  .     1                    : Run Number
 DATE .     24-OCT-1953          : Date                      | RUN[0]
 BLI  .     2565                 : Btm Log Interval          | RUN[1]
 TLI  .     517                  : Top Log Interval          | RUN[1]
 BS   .     8.625                : Bit Size                  | RUN[1]
 DFT  .     /                    : Type of Fluid in Hole     | RUN[1]
 RM   .     5.9                  : Rm                        | RUN[1]
 MST  .     84                   : at Meas Temp              | RUN[1]
 R1   .     SPS LTDA.            : Remark 1                  | RUN[1]
 R2   .     PLUG BACK 3808 FT.   : Remark 2                  | RUN[1]
 R3   .     ABANDONED GAS WELL.  : Remark 3                  | RUN[1]
#Logging Run 
 RUN  .     2                    : Run Number
 DATE .     14-NOV-1953          : Date                      | RUN[1]
 BLI  .     4053                 : Btm Log Interval          | RUN[2]
 TLI  .     3000                 : Top Log Interval          | RUN[2]
 BS   .     9.625                : Bit Size                  | RUN[2]
 RM   .     3.8                  : Rm                        | RUN[2]
 MST  .     87                   : at Meas Temp              | RUN[2]
 R1   .     SPS LTDA.            : Remark 1                  | RUN[2]
 R2   .     PLUG BACK 3808 FT.   : Remark 2                  | RUN[2]
 R3   .     ABANDONED GAS WELL.  : Remark 3                  | RUN[2]
~A  DEPTH   RM_IR     SPC_IR   RD_E_IR   PHIE_IR    SW_IR     BVW_IR   VWCL_IR   VSILT_IR  Perfs_IR  Perm_IR    CGL_IR    SS_IR     SLS_IR   CLST_IR    SH_IR    MARL_IR    LS_IR   ResFlag_~ PayFlag_~  K_PHI_IR PayFlagR~ ResFlagR~ Rock_Typ~  Temp_IR  MUD_WEIG~ 
# ...
1554.0000   16.8830  -32.7858   12.8960    0.0980    1.0000    0.0980    0.4554    0.0000 -999.0000    0.1441   36.4700   10.4500    0.0000    0.0000   53.0800    0.0000    0.0000    0.0000    0.0000    1.4698    0.0000    0.0000    0.2403   94.1865   10.1000 
1554.5000   16.0570  -32.6659   12.1930    0.0975    1.0000    0.0975    0.4584    0.0000 -999.0000    0.1403   36.4900   10.4000    0.0000    0.0000   53.1100    0.0000    0.0000    0.0000    0.0000    1.4393    0.0000    0.0000    0.2377   94.1911   10.1000 
1555.0000   15.4330  -33.2509   11.6920    0.1001    1.0000    0.1001    0.4437    0.0000 -999.0000    0.1595   36.5100   10.3500    0.0000    0.0000   53.1400    0.0000    0.0000    0.0000    0.0000    1.5927    0.0000    0.0000    0.2504   94.1957   10.1000 
1555.5000   14.8700  -33.5199   11.0870    0.1013    1.0000    0.1013    0.4370    0.0000 -999.0000    0.1689   36.5350   10.2950    0.0000    0.0000   53.1700    0.0000    0.0000    0.0000    0.0000    1.6671    0.0000    0.0000    0.2564   94.2002   10.1000 
1556.0000   14.1460  -33.2790   10.2780    0.1003    1.0000    0.1003    0.4430    0.0000 -999.0000    0.1604   36.5600   10.2400    0.0000    0.0000   53.2000    0.0000    0.0000    0.0000    0.0000    1.6003    0.0000    0.0000    0.2511   94.2048   10.1000 
1556.5000   13.2430  -32.3100    9.4760    0.0959    1.0000    0.0959    0.4672    0.0000 -999.0000    0.1296   36.5800   10.1950    0.0000    0.0000   53.2250    0.0000    0.0000    0.0000    0.0000    1.3515    0.0000    0.0000    0.2301   94.2094   10.1000 
1557.0000   12.5950  -31.5101    8.6740    0.0923    1.0000    0.0923    0.4872    0.0000 -999.0000    0.1079   36.6000   10.1500    0.0000    0.0000   53.2500    0.0000    0.0000    0.0000    0.0000    1.1687    0.0000    0.0000    0.2135   94.2139   10.1000 
1557.5000   12.1180  -31.1381    7.4950    0.0906    1.0000    0.0906    0.4965    0.0000 -999.0000    0.0988   36.6550   10.0650    0.0000    0.0000   53.2800    0.0000    0.0000    0.0000    0.0000    1.0901    0.0000    0.0000    0.2060   94.2185   10.1000 
1558.0000   12.0460  -30.8981    6.9530    0.0895    1.0000    0.0895    0.5025    0.0000 -999.0000    0.0933   36.7100    9.9800    0.0000    0.0000   53.3100    0.0000    0.0000    0.0000    0.0000    1.0416    0.0000    0.0000    0.2012   94.2230   10.1000 
1558.5000   11.9010  -30.6582    6.7330    0.0885    1.0000    0.0885    0.5085    0.0000 -999.0000    0.0880   36.4150   10.2450    0.0000    0.0000   53.3400    0.0000    0.0000    0.0000    0.0000    0.9947    0.0000    0.0000    0.1965   94.2276   10.1000 
1559.0000   11.4980  -30.3522    6.6260    0.0871    1.0000    0.0871    0.5162    0.0000 -999.0000    0.0816   36.1200   10.5100    0.0000    0.0000   53.3700    0.0000    0.0000    0.0000    0.0000    0.9371    0.0000    0.0000    0.1905   94.2322   10.1000 
1559.5000   10.8480  -29.3762    6.6290    0.0827    1.0000    0.0827    0.5406    0.0000 -999.0000    0.0637   28.1550   18.4500    0.0000    0.0000   53.3950    0.0000    0.0000    0.0000    0.0000    0.7698    0.0000    0.0000    0.1722   94.2367   10.1000 
1560.0000   10.2890  -26.5213    7.2050    0.0685    1.0000    0.0685    0.6120    0.0000 -999.0000    0.0258   20.1900   26.3900    0.0000    0.0000   53.4200    0.0000    0.0000    0.0000    0.0000    0.3765    0.0000    0.0000    0.1191   94.2413   10.1000 
1560.5000    8.4760  -23.4593    7.7380    0.0348    1.0000    0.0348    0.6885    0.0792 -999.0000    0.0010   19.5600   26.9900    0.0000    0.0000   53.4500    0.0000    0.0000    0.0000    0.0000    0.0288    0.0000    0.0000    0.0317   94.2459   10.1000 
1561.0000    7.8200  -20.6684    8.2250    0.0130    1.0000    0.0130    0.7583    0.1549 -999.0000    0.0000   18.9300   27.5900    0.0000    0.0000   53.4800    0.0000    0.0000    0.0000    0.0000    0.0007    0.0000    0.0000    0.0046   94.2504   10.1000 
1561.5000    7.2620  -18.7274    8.5790    0.0055    1.0000    0.0055    0.8068    0.1567 -999.0000    0.0000   19.0600   27.4350    0.0000    0.0000   53.5050    0.0000    0.0000    0.0000    0.0000    0.0000    0.0000    0.0000    0.0008   94.2550   10.1000 
1562.0000    6.8780  -17.7694    8.9360    0.0034    1.0000    0.0034    0.8308    0.1468 -999.0000    0.0000   19.1900   27.2800    0.0000    0.0000   53.5300    0.0000    0.0000    0.0000    0.0000    0.0000    0.0000    0.0000    0.0003   94.2596   10.1000 
1562.5000    6.5940  -17.3955    9.2990    0.0027    1.0000    0.0027    0.8401    0.1416 -999.0000    0.0000   19.2900   27.1500    0.0000    0.0000   53.5600    0.0000    0.0000    0.0000    0.0000    0.0000    0.0000    0.0000    0.0002   94.2641   10.1000 
1563.0000    6.5580  -17.6265    9.4030    0.0031    1.0000    0.0031    0.8343    0.1449 -999.0000    0.0000   19.3900   27.0200    0.0000    0.0000   53.5900    0.0000    0.0000    0.0000    0.0000    0.0000    0.0000    0.0000    0.0003   94.2687   10.1000 
1563.5000    6.5820  -18.0226    9.3190    0.0038    1.0000    0.0038    0.8244    0.1500 -999.0000    0.0000   19.4900   26.9000    0.0000    0.0000   53.6100    0.0000    0.0000    0.0000    0.0000    0.0000    0.0000    0.0000    0.0004   94.2733   10.1000 
1564.0000    6.6310  -18.4176    9.1650    0.0047    1.0000    0.0047    0.8146    0.1542 -999.0000    0.0000   19.5900   26.7800    0.0000    0.0000   53.6300    0.0000    0.0000    0.0000    0.0000    0.0000    0.0000    0.0000    0.0006   94.2778   10.1000 
1564.5000    6.7460  -18.8606    9.0060    0.0058    1.0000    0.0058    0.8035    0.1576 -999.0000    0.0000   19.6900   26.6800    0.0000    0.0000   53.6300    0.0000    0.0000    0.0000    0.0000    0.0000    0.0000    0.0000    0.0010   94.2824   10.1000 
1565.0000    6.8950  -19.1667    8.7310    0.0067    1.0000    0.0067    0.7958    0.1592 -999.0000    0.0000   19.7900   26.5800    0.0000    0.0000   53.6300    0.0000    0.0000    0.0000    0.0000    0.0001    0.0000    0.0000    0.0013   94.2869   10.1000 
1565.5000    7.2530  -19.6437    8.4980    0.0084    1.0000    0.0084    0.7839    0.1601 -999.0000    0.0000   19.8900   26.4800    0.0000    0.0000   53.6300    0.0000    0.0000    0.0000    0.0000    0.0001    0.0000    0.0000    0.0020   94.2915   10.1000 
1566.0000    7.5930  -20.2078    8.2470    0.0107    1.0000    0.0107    0.7698    0.1585 -999.0000    0.0000   19.9900   26.3800    0.0000    0.0000   53.6300    0.0000    0.0000    0.0000    0.0000    0.0003    0.0000    0.0000    0.0032   94.2961   10.1000 
1566.5000    7.9770  -20.6908    8.0150    0.0131    1.0000    0.0131    0.7577    0.1546 -999.0000    0.0000   20.0900   26.3100    0.0000    0.0000   53.6000    0.0000    0.0000    0.0000    0.0000    0.0007    0.0000    0.0000    0.0047   94.3006   10.1000 
1567.0000    8.3960  -21.3508    7.7230    0.0171    1.0000    0.0171    0.7412    0.1451 -999.0000    0.0000   20.1900   26.2400    0.0000    0.0000   53.5700    0.0000    0.0000    0.0000    0.0000    0.0019    0.0000    0.0000    0.0078   94.3052   10.1000 
1567.5000    8.8150  -22.0309    7.4450    0.0219    1.0000    0.0219    0.7242    0.1298 -999.0000    0.0001   20.2750   26.1550    0.0000    0.0000   53.5700    0.0000    0.0000    0.0000    0.0000    0.0049    0.0000    0.0000    0.0128   94.3098   10.1000 
1568.0000    9.2370  -23.2479    7.0320    0.0327    1.0000    0.0327    0.6938    0.0882 -999.0000    0.0007   20.3600   26.0700    0.0000    0.0000   53.5700    0.0000    0.0000    0.0000    0.0000    0.0227    0.0000    0.0000    0.0280   94.3143   10.1000 
1568.5000    9.6630  -24.4640    6.5830    0.0458    1.0000    0.0458    0.6634    0.0310 -999.0000    0.0037   20.6150   25.8150    0.0000    0.0000   53.5700    0.0000    0.0000    0.0000    0.0000    0.0818    0.0000    0.0000    0.0542   94.3189   10.1000 
1569.0000   10.0880  -25.4380    6.2830    0.0571    1.0000    0.0571    0.6391    0.0000 -999.0000    0.0108   20.8700   25.5600    0.0000    0.0000   53.5700    0.0000    0.0000    0.0000    0.0000    0.1889    0.0000    0.0000    0.0835   94.3235   10.1000 
