~VERSION INFORMATION
 VERS.                 2.0:   CWLS LOG ASCII STANDARD - VERSION 2.0
 WRAP.                  NO:   SINGLE LINE PER DEPTH STEP
 CREA.                 03/05/2017 10:34:44
#CREATED USING IP VERSION 4.2.2015.61 BY PANESSOR ON 03/05/2017 10:34:44
~WELL INFORMATION
#MNEM.UNIT       DATA                          DESCRIPTION MNEMONIC
#---------      ---------------------------   --------------------------
 STRT    .FT        500.0000                  : START DEPTH
 STOP    .FT        5680.0000                 : STOP DEPTH
 STEP    .FT        0.5000                    : STEP VALUE
 NULL    .      -999.0000                     : NULL VALUE
 DATE    .      03/05/2017                    : LAS file Creation Date
 WELL  .      CRISOL-3            : Well Name
 COMP  .      INTERCOL            : Company
 FLD   .      WILDCAT             : Field
 STATE .      MAGDALENA           : State
 COUNT .      COLOMBIA            : Country
 API   .      CRIL0003            : API Number
 UWI   .      100000000377        : Unique Well Identifier (UWI)
 LOC   .      GAUSS ORIGIN BOGOTA : Location
 LATI  .      1                   : Latitude/Northing
 LONG  .      1                   : Longitude/Easting
 RWS   .      -999                : Def_Rw
 WST   .      -999                : Def_Rwt
 CNTY  .      N/A                 : County
 PROV  .                          : Province
 SRVC  .      SCH                 : Contractor
~CURVE INFORMATION
#MNEM                UNIT       API CODE     Description
#----------    --------------- ----------  --------------
 DEPTH        .FT                        : 
 RM_IR        .OHMM                      : Medium Resistivity
 RD_IR        .OHMM                      : Formation Deep Resitivity
 LAT_E_IR     .OHMM                      : Lateral AO18'8"
 SPC_IR       .MV                        : Spontaneous Potential
 PHIE_IR      .Dec                       : Effective Porosity
 SW_IR        .Dec                       : Effective Water Saturation
 BVW_IR       .Dec                       : Bulk Volume water (Phie x SW)
 VWCL_IR      .Dec                       : Volume wet Clay
 VSILT_IR     .Dec                       : Volume Silt
 SLST_IR      .%                         : Mudlog SILSTONE
 SS_IR        .%                         : Mudlog SANDSTONE
 CONG_IR      .%                         : Mudlog CONGLOMERATE
 MARL_IR      .%                         : Mudlog MARLSTONE
 ResFlag_IR   .                          : Net Reservoir
 IGNEOUS_IR   .us/ft                     : Mudlog IGNEOUS
 LS_IR        .us/ft                     : Mudlog LIMESTONE
 SH_IR        .%                         : Mudlog SHALE
 PayFlag_IR   .                          : Net Pay
 Perm_IR      .md                        : Calculated Permeability
 PayFlagRT_IR .                          : Pay Flag Rock Type
 ResFlagRT_IR .                          : Net Reservoir Rock Type
 K_PHI_IR     .                          : K/PHI RATIO
 Rock_Type_IR .microns                   : Pore Throat Size - Rock Types
 Temp_IR      .F                         : Formation Temperature
~P Interactive Petrophysics parameters
#Name        Value                 Description
#----- --------------------------  -----------
#Logging Run 
 RUN  .     1           : Run Number
 DATE .     23/04/1954  : Date                      | RUN[0]
 DFT  .     /           : Type of Fluid in Hole     | RUN[1]
~A  DEPTH   RM_IR     RD_IR    LAT_E_IR   SPC_IR   PHIE_IR    SW_IR     BVW_IR   VWCL_IR   VSILT_IR  SLST_IR    SS_IR    CONG_IR   MARL_IR  ResFlag_~ IGNEOUS_~   LS_IR     SH_IR   PayFlag_~  Perm_IR  PayFlagR~ ResFlagR~  K_PHI_IR Rock_Typ~  Temp_IR  
# ...
2548.0000   13.0620   14.4000   21.9190  -22.8493 -999.0000 -999.0000 -999.0000 -999.0000 -999.0000    0.0000   10.6590    0.0000    0.0000    0.0000    0.0000    0.0000   89.3410    0.0000    0.0000    0.0000    0.0000 -999.0000 -999.0000  101.6593 
2548.5000   12.9890   14.1480   22.2760  -23.5125 -999.0000 -999.0000 -999.0000 -999.0000 -999.0000    0.0000   10.6970    0.0000    0.0000    0.0000    0.0000    0.0000   89.3030    0.0000    0.0000    0.0000    0.0000 -999.0000 -999.0000  101.6646 
2549.0000   12.8800   13.7690   23.7180  -23.9926 -999.0000 -999.0000 -999.0000 -999.0000 -999.0000    0.0000   10.7350    0.0000    0.0000    0.0000    0.0000    0.0000   89.2650    0.0000    0.0000    0.0000    0.0000 -999.0000 -999.0000  101.6698 
2549.5000   12.6630   13.3760   24.7980  -24.1796 -999.0000 -999.0000 -999.0000 -999.0000 -999.0000    0.0000   12.3665    0.0000    0.0000    0.0000    0.0000    0.0000   87.6335    0.0000    0.0000    0.0000    0.0000 -999.0000 -999.0000  101.6750 
2550.0000   12.3040   13.0230   25.4880  -24.2887 -999.0000 -999.0000 -999.0000 -999.0000 -999.0000    0.0000   13.9980    0.0000    0.0000    0.0000    0.0000    0.0000   86.0020    0.0000    0.0000    0.0000    0.0000 -999.0000 -999.0000  101.6803 
2550.5000   11.8860   12.5780   26.9330  -24.4661 -999.0000 -999.0000 -999.0000 -999.0000 -999.0000    0.0000   20.1033    0.0000    0.0000    0.0000    0.0000    0.0000   79.8967    0.0000    0.0000    0.0000    0.0000 -999.0000 -999.0000  101.6855 
2551.0000   11.4690   12.1250   27.6870  -24.6563 -999.0000 -999.0000 -999.0000 -999.0000 -999.0000    0.0000   26.2087    0.0000    0.0000    0.0000    0.0000    0.0000   73.7913    0.0000    0.0000    0.0000    0.0000 -999.0000 -999.0000  101.6907 
2551.5000   11.0520   11.7400   28.0580  -25.2290 -999.0000 -999.0000 -999.0000 -999.0000 -999.0000    0.0000   26.1945    0.0000    0.0000    0.0000    0.0000    0.0000   73.8055    0.0000    0.0000    0.0000    0.0000 -999.0000 -999.0000  101.6960 
2552.0000   10.6340   11.3480   28.0600  -25.4991 -999.0000 -999.0000 -999.0000 -999.0000 -999.0000    0.0000   26.1804    0.0000    0.0000    0.0000    0.0000    0.0000   73.8196    0.0000    0.0000    0.0000    0.0000 -999.0000 -999.0000  101.7012 
2552.5000   10.2170   10.9970   27.7310  -25.9645 -999.0000 -999.0000 -999.0000 -999.0000 -999.0000    0.0000   26.1663    0.0000    0.0000    0.0000    0.0000    0.0000   73.8338    0.0000    0.0000    0.0000    0.0000 -999.0000 -999.0000  101.7064 
2553.0000    9.7280   10.6720   26.9730  -24.7125 -999.0000 -999.0000 -999.0000 -999.0000 -999.0000    0.0000   26.1521    0.0000    0.0000    0.0000    0.0000    0.0000   73.8479    0.0000    0.0000    0.0000    0.0000 -999.0000 -999.0000  101.7117 
2553.5000    9.2570   10.5490   26.2450  -23.1721 -999.0000 -999.0000 -999.0000 -999.0000 -999.0000    0.0000   26.1380    0.0000    0.0000    0.0000    0.0000    0.0000   73.8620    0.0000    0.0000    0.0000    0.0000 -999.0000 -999.0000  101.7169 
2554.0000    8.8950   10.5320   24.4520  -21.2290 -999.0000 -999.0000 -999.0000 -999.0000 -999.0000    0.0000   26.1238    0.0000    0.0000    0.0000    0.0000    0.0000   73.8762    0.0000    0.0000    0.0000    0.0000 -999.0000 -999.0000  101.7221 
2554.5000    8.4240   10.4630   23.3840  -20.2470 -999.0000 -999.0000 -999.0000 -999.0000 -999.0000    0.0000   26.1097    0.0000    0.0000    0.0000    0.0000    0.0000   73.8903    0.0000    0.0000    0.0000    0.0000 -999.0000 -999.0000  101.7273 
2555.0000    8.2510   10.1520   22.3030  -19.8914 -999.0000 -999.0000 -999.0000 -999.0000 -999.0000    0.0000   26.0956    0.0000    0.0000    0.0000    0.0000    0.0000   73.9044    0.0000    0.0000    0.0000    0.0000 -999.0000 -999.0000  101.7326 
2555.5000    8.0980    9.8220   21.5710  -19.7020 -999.0000 -999.0000 -999.0000 -999.0000 -999.0000    0.0000   26.0815    0.0000    0.0000    0.0000    0.0000    0.0000   73.9185    0.0000    0.0000    0.0000    0.0000 -999.0000 -999.0000  101.7378 
2556.0000    7.9460    9.4820   20.8370  -19.1053 -999.0000 -999.0000 -999.0000 -999.0000 -999.0000    0.0000   26.0673    0.0000    0.0000    0.0000    0.0000    0.0000   73.9327    0.0000    0.0000    0.0000    0.0000 -999.0000 -999.0000  101.7430 
2556.5000    7.7940    9.1950   20.1120  -18.8064 -999.0000 -999.0000 -999.0000 -999.0000 -999.0000    0.0000   26.0532    0.0000    0.0000    0.0000    0.0000    0.0000   73.9469    0.0000    0.0000    0.0000    0.0000 -999.0000 -999.0000  101.7483 
2557.0000    7.6420    8.8770   19.5920  -18.7923 -999.0000 -999.0000 -999.0000 -999.0000 -999.0000    0.0000   26.0390    0.0000    0.0000    0.0000    0.0000    0.0000   73.9610    0.0000    0.0000    0.0000    0.0000 -999.0000 -999.0000  101.7535 
2557.5000    7.4900    8.5650   19.3130  -18.9904 -999.0000 -999.0000 -999.0000 -999.0000 -999.0000    0.0000   26.0248    0.0000    0.0000    0.0000    0.0000    0.0000   73.9752    0.0000    0.0000    0.0000    0.0000 -999.0000 -999.0000  101.7587 
2558.0000    7.1560    8.2380   19.3930  -19.3868 -999.0000 -999.0000 -999.0000 -999.0000 -999.0000    0.0000   26.0107    0.0000    0.0000    0.0000    0.0000    0.0000   73.9893    0.0000    0.0000    0.0000    0.0000 -999.0000 -999.0000  101.7640 
2558.5000    6.9020    8.0460   19.3370  -19.1290 -999.0000 -999.0000 -999.0000 -999.0000 -999.0000    0.0000   25.9966    0.0000    0.0000    0.0000    0.0000    0.0000   74.0034    0.0000    0.0000    0.0000    0.0000 -999.0000 -999.0000  101.7692 
2559.0000    6.6120    7.9790   18.8880  -18.3791 -999.0000 -999.0000 -999.0000 -999.0000 -999.0000    0.0000   25.9825    0.0000    0.0000    0.0000    0.0000    0.0000   74.0175    0.0000    0.0000    0.0000    0.0000 -999.0000 -999.0000  101.7744 
2559.5000    6.2150    7.9790   18.2100  -17.9976 -999.0000 -999.0000 -999.0000 -999.0000 -999.0000    0.0000   25.9683    0.0000    0.0000    0.0000    0.0000    0.0000   74.0316    0.0000    0.0000    0.0000    0.0000 -999.0000 -999.0000  101.7797 
2560.0000    5.9940    8.0110   17.0300  -17.5299 -999.0000 -999.0000 -999.0000 -999.0000 -999.0000    0.0000   25.9542    0.0000    0.0000    0.0000    0.0000    0.0000   74.0458    0.0000    0.0000    0.0000    0.0000 -999.0000 -999.0000  101.7849 
2560.5000    5.7740    8.0810   15.9020  -15.8063 -999.0000 -999.0000 -999.0000 -999.0000 -999.0000    0.0000   31.9339    0.0000    0.0000    0.0000    0.0000    0.0000   68.0661    0.0000    0.0000    0.0000    0.0000 -999.0000 -999.0000  101.7901 
2561.0000    5.5980    8.1170   15.3560  -14.9043 -999.0000 -999.0000 -999.0000 -999.0000 -999.0000    0.0000   37.9135    0.0000    0.0000    0.0000    0.0000    0.0000   62.0865    0.0000    0.0000    0.0000    0.0000 -999.0000 -999.0000  101.7953 
2561.5000    5.5980    8.1100   14.6230  -14.3544 -999.0000 -999.0000 -999.0000 -999.0000 -999.0000    0.0000   37.9277    0.0000    0.0000    0.0000    0.0000    0.0000   62.0723    0.0000    0.0000    0.0000    0.0000 -999.0000 -999.0000  101.8006 
2562.0000    5.6880    8.0060   14.4560  -13.9293 -999.0000 -999.0000 -999.0000 -999.0000 -999.0000    0.0000   37.9418    0.0000    0.0000    0.0000    0.0000    0.0000   62.0582    0.0000    0.0000    0.0000    0.0000 -999.0000 -999.0000  101.8058 
2562.5000    5.7790    7.8700   14.4010  -13.7378 -999.0000 -999.0000 -999.0000 -999.0000 -999.0000    0.0000   37.9559    0.0000    0.0000    0.0000    0.0000    0.0000   62.0441    0.0000    0.0000    0.0000    0.0000 -999.0000 -999.0000  101.8111 
2563.0000    5.8700    7.7930   14.4020  -13.7084 -999.0000 -999.0000 -999.0000 -999.0000 -999.0000    0.0000   37.9700    0.0000    0.0000    0.0000    0.0000    0.0000   62.0300    0.0000    0.0000    0.0000    0.0000 -999.0000 -999.0000  101.8163 
2563.5000    5.9600    7.6900   14.4820  -13.3686 -999.0000 -999.0000 -999.0000 -999.0000 -999.0000    0.0000   37.9841    0.0000    0.0000    0.0000    0.0000    0.0000   62.0159    0.0000    0.0000    0.0000    0.0000 -999.0000 -999.0000  101.8215 
