~VERSION INFORMATION
 VERS.                 2.0:   CWLS LOG ASCII STANDARD - VERSION 2.0
 WRAP.                  NO:   SINGLE LINE PER DEPTH STEP
 CREA.                 16/2/2017 12:08:22 p. m.
#CREATED USING IP VERSION 4.2.2015.61 BY PANESSOR ON 16/2/2017 12:08:22 p. m.
~WELL INFORMATION
#MNEM.UNIT       DATA                          DESCRIPTION MNEMONIC
#---------      ---------------------------   --------------------------
 STRT    .FT        470.0000                  : START DEPTH
 STOP    .FT        5740.0000                 : STOP DEPTH
 STEP    .FT        0.5000                    : STEP VALUE
 NULL    .      -999.0000                     : NULL VALUE
 DATE    .      16/2/2017                     : LAS file Creation Date
 WELL  .      CRISOL-2      : Well Name
 COMP  .      INTERCOL      : Company
 FLD   .      141-AGUACHICA : Field
 STATE .      MAGDALENA     : State
 COUNT .      COLOMBIA      : Country
 API   .      CRIL0002      : API Number
 UWI   .      100000000372  : Unique Well Identifier (UWI)
 LOC   .                    : Location
 LATI  .      1.0038888889  : Latitude/Northing
 LONG  .      1.0080555556  : Longitude/Easting
 RWS   .      -999          : Def_Rw
 WST   .      -999          : Def_Rwt
 PROV  .                    : Province
 SRVC  .      SCH           : Contractor
~CURVE INFORMATION
#MNEM                UNIT       API CODE     Description
#----------    --------------- ----------  --------------
 DEPTH        .FT                        : 
 RM_IR        .OHMM                      : Resistivity AM 16"
 SPC_IR       .MV                        : Spontaneous Potential
 RD_E_IR      .OHMM                      : Formation Resitivity
 PHIE_IR      .Dec                       : Effective Porosity
 SW_IR        .Dec                       : Water Saturation
 BVW_IR       .Dec                       : Bulk Volume water (Phie x SW)
 VWCL_IR      .Dec                       : Volume wet Clay
 VSILT_IR     .Dec                       : Volume Silt
 CONG_IR      .%                         : Mudlog CONGLOMERATE
 SS_IR        .%                         : Mudlog SANDSTONE
 LS_IR        .%                         : Mudlog LIMESTONE
 MARL_IR      .%                         : Mudlog MARLSTONE
 SLST_IR      .%                         : Mudlog SILSTONE
 SH_IR        .%                         : Mudlog SHALE
 COAL_IR      .%                         : Mudlog  COAL
 IGNEOUS_IR   .%                         : Mudlog IGNEOUS
 ResFlag_IR   .                          : Net Reservoir
 PayFlag_IR   .                          : Net Pay
 PERFS_IR     .B/E                       : Perforations
 Perm_IR      .md                        : Calculated Permeability
 PayFlagRT_IR .                          : Pay Flag Rock Type
 K_PHI_IR     .                          : K/PHI RATIO
 ResFlagRT_IR .                          : Net Reservoir Rock Type
 Rock_Type_IR .microns                   : Pore Throat Size - Rock Types
 Temp_IR      .F                         : Formation Temperature
~P Interactive Petrophysics parameters
#Name        Value                 Description
#----- --------------------------  -----------
#Logging Run 
 RUN  .     1           : Run Number
 DATE .     27/02/1954  : Date                      | RUN[0]
 DFT  .     /           : Type of Fluid in Hole     | RUN[1]
~A  DEPTH   RM_IR     SPC_IR   RD_E_IR   PHIE_IR    SW_IR     BVW_IR   VWCL_IR   VSILT_IR  CONG_IR    SS_IR     LS_IR    MARL_IR   SLST_IR    SH_IR    COAL_IR  IGNEOUS_~ ResFlag_~ PayFlag_~  PERFS_IR  Perm_IR  PayFlagR~  K_PHI_IR ResFlagR~ Rock_Typ~  Temp_IR  
# ...
3632.0000   96.1860  -26.7868  161.3310    0.0402    1.0000    0.0402    0.7451    0.1210    0.0000    0.0000   41.4010   58.5990    0.0000    0.0000    0.0000    0.0000    0.0000    0.0000 -999.0000    0.0020    0.0000    0.0497    0.0000    0.0259  114.8634 
3632.5000   89.3520  -25.5117  153.4170    0.0282    1.0000    0.0282    0.7670    0.1391    0.0000    0.0000   41.4075   58.5925    0.0000    0.0000    0.0000    0.0000    0.0000    0.0000 -999.0000    0.0004    0.0000    0.0128    0.0000    0.0119  114.8689 
3633.0000   83.2490  -24.0507  148.0220    0.0180    1.0000    0.0180    0.7922    0.1477    0.0000    0.0000   41.4140   58.5860    0.0000    0.0000    0.0000    0.0000    0.0000    0.0000 -999.0000    0.0000    0.0000    0.0024    0.0000    0.0045  114.8744 
3633.5000   80.0350  -22.2206  143.3600    0.0097    1.0000    0.0097    0.8238    0.1438    0.0000    0.0000   41.4205   58.5795    0.0000    0.0000    0.0000    0.0000    0.0000    0.0000 -999.0000    0.0000    0.0000    0.0002    0.0000    0.0012  114.8799 
3634.0000   76.4640  -20.1086  139.3880    0.0044    1.0000    0.0044    0.8602    0.1253    0.0000    0.0000   41.4270   58.5730    0.0000    0.0000    0.0000    0.0000    0.0000    0.0000 -999.0000    0.0000    0.0000    0.0000    0.0000    0.0002  114.8854 
3634.5000   73.9700  -18.6395  134.3530    0.0023    1.0000    0.0023    0.8855    0.1067    0.0000    0.0000   41.4330   58.5670    0.0000    0.0000    0.0000    0.0000    0.0000    0.0000 -999.0000    0.0000    0.0000    0.0000    0.0000    0.0001  114.8909 
3635.0000   71.6580  -17.0895  129.6760    0.0011    1.0000    0.0011    0.9122    0.0841    0.0000    0.0000   41.4390   58.5610    0.0000    0.0000    0.0000    0.0000    0.0000    0.0000 -999.0000    0.0000    0.0000    0.0000    0.0000    0.0000  114.8963 
3635.5000   71.8380  -16.9294  124.6400    0.0010    1.0000    0.0010    0.9150    0.0816    0.0000    0.0000   41.4455   58.5545    0.0000    0.0000    0.0000    0.0000    0.0000    0.0000 -999.0000    0.0000    0.0000    0.0000    0.0000    0.0000  114.9018 
3636.0000   71.7630  -16.7803  119.9640    0.0009    1.0000    0.0009    0.9176    0.0793    0.0000    0.0000   41.4520   58.5480    0.0000    0.0000    0.0000    0.0000    0.0000    0.0000 -999.0000    0.0000    0.0000    0.0000    0.0000    0.0000  114.9073 
3636.5000   72.4820  -16.6543  114.5680    0.0009    1.0000    0.0009    0.9198    0.0773    0.0000    0.0000   41.4585   58.5415    0.0000    0.0000    0.0000    0.0000    0.0000    0.0000 -999.0000    0.0000    0.0000    0.0000    0.0000    0.0000  114.9128 
3637.0000   73.2010  -16.6022  109.2660    0.0009    1.0000    0.0009    0.9207    0.0765    0.0000    0.0000   41.4650   58.5350    0.0000    0.0000    0.0000    0.0000    0.0000    0.0000 -999.0000    0.0000    0.0000    0.0000    0.0000    0.0000  114.9183 
3637.5000   73.9210  -16.5052  106.2950    0.0008    1.0000    0.0008    0.9223    0.0750    0.0000    0.0000   41.4710   58.5290    0.0000    0.0000    0.0000    0.0000    0.0000    0.0000 -999.0000    0.0000    0.0000    0.0000    0.0000    0.0000  114.9238 
3638.0000   73.2010  -16.9371  103.7770    0.0010    1.0000    0.0010    0.9149    0.0817    0.0000    0.0000   41.4770   58.5230    0.0000    0.0000    0.0000    0.0000    0.0000    0.0000 -999.0000    0.0000    0.0000    0.0000    0.0000    0.0000  114.9293 
3638.5000   72.4820  -17.1271  102.3380    0.0011    1.0000    0.0011    0.9116    0.0846    0.0000    0.0000   41.4835   58.5165    0.0000    0.0000    0.0000    0.0000    0.0000    0.0000 -999.0000    0.0000    0.0000    0.0000    0.0000    0.0000  114.9348 
3639.0000   70.3240  -17.4840  104.1370    0.0013    1.0000    0.0013    0.9054    0.0901    0.0000    0.0000   41.4900   58.5100    0.0000    0.0000    0.0000    0.0000    0.0000    0.0000 -999.0000    0.0000    0.0000    0.0000    0.0000    0.0000  114.9402 
3639.5000   68.5420  -17.6910  105.3380    0.0015    1.0000    0.0015    0.9019    0.0931    0.0000    0.0000   41.4965   58.5035    0.0000    0.0000    0.0000    0.0000    0.0000    0.0000 -999.0000    0.0000    0.0000    0.0000    0.0000    0.0000  114.9457 
3640.0000   67.8180  -17.9189  106.2950    0.0017    1.0000    0.0017    0.8979    0.0965    0.0000    0.0000   41.5030   58.4970    0.0000    0.0000    0.0000    0.0000    0.0000    0.0000 -999.0000    0.0000    0.0000    0.0000    0.0000    0.0000  114.9512 
3640.5000   66.3760  -18.0479  107.2010    0.0018    1.0000    0.0018    0.8957    0.0984    0.0000    0.0000   41.5090   58.4910    0.0000    0.0000    0.0000    0.0000    0.0000    0.0000 -999.0000    0.0000    0.0000    0.0000    0.0000    0.0000  114.9567 
3641.0000   66.3750  -18.0578  107.7340    0.0018    1.0000    0.0018    0.8956    0.0985    0.0000    0.0000   41.5150   58.4850    0.0000    0.0000    0.0000    0.0000    0.0000    0.0000 -999.0000    0.0000    0.0000    0.0000    0.0000    0.0000  114.9622 
3641.5000   66.0140  -18.0728  107.7340    0.0018    1.0000    0.0018    0.8953    0.0987    0.0000    0.0000   41.5215   58.4785    0.0000    0.0000    0.0000    0.0000    0.0000    0.0000 -999.0000    0.0000    0.0000    0.0000    0.0000    0.0000  114.9677 
3642.0000   65.2970  -18.0157  107.0140    0.0017    1.0000    0.0017    0.8963    0.0979    0.0000    0.0000   41.5280   58.4720    0.0000    0.0000    0.0000    0.0000    0.0000    0.0000 -999.0000    0.0000    0.0000    0.0000    0.0000    0.0000  114.9732 
3642.5000   64.5860  -17.8907  102.3380    0.0016    1.0000    0.0016    0.8984    0.0961    0.0000    0.0000   41.5345   58.4655    0.0000    0.0000    0.0000    0.0000    0.0000    0.0000 -999.0000    0.0000    0.0000    0.0000    0.0000    0.0000  114.9787 
3643.0000   63.8890  -17.7556   96.2230    0.0015    1.0000    0.0015    0.9008    0.0941    0.0000    0.0000   41.5410   58.4590    0.0000    0.0000    0.0000    0.0000    0.0000    0.0000 -999.0000    0.0000    0.0000    0.0000    0.0000    0.0000  114.9841 
3643.5000   63.1290  -17.6826   92.2660    0.0015    1.0000    0.0015    0.9020    0.0930    0.0000    0.0000   41.5475   58.4525    0.0000    0.0000    0.0000    0.0000    0.0000    0.0000 -999.0000    0.0000    0.0000    0.0000    0.0000    0.0000  114.9896 
3644.0000   61.6910  -17.5505   87.9500    0.0014    1.0000    0.0014    0.9043    0.0911    0.0000    0.0000   41.5540   58.4460    0.0000    0.0000    0.0000    0.0000    0.0000    0.0000 -999.0000    0.0000    0.0000    0.0000    0.0000    0.0000  114.9951 
3644.5000   58.0940  -17.4075   83.2730    0.0013    1.0000    0.0013    0.9068    0.0889    0.0000    0.0000   41.5600   58.4400    0.0000    0.0000    0.0000    0.0000    0.0000    0.0000 -999.0000    0.0000    0.0000    0.0000    0.0000    0.0000  115.0006 
3645.0000   55.9350  -17.2484   79.3170    0.0012    1.0000    0.0012    0.9095    0.0865    0.0000    0.0000   41.5660   58.4340    0.0000    0.0000    0.0000    0.0000    0.0000    0.0000 -999.0000    0.0000    0.0000    0.0000    0.0000    0.0000  115.0061 
3645.5000   53.4170  -17.2053   75.3600    0.0012    1.0000    0.0012    0.9103    0.0858    0.0000    0.0000   41.5725   58.4275    0.0000    0.0000    0.0000    0.0000    0.0000    0.0000 -999.0000    0.0000    0.0000    0.0000    0.0000    0.0000  115.0116 
3646.0000   50.5400  -17.3813   71.0430    0.0013    1.0000    0.0013    0.9072    0.0885    0.0000    0.0000   41.5790   58.4210    0.0000    0.0000    0.0000    0.0000    0.0000    0.0000 -999.0000    0.0000    0.0000    0.0000    0.0000    0.0000  115.0171 
3646.5000   49.8200  -17.3832   67.0860    0.0013    1.0000    0.0013    0.9072    0.0885    0.0000    0.0000   41.5855   58.4145    0.0000    0.0000    0.0000    0.0000    0.0000    0.0000 -999.0000    0.0000    0.0000    0.0000    0.0000    0.0000  115.0226 
3647.0000   46.9420  -17.1432   62.0500    0.0011    1.0000    0.0011    0.9113    0.0849    0.0000    0.0000   41.5920   58.4080    0.0000    0.0000    0.0000    0.0000    0.0000    0.0000 -999.0000    0.0000    0.0000    0.0000    0.0000    0.0000  115.0280 
