~VERSION INFORMATION
 VERS.                 2.0:   CWLS LOG ASCII STANDARD - VERSION 2.0
 WRAP.                  NO:   SINGLE LINE PER DEPTH STEP
 CREA.                 03/05/2017 12:05:25
#CREATED USING IP VERSION 4.2.2015.61 BY PANESSOR ON 03/05/2017 12:05:25
~WELL INFORMATION
#MNEM.UNIT       DATA                          DESCRIPTION MNEMONIC
#---------      ---------------------------   --------------------------
 STRT    .FT        500.0000                  : START DEPTH
 STOP    .FT        4532.0000                 : STOP DEPTH
 STEP    .FT        0.5000                    : STEP VALUE
 NULL    .      -999.0000                     : NULL VALUE
 DATE    .      03/05/2017                    : LAS file Creation Date
 WELL  .      CRISOL-1            : Well Name
 COMP  .      INTERCOL            : Company
 FLD   .      WILDCAT             : Field
 STATE .      CESAR               : State
 COUNT .      COLOMBIA            : Country
 API   .      CRIL0001            : API Number
 UWI   .      CRIL0001            : Unique Well Identifier (UWI)
 LOC   .      GAUSS ORIGIN BOGOTA : Location
 LATI  .      1.0147222222        : Latitude/Northing
 LONG  .      1.0086111111        : Longitude/Easting
 RWS   .      -999                : Def_Rw
 WST   .      -999                : Def_Rwt
 PROV  .                          : Province
 SRVC  .      SCH                 : Contractor
~CURVE INFORMATION
#MNEM                 UNIT       API CODE     Description
#----------     --------------- ----------  --------------
 DEPTH         .FT                        : 
 RM_IR         .OHMM                      : Medium Resistivity
 SPC_IR        .MV                        : Spontaneous Potential
 RD_E_IR       .OHMM                      : Formation Deep Resitivity
 PHIE_IR       .Dec                       : Effective Porosity
 SW_IR         .Dec                       : Effective Water Saturation
 BVW_IR        .Dec                       : Bulk Volume water (Phie x SW)
 VWCL_IR       .Dec                       : Volume wet Clay
 VSILT_IR      .Dec                       : Volume Silt
 Perfs_IR      .B/E                       : Photoelectric Factor
 Perm_IR       .md                        : Calculated Permeability
 CGL_IR        .%                         : Mudlog CONGLOMERATE
 SS_IR         .%                         : Mudlog SANDSTONE
 SLS_IR        .%                         : Mudlog SILSTONE
 CLST_IR       .%                         : Mudlog CLAYSTONE
 SH_IR         .%                         : Mudlog Shale
 MARL_IR       .%                         : Mudlog MARLSTONE
 LS_IR         .%                         : Mudlog LIMESTONE
 ResFlag_IR    .                          : Net Reservoir
 PayFlag_IR    .                          : Net Pay
 K_PHI_IR      .                          : K/PHI RATIO
 PayFlagRT_IR  .                          : Pay Flag Rock Type
 ResFlagRT_IR  .                          : Net Reservoir Rock Type
 Rock_Type_IR  .microns                   : Pore Throat Size - Rock Types
 Temp_IR       .F                         : Formation Temperature
 MUD_WEIGHT_IR .PPG                       : MUD_WEIGHT
~P Interactive Petrophysics parameters
#Name        Value                 Description
#----- --------------------------  -----------
#Logging Run 
 RUN  .     1                    : Run Number
 DATE .     24-OCT-1953          : Date                      | RUN[0]
 BLI  .     2565                 : Btm Log Interval          | RUN[1]
 TLI  .     517                  : Top Log Interval          | RUN[1]
 BS   .     8.625                : Bit Size                  | RUN[1]
 DFT  .     /                    : Type of Fluid in Hole     | RUN[1]
 RM   .     5.9                  : Rm                        | RUN[1]
 MST  .     84                   : at Meas Temp              | RUN[1]
 R1   .     SPS LTDA.            : Remark 1                  | RUN[1]
 R2   .     PLUG BACK 3808 FT.   : Remark 2                  | RUN[1]
 R3   .     ABANDONED GAS WELL.  : Remark 3                  | RUN[1]
#Logging Run 
 RUN  .     2                    : Run Number
 DATE .     14-NOV-1953          : Date                      | RUN[1]
 BLI  .     4053                 : Btm Log Interval          | RUN[2]
 TLI  .     3000                 : Top Log Interval          | RUN[2]
 BS   .     9.625                : Bit Size                  | RUN[2]
 RM   .     3.8                  : Rm                        | RUN[2]
 MST  .     87                   : at Meas Temp              | RUN[2]
 R1   .     SPS LTDA.            : Remark 1                  | RUN[2]
 R2   .     PLUG BACK 3808 FT.   : Remark 2                  | RUN[2]
 R3   .     ABANDONED GAS WELL.  : Remark 3                  | RUN[2]
~A  DEPTH   RM_IR     SPC_IR   RD_E_IR   PHIE_IR    SW_IR     BVW_IR   VWCL_IR   VSILT_IR  Perfs_IR  Perm_IR    CGL_IR    SS_IR     SLS_IR   CLST_IR    SH_IR    MARL_IR    LS_IR   ResFlag_~ PayFlag_~  K_PHI_IR PayFlagR~ ResFlagR~ Rock_Typ~  Temp_IR  MUD_WEIG~ 
# ...
1290.5000    8.8210  -14.3423   10.6160    0.0009    1.0000    0.0009    0.8847    0.1089 -999.0000    0.0000   22.9800    0.0000    0.0000    0.0000   77.0200    0.0000    0.0000    0.0000    0.0000    0.0000    0.0000    0.0000    0.0000   91.7810   10.1000 
1291.0000    8.7730  -13.9763   10.9550    0.0007    1.0000    0.0007    0.8974    0.0981 -999.0000    0.0000   22.9800    0.0000    0.0000    0.0000   77.0200    0.0000    0.0000    0.0000    0.0000    0.0000    0.0000    0.0000    0.0000   91.7856   10.1000 
1291.5000    8.7730  -13.6284   11.1810    0.0005    1.0000    0.0005    0.9094    0.0874 -999.0000    0.0000   22.9800    0.0000    0.0000    0.0000   77.0200    0.0000    0.0000    0.0000    0.0000    0.0000    0.0000    0.0000    0.0000   91.7902   10.1000 
1292.0000    8.7970  -13.1494   11.2580    0.0003    1.0000    0.0003    0.9259    0.0722 -999.0000    0.0000   22.9800    0.0000    0.0000    0.0000   77.0200    0.0000    0.0000    0.0000    0.0000    0.0000    0.0000    0.0000    0.0000   91.7947   10.1000 
1292.5000    8.9690  -13.0554   11.2510    0.0003    1.0000    0.0003    0.9291    0.0691 -999.0000    0.0000   22.9800    0.0000    0.0000    0.0000   77.0200    0.0000    0.0000    0.0000    0.0000    0.0000    0.0000    0.0000    0.0000   91.7993   10.1000 
1293.0000    9.3430  -13.6565   11.1150    0.0005    1.0000    0.0005    0.9084    0.0883 -999.0000    0.0000   22.9800    0.0000    0.0000    0.0000   77.0200    0.0000    0.0000    0.0000    0.0000    0.0000    0.0000    0.0000    0.0000   91.8038   10.1000 
1293.5000    9.7680  -14.2575   10.7060    0.0009    1.0000    0.0009    0.8877    0.1065 -999.0000    0.0000   23.0250    0.0000    0.0000    0.0000   76.9750    0.0000    0.0000    0.0000    0.0000    0.0000    0.0000    0.0000    0.0000   91.8084   10.1000 
1294.0000   10.2520  -14.8426    9.8790    0.0015    1.0000    0.0015    0.8675    0.1228 -999.0000    0.0000   23.0700    0.0000    0.0000    0.0000   76.9300    0.0000    0.0000    0.0000    0.0000    0.0000    0.0000    0.0000    0.0001   91.8130   10.1000 
1294.5000   10.7350  -15.5736    9.3180    0.0026    1.0000    0.0026    0.8423    0.1403 -999.0000    0.0000   23.2050    0.0000    0.0000    0.0000   76.7950    0.0000    0.0000    0.0000    0.0000    0.0000    0.0000    0.0000    0.0002   91.8175   10.1000 
1295.0000   11.2190  -16.7976    8.7510    0.0062    1.0000    0.0062    0.8001    0.1584 -999.0000    0.0000   23.3400    0.0000    0.0000    0.0000   76.6600    0.0000    0.0000    0.0000    0.0000    0.0000    0.0000    0.0000    0.0011   91.8221   10.1000 
1295.5000   11.6130  -18.3167    8.3170    0.0154    1.0000    0.0154    0.7477    0.1494 -999.0000    0.0000   23.4750    0.0000    0.0000    0.0000   76.5250    0.0000    0.0000    0.0000    0.0000    0.0013    0.0000    0.0000    0.0064   91.8267   10.1000 
1296.0000   11.8530  -19.7397    8.1880    0.0308    1.0000    0.0308    0.6986    0.0960 -999.0000    0.0006   23.6100    0.0000    0.0000    0.0000   76.3900    0.0000    0.0000    0.0000    0.0000    0.0181    0.0000    0.0000    0.0249   91.8312   10.1000 
1296.5000   11.8290  -20.8648    8.0720    0.0475    1.0000    0.0475    0.6598    0.0236 -999.0000    0.0044   23.7450    0.0000    0.0000    0.0000   76.2550    0.0000    0.0000    0.0000    0.0000    0.0935    0.0000    0.0000    0.0581   91.8358   10.1000 
1297.0000   11.5400  -21.4138    8.0420    0.0563    1.0000    0.0563    0.6409    0.0000 -999.0000    0.0100   23.8800    0.0000    0.0000    0.0000   76.1200    0.0000    0.0000    0.0000    0.0000    0.1784    0.0000    0.0000    0.0811   91.8404   10.1000 
1297.5000   11.1790  -20.0548    8.0250    0.0351    1.0000    0.0351    0.6878    0.0779 -999.0000    0.0010   24.0050    0.0000    0.0000    0.0000   75.9950    0.0000    0.0000    0.0000    0.0000    0.0298    0.0000    0.0000    0.0322   91.8449   10.1000 
1298.0000   10.9150  -18.6239    8.0220    0.0181    1.0000    0.0181    0.7371    0.1419 -999.0000    0.0000   24.1300    0.0000    0.0000    0.0000   75.8700    0.0000    0.0000    0.0000    0.0000    0.0024    0.0000    0.0000    0.0088   91.8495   10.1000 
1298.5000   10.7820  -17.1809    8.0230    0.0080    1.0000    0.0080    0.7869    0.1601 -999.0000    0.0000   24.2300    0.0000    0.0000    0.0000   75.7700    0.0000    0.0000    0.0000    0.0000    0.0001    0.0000    0.0000    0.0018   91.8541   10.1000 
1299.0000   10.6740  -16.8060    8.0430    0.0063    1.0000    0.0063    0.7998    0.1585 -999.0000    0.0000   24.3300    0.0000    0.0000    0.0000   75.6700    0.0000    0.0000    0.0000    0.0000    0.0000    0.0000    0.0000    0.0011   91.8586   10.1000 
1299.5000   10.5290  -17.4300    8.1120    0.0093    1.0000    0.0093    0.7783    0.1599 -999.0000    0.0000   27.2200    0.0000    0.0000    0.0000   72.7800    0.0000    0.0000    0.0000    0.0000    0.0002    0.0000    0.0000    0.0024   91.8632   10.1000 
1300.0000   10.2460  -18.1460    8.1610    0.0141    1.0000    0.0141    0.7536    0.1527 -999.0000    0.0000   30.1100    0.0000    0.0000    0.0000   69.8900    0.0000    0.0000    0.0000    0.0000    0.0009    0.0000    0.0000    0.0054   91.8678   10.1000 
1300.5000    9.9040  -18.2701    8.3680    0.0150    1.0000    0.0150    0.7493    0.1504 -999.0000    0.0000   30.9350    0.0000    0.0000    0.0000   69.0650    0.0000    0.0000    0.0000    0.0000    0.0012    0.0000    0.0000    0.0061   91.8723   10.1000 
1301.0000    9.4950  -17.1791    8.5330    0.0080    1.0000    0.0080    0.7869    0.1601 -999.0000    0.0000   31.7600    0.0000    0.0000    0.0000   68.2400    0.0000    0.0000    0.0000    0.0000    0.0001    0.0000    0.0000    0.0018   91.8769   10.1000 
1301.5000    9.1580  -16.0881    8.6210    0.0038    1.0000    0.0038    0.8245    0.1499 -999.0000    0.0000   31.8100    0.0000    0.0000    0.0000   68.1900    0.0000    0.0000    0.0000    0.0000    0.0000    0.0000    0.0000    0.0004   91.8814   10.1000 
1302.0000    8.6280  -15.1182    8.5320    0.0018    1.0000    0.0018    0.8580    0.1298 -999.0000    0.0000   31.8600    0.0000    0.0000    0.0000   68.1400    0.0000    0.0000    0.0000    0.0000    0.0000    0.0000    0.0000    0.0001   91.8860   10.1000 
1302.5000    8.2310  -14.7982    8.3690    0.0014    1.0000    0.0014    0.8690    0.1216 -999.0000    0.0000   31.8550    0.0000    0.0000    0.0000   68.1450    0.0000    0.0000    0.0000    0.0000    0.0000    0.0000    0.0000    0.0001   91.8906   10.1000 
1303.0000    7.9660  -14.7003    8.3580    0.0013    1.0000    0.0013    0.8724    0.1190 -999.0000    0.0000   31.8500    0.0000    0.0000    0.0000   68.1500    0.0000    0.0000    0.0000    0.0000    0.0000    0.0000    0.0000    0.0001   91.8951   10.1000 
1303.5000    7.7000  -14.8683    8.3860    0.0015    1.0000    0.0015    0.8666    0.1234 -999.0000    0.0000   31.8500    0.0000    0.0000    0.0000   68.1500    0.0000    0.0000    0.0000    0.0000    0.0000    0.0000    0.0000    0.0001   91.8997   10.1000 
1304.0000    7.4350  -15.0363    8.5210    0.0017    1.0000    0.0017    0.8608    0.1277 -999.0000    0.0000   31.8500    0.0000    0.0000    0.0000   68.1500    0.0000    0.0000    0.0000    0.0000    0.0000    0.0000    0.0000    0.0001   91.9043   10.1000 
1304.5000    7.1690  -15.2054    8.6440    0.0020    1.0000    0.0020    0.8550    0.1319 -999.0000    0.0000   31.8500    0.0000    0.0000    0.0000   68.1500    0.0000    0.0000    0.0000    0.0000    0.0000    0.0000    0.0000    0.0001   91.9088   10.1000 
1305.0000    7.0400  -15.3734    8.8060    0.0022    1.0000    0.0022    0.8492    0.1358 -999.0000    0.0000   31.8500    0.0000    0.0000    0.0000   68.1500    0.0000    0.0000    0.0000    0.0000    0.0000    0.0000    0.0000    0.0001   91.9134   10.1000 
1305.5000    7.0400  -15.2145    8.9260    0.0020    1.0000    0.0020    0.8547    0.1321 -999.0000    0.0000   31.8500    0.0000    0.0000    0.0000   68.1500    0.0000    0.0000    0.0000    0.0000    0.0000    0.0000    0.0000    0.0001   91.9180   10.1000 
