~VERSION INFORMATION
 VERS.                 2.0:   CWLS LOG ASCII STANDARD - VERSION 2.0
 WRAP.                  NO:   SINGLE LINE PER DEPTH STEP
 CREA.                 16/2/2017 12:08:22 p. m.
#CREATED USING IP VERSION 4.2.2015.61 BY PANESSOR ON 16/2/2017 12:08:22 p. m.
~WELL INFORMATION
#MNEM.UNIT       DATA                          DESCRIPTION MNEMONIC
#---------      ---------------------------   --------------------------
 STRT    .FT        470.0000                  : START DEPTH
 STOP    .FT        5740.0000                 : STOP DEPTH
 STEP    .FT        0.5000                    : STEP VALUE
 NULL    .      -999.0000                     : NULL VALUE
 DATE    .      16/2/2017                     : LAS file Creation Date
 WELL  .      CRISOL-2      : Well Name
 COMP  .      INTERCOL      : Company
 FLD   .      141-AGUACHICA : Field
 STATE .      MAGDALENA     : State
 COUNT .      COLOMBIA      : Country
 API   .      CRIL0002      : API Number
 UWI   .      100000000372  : Unique Well Identifier (UWI)
 LOC   .                    : Location
 LATI  .      1.0038888889  : Latitude/Northing
 LONG  .      1.0080555556  : Longitude/Easting
 RWS   .      -999          : Def_Rw
 WST   .      -999          : Def_Rwt
 PROV  .                    : Province
 SRVC  .      SCH           : Contractor
~CURVE INFORMATION
#MNEM                UNIT       API CODE     Description
#----------    --------------- ----------  --------------
 DEPTH        .FT                        : 
 RM_IR        .OHMM                      : Resistivity AM 16"
 SPC_IR       .MV                        : Spontaneous Potential
 RD_E_IR      .OHMM                      : Formation Resitivity
 PHIE_IR      .Dec                       : Effective Porosity
 SW_IR        .Dec                       : Water Saturation
 BVW_IR       .Dec                       : Bulk Volume water (Phie x SW)
 VWCL_IR      .Dec                       : Volume wet Clay
 VSILT_IR     .Dec                       : Volume Silt
 CONG_IR      .%                         : Mudlog CONGLOMERATE
 SS_IR        .%                         : Mudlog SANDSTONE
 LS_IR        .%                         : Mudlog LIMESTONE
 MARL_IR      .%                         : Mudlog MARLSTONE
 SLST_IR      .%                         : Mudlog SILSTONE
 SH_IR        .%                         : Mudlog SHALE
 COAL_IR      .%                         : Mudlog  COAL
 IGNEOUS_IR   .%                         : Mudlog IGNEOUS
 ResFlag_IR   .                          : Net Reservoir
 PayFlag_IR   .                          : Net Pay
 PERFS_IR     .B/E                       : Perforations
 Perm_IR      .md                        : Calculated Permeability
 PayFlagRT_IR .                          : Pay Flag Rock Type
 K_PHI_IR     .                          : K/PHI RATIO
 ResFlagRT_IR .                          : Net Reservoir Rock Type
 Rock_Type_IR .microns                   : Pore Throat Size - Rock Types
 Temp_IR      .F                         : Formation Temperature
~P Interactive Petrophysics parameters
#Name        Value                 Description
#----- --------------------------  -----------
#Logging Run 
 RUN  .     1           : Run Number
 DATE .     27/02/1954  : Date                      | RUN[0]
 DFT  .     /           : Type of Fluid in Hole     | RUN[1]
~A  DEPTH   RM_IR     SPC_IR   RD_E_IR   PHIE_IR    SW_IR     BVW_IR   VWCL_IR   VSILT_IR  CONG_IR    SS_IR     LS_IR    MARL_IR   SLST_IR    SH_IR    COAL_IR  IGNEOUS_~ ResFlag_~ PayFlag_~  PERFS_IR  Perm_IR  PayFlagR~  K_PHI_IR ResFlagR~ Rock_Typ~  Temp_IR  
# ...
 501.0000    5.4590  -11.0285    7.6740 -999.0000 -999.0000 -999.0000 -999.0000 -999.0000 -999.0000 -999.0000 -999.0000 -999.0000 -999.0000 -999.0000 -999.0000    0.0000    0.0000    0.0000 -999.0000    0.0000    0.0000 -999.0000    0.0000 -999.0000   80.4988 
 501.5000    5.4840  -10.4455    7.6090 -999.0000 -999.0000 -999.0000 -999.0000 -999.0000 -999.0000 -999.0000 -999.0000 -999.0000 -999.0000 -999.0000 -999.0000    0.0000    0.0000    0.0000 -999.0000    0.0000    0.0000 -999.0000    0.0000 -999.0000   80.5043 
 502.0000    5.5860   -9.8655    7.6020 -999.0000 -999.0000 -999.0000 -999.0000 -999.0000 -999.0000 -999.0000 -999.0000 -999.0000 -999.0000 -999.0000 -999.0000    0.0000    0.0000    0.0000 -999.0000    0.0000    0.0000 -999.0000    0.0000 -999.0000   80.5098 
 502.5000    5.6840   -9.2255    7.5620 -999.0000 -999.0000 -999.0000 -999.0000 -999.0000 -999.0000 -999.0000 -999.0000 -999.0000 -999.0000 -999.0000 -999.0000    0.0000    0.0000    0.0000 -999.0000    0.0000    0.0000 -999.0000    0.0000 -999.0000   80.5152 
 503.0000    5.7730   -8.5905    7.5360 -999.0000 -999.0000 -999.0000 -999.0000 -999.0000 -999.0000 -999.0000 -999.0000 -999.0000 -999.0000 -999.0000 -999.0000    0.0000    0.0000    0.0000 -999.0000    0.0000    0.0000 -999.0000    0.0000 -999.0000   80.5207 
 503.5000    5.8780   -8.1465    7.5320 -999.0000 -999.0000 -999.0000 -999.0000 -999.0000 -999.0000 -999.0000 -999.0000 -999.0000 -999.0000 -999.0000 -999.0000    0.0000    0.0000    0.0000 -999.0000    0.0000    0.0000 -999.0000    0.0000 -999.0000   80.5262 
 504.0000    6.0630   -8.4775    7.6380 -999.0000 -999.0000 -999.0000 -999.0000 -999.0000 -999.0000 -999.0000 -999.0000 -999.0000 -999.0000 -999.0000 -999.0000    0.0000    0.0000    0.0000 -999.0000    0.0000    0.0000 -999.0000    0.0000 -999.0000   80.5317 
 504.5000    6.2690   -9.7315    7.9340 -999.0000 -999.0000 -999.0000 -999.0000 -999.0000 -999.0000 -999.0000 -999.0000 -999.0000 -999.0000 -999.0000 -999.0000    0.0000    0.0000    0.0000 -999.0000    0.0000    0.0000 -999.0000    0.0000 -999.0000   80.5372 
 505.0000    6.4410  -11.0755    8.2340 -999.0000 -999.0000 -999.0000 -999.0000 -999.0000   21.4286   78.5714    0.0000    0.0000    0.0000    0.0000    0.0000    0.0000    0.0000    0.0000 -999.0000    0.0000    0.0000 -999.0000    0.0000 -999.0000   80.5427 
 505.5000    6.6560  -12.8305    8.5200 -999.0000 -999.0000 -999.0000 -999.0000 -999.0000   21.4286   78.5714    0.0000    0.0000    0.0000    0.0000    0.0000    0.0000    0.0000    0.0000 -999.0000    0.0000    0.0000 -999.0000    0.0000 -999.0000   80.5482 
 506.0000    6.8780  -14.0845    8.6760 -999.0000 -999.0000 -999.0000 -999.0000 -999.0000   21.4286   78.5714    0.0000    0.0000    0.0000    0.0000    0.0000    0.0000    0.0000    0.0000 -999.0000    0.0000    0.0000 -999.0000    0.0000 -999.0000   80.5537 
 506.5000    7.0630  -15.2615    8.9330 -999.0000 -999.0000 -999.0000 -999.0000 -999.0000   21.4286   78.5714    0.0000    0.0000    0.0000    0.0000    0.0000    0.0000    0.0000    0.0000 -999.0000    0.0000    0.0000 -999.0000    0.0000 -999.0000   80.5591 
 507.0000    7.3300  -15.4265    9.1540 -999.0000 -999.0000 -999.0000 -999.0000 -999.0000   21.4286   78.5714    0.0000    0.0000    0.0000    0.0000    0.0000    0.0000    0.0000    0.0000 -999.0000    0.0000    0.0000 -999.0000    0.0000 -999.0000   80.5646 
 507.5000    7.4990  -15.8325    9.3770 -999.0000 -999.0000 -999.0000 -999.0000 -999.0000   21.4286   78.5714    0.0000    0.0000    0.0000    0.0000    0.0000    0.0000    0.0000    0.0000 -999.0000    0.0000    0.0000 -999.0000    0.0000 -999.0000   80.5701 
 508.0000    7.6800  -16.0335    9.6210 -999.0000 -999.0000 -999.0000 -999.0000 -999.0000   21.4286   78.5714    0.0000    0.0000    0.0000    0.0000    0.0000    0.0000    0.0000    0.0000 -999.0000    0.0000    0.0000 -999.0000    0.0000 -999.0000   80.5756 
 508.5000    7.8460  -15.9625    9.8420 -999.0000 -999.0000 -999.0000 -999.0000 -999.0000   21.4286   78.5714    0.0000    0.0000    0.0000    0.0000    0.0000    0.0000    0.0000    0.0000 -999.0000    0.0000    0.0000 -999.0000    0.0000 -999.0000   80.5811 
 509.0000    8.0070  -16.3545    9.9900 -999.0000 -999.0000 -999.0000 -999.0000 -999.0000   21.4286   78.5714    0.0000    0.0000    0.0000    0.0000    0.0000    0.0000    0.0000    0.0000 -999.0000    0.0000    0.0000 -999.0000    0.0000 -999.0000   80.5866 
 509.5000    8.1810  -16.9635   10.0020 -999.0000 -999.0000 -999.0000 -999.0000 -999.0000   21.4286   78.5714    0.0000    0.0000    0.0000    0.0000    0.0000    0.0000    0.0000    0.0000 -999.0000    0.0000    0.0000 -999.0000    0.0000 -999.0000   80.5921 
 510.0000    8.3760  -17.5275    9.8120 -999.0000 -999.0000 -999.0000 -999.0000 -999.0000   21.4286   78.5714    0.0000    0.0000    0.0000    0.0000    0.0000    0.0000    0.0000    0.0000 -999.0000    0.0000    0.0000 -999.0000    0.0000 -999.0000   80.5976 
 510.5000    8.6520  -18.1275    9.3930 -999.0000 -999.0000 -999.0000 -999.0000 -999.0000   21.4286   78.5714    0.0000    0.0000    0.0000    0.0000    0.0000    0.0000    0.0000    0.0000 -999.0000    0.0000    0.0000 -999.0000    0.0000 -999.0000   80.6031 
 511.0000    8.9030  -18.6545    8.9910 -999.0000 -999.0000 -999.0000 -999.0000 -999.0000   21.4286   78.5714    0.0000    0.0000    0.0000    0.0000    0.0000    0.0000    0.0000    0.0000 -999.0000    0.0000    0.0000 -999.0000    0.0000 -999.0000   80.6085 
 511.5000    9.0990  -19.3415    8.6290 -999.0000 -999.0000 -999.0000 -999.0000 -999.0000   26.6468   73.3532    0.0000    0.0000    0.0000    0.0000    0.0000    0.0000    0.0000    0.0000 -999.0000    0.0000    0.0000 -999.0000    0.0000 -999.0000   80.6140 
 512.0000    9.0200  -19.0325    8.3090 -999.0000 -999.0000 -999.0000 -999.0000 -999.0000   31.8650   68.1350    0.0000    0.0000    0.0000    0.0000    0.0000    0.0000    0.0000    0.0000 -999.0000    0.0000    0.0000 -999.0000    0.0000 -999.0000   80.6195 
 512.5000    8.7850  -18.8045    8.2150 -999.0000 -999.0000 -999.0000 -999.0000 -999.0000   31.8435   68.1565    0.0000    0.0000    0.0000    0.0000    0.0000    0.0000    0.0000    0.0000 -999.0000    0.0000    0.0000 -999.0000    0.0000 -999.0000   80.6250 
 513.0000    8.3190  -18.2615    8.1660 -999.0000 -999.0000 -999.0000 -999.0000 -999.0000   31.8220   68.1780    0.0000    0.0000    0.0000    0.0000    0.0000    0.0000    0.0000    0.0000 -999.0000    0.0000    0.0000 -999.0000    0.0000 -999.0000   80.6305 
 513.5000    7.7570  -17.6365    8.5180 -999.0000 -999.0000 -999.0000 -999.0000 -999.0000   31.8005   68.1995    0.0000    0.0000    0.0000    0.0000    0.0000    0.0000    0.0000    0.0000 -999.0000    0.0000    0.0000 -999.0000    0.0000 -999.0000   80.6360 
 514.0000    7.3520  -17.0785    9.0060 -999.0000 -999.0000 -999.0000 -999.0000 -999.0000   31.7790   68.2210    0.0000    0.0000    0.0000    0.0000    0.0000    0.0000    0.0000    0.0000 -999.0000    0.0000    0.0000 -999.0000    0.0000 -999.0000   80.6415 
 514.5000    7.2080  -16.3635    9.5360 -999.0000 -999.0000 -999.0000 -999.0000 -999.0000   31.7575   68.2425    0.0000    0.0000    0.0000    0.0000    0.0000    0.0000    0.0000    0.0000 -999.0000    0.0000    0.0000 -999.0000    0.0000 -999.0000   80.6469 
 515.0000    7.0740  -15.7775    9.9680 -999.0000 -999.0000 -999.0000 -999.0000 -999.0000   31.7360   68.2640    0.0000    0.0000    0.0000    0.0000    0.0000    0.0000    0.0000    0.0000 -999.0000    0.0000    0.0000 -999.0000    0.0000 -999.0000   80.6524 
 515.5000    6.8760  -15.6105   10.5930 -999.0000 -999.0000 -999.0000 -999.0000 -999.0000   31.7140   68.2860    0.0000    0.0000    0.0000    0.0000    0.0000    0.0000    0.0000    0.0000 -999.0000    0.0000    0.0000 -999.0000    0.0000 -999.0000   80.6579 
 516.0000    6.6590  -16.0125   11.1150 -999.0000 -999.0000 -999.0000 -999.0000 -999.0000   31.6920   68.3080    0.0000    0.0000    0.0000    0.0000    0.0000    0.0000    0.0000    0.0000 -999.0000    0.0000    0.0000 -999.0000    0.0000 -999.0000   80.6634 
