~Version Information Section
 VERS.      2.0         :CWLS LOG ASCII STANDARD -VERSION 2.0
 WRAP.      No          :SINGLE LINE PER DEPTH STEP
~Well Information Section
#MNEM.UNIT                      VALUE/NAME                 DESCRIPTION
#----.----     ----------------------------------   --------------------
 STRT    .ft           1200.0000                         :Start Depth
 STOP    .ft           6093.0000                         :Stop  Depth
 STEP    .ft              0.5000                         :Step  Depth
 NULL    .             -999.2500                         :Null value
 COMP    .          LEWIS ENERGY COLOMBIA                :Company Name
 WELL    .          La Estancia 1                        :Well Name
 PATH    .          ST1                                  :Path Name
 FLD     .          La Estancia                          :Field Name
 LOC     .          Default Facility                     :Location
 PROV    .          Unused                               :Province
 SRVC    .          BAKER HUGHES INTEQ                   :Service Company Name
 DATE    .          27/05/2015-07                        :05:20 SA Pacific Standard Time: System Date
 UWI     .                                               :Unique Well ID
 TIMEZONE.Hrs            -5.0000                         :Time zone difference from GMT
~Curve Information Section
#MNEM       .UNIT         CURVE DESCRIPTION
#----       .----         -------------------------
 DEPTH      .ft           :1 Depth Hole
 ROP_AVG    .ft/hr        :2 Time Averaged ROP
 GRAX       .API          :3 Gamma Ray - Apparent
 TCDX       .degF         :4 Downhole Temperature
 SRSP_CVSECT.ft           :5 Incremental Vertical Section
 SRSP_NS    .ft           :6 Position North
 SRSP_EW    .ft           :7 Position East
 LAGGAS     .unit         :8 Total Gas - Lagged
 TVD        .ft           :9 Vertical Depth
~Parameter Information Section
#MNEM.UNIT                      VALUE                       DESCRIPTION
#----.----     ----------------------------------   --------------------
~Other Information Section
Disclaimer
Any opinion and / or recommendation expressed orally or written herein, has been prepared
carefully and may be used if the user so elects, however, no representative or warranty is
made by ourselves or our agents as to the correctness or completeness, and no liability is
assumed for any damages resulting from use of the same.  Baker Hughes's liabilities and obligations
shall be governed by Baker Hughes's Standard Terms and Conditions.
Creator
Export
#----------------------------------------------------------------------
#
# Curve name cross reference:  XREF 'LAS Name' 'XTF Short Name' 'XTF Structured Name'
#
XREF DEPTH DEPTH DEPTH
XREF ROP_AVG ROPAVG GENTIME.ROP_AVG
XREF GRAX GRAX GAMMA.GRAX
XREF TCDX TCDX DOWNHOLE.TCDX
XREF SRSP_CVSECT SRSPCVSE SURVEY_STATION.SRSP_CVSECT
XREF SRSP_NS SRSPNS SURVEY_STATION.SRSP_NS
XREF SRSP_EW SRSPEW SURVEY_STATION.SRSP_EW
XREF LAGGAS LAGGAS LAGMUD.LAGGAS
XREF TVD TVD TVD
 
 
 
 
 
 
 

~A  DEPTH   ROP_AVG     GRAX       TCDX   SRSP_CVSECT  SRSP_NS   SRSP_EW     LAGGAS      TVD   
# ...
 4098.0000  103.2000   139.7000  140.1000   322.34761 -154.1737  -283.61543  106.0000 4035.5700
 4098.5000  104.8000   136.0000  141.0000   322.67359 -154.30946  -283.91185  114.0000 4035.9500
 4099.0000  105.0000   140.6000  141.9000   322.99957 -154.44522  -284.20826  118.0000 4036.3400
 4099.5000  105.2000   140.0000  135.1000   323.32554 -154.58098  -284.50467  118.0000 4036.7200
 4100.0000   93.7000   141.4500  131.7500   323.65152 -154.71674  -284.80109  118.0000 4037.1000
 4100.5000   91.8000   142.9000  128.4000   323.9775  -154.8525  -285.0975   129.0000 4037.4800
 4101.0000   89.9000   144.3500  135.1500   324.30348 -154.98826  -285.39391  131.0000 4037.8600
 4101.5000   26.6000   145.8000  141.9000   324.62946 -155.12402  -285.69033  131.0000 4038.2500
 4102.0000   40.2000   136.0000  141.9000   324.95543 -155.25978  -285.98674   82.0000 4038.6300
 4102.5000   41.2500   134.7000  141.9000   325.28141 -155.39554  -286.28315   33.0000 4039.0100
 4103.0000   42.3000   133.4000  141.9000   325.60739 -155.5313  -286.57957   32.0000 4039.3900
 4103.5000   46.1000   140.6000  141.9000   325.93337 -155.66707  -286.87598   32.0000 4039.7700
 4104.0000   50.8000   138.6000  140.1000   326.25935 -155.80283  -287.17239   37.5000 4040.1500
 4104.5000   55.1000   141.9000  138.3000   326.58533 -155.93859  -287.4688    43.0000 4040.5300
 4105.0000   54.5000   139.6000  141.9000   326.9113  -156.07435  -287.76522   43.0000 4040.9100
 4105.5000   70.7000   137.3000  141.9000   327.23728 -156.21011  -288.06163   43.0000 4041.3000
 4106.0000   80.0500   136.7000  141.9000   327.56326 -156.34587  -288.35804   45.0000 4041.6800
 4106.5000   89.4000   138.6000  141.9000   327.88924 -156.48163  -288.65446   47.0000 4042.0600
 4107.0000   87.9000   130.8000  141.9000   328.21522 -156.61739  -288.95087   47.0000 4042.4400
 4107.5000   93.1000   147.1000  141.9000   328.5412  -156.75315  -289.24728   48.5000 4042.8200
 4108.0000   98.3000   154.3000  141.9000   328.86717 -156.88891  -289.5437    50.0000 4043.2000
 4108.5000   99.2500  149.96667  141.9000   329.19315 -157.02467  -289.84011   61.0000 4043.5800
 4109.0000  100.2000  145.63333  141.9000   329.51913 -157.16043  -290.13652   61.0000 4043.9600
 4109.5000   72.0000   141.3000  141.9000   329.84511 -157.2962  -290.43293   62.0000 4044.3400
 4110.0000   41.5000  139.33333  141.9000   330.17109 -157.43196  -290.72935   73.5000 4044.7200
 4110.5000   39.2000  137.36667  141.9000   330.49707 -157.56772  -291.02576   85.0000 4045.1000
 4111.0000   46.9500   135.4000  141.9000   330.82304 -157.70348  -291.32217   85.0000 4045.4800
 4111.5000   54.7000   142.9000  141.9000   331.14902 -157.83924  -291.61859   89.0000 4045.8500
 4112.0000   84.2000   150.4000  141.9000   331.4750  -157.9750  -291.9150    86.0000 4046.2300
 4112.5000   94.93333  143.2000  141.9000   331.80098 -158.11076  -292.21141   86.0000 4046.6100
 4113.0000  105.66667  141.3000  141.9000   332.12696 -158.24652  -292.50783   86.0000 4046.9900
 4113.5000  116.4000   141.2200  141.9000   332.45293 -158.38228  -292.80424   81.0000 4047.3700
 4114.0000  130.1000   141.1400  141.9000   332.77891 -158.51804  -293.10065   80.0000 4047.7500
 4114.5000  143.8000   141.0600  141.9000   333.10489 -158.6538  -293.39707   80.0000 4048.1300
 4115.0000  135.6500   140.9800  141.9000   333.43087 -158.78957  -293.69348   80.0000 4048.5100
 4115.5000  127.5000   140.9000  141.9000   333.75685 -158.92533  -293.98989   76.0000 4048.8800
 4116.0000   98.5000   132.8000  141.9000   334.08283 -159.06109  -294.2863    84.0000 4049.2600
 4116.5000   94.4000   136.7000  141.9000   334.4088  -159.19685  -294.58272   84.0000 4049.6400
 4117.0000   90.3000   146.1500  141.9000   334.73478 -159.33261  -294.87913   84.0000 4050.0200
 4117.5000  102.9000   155.6000  141.9000   335.06076 -159.46837  -295.17554   88.0000 4050.4000
 4118.0000  115.5000   149.7500  141.9000   335.38674 -159.60413  -295.47196   96.0000 4050.7700
 4118.5000  124.7000   143.9000  141.9000   335.71272 -159.73989  -295.76837   96.0000 4051.1500
 4119.0000  133.9000   143.2000  141.9000   336.0387  -159.87565  -296.06478   96.0000 4051.5300
 4119.5000  143.1000  143.86667  141.9000   336.36467 -160.01141  -296.3612   103.0000 4051.9100
 4120.0000  150.13333 144.53333  141.9000   336.69065 -160.14717  -296.65761  103.0000 4052.2800
 4120.5000  157.16667  145.2000  141.9000   337.01663 -160.28293  -296.95402  103.0000 4052.6600
 4121.0000  164.2000   146.4000  141.9000   337.34261 -160.4187  -297.25043  103.0000 4053.0400
 4121.5000  155.8500   147.6000  141.9000   337.66859 -160.55446  -297.54685  120.0000 4053.4200
 4122.0000  147.5000   148.8000  141.9000   337.99457 -160.69022  -297.84326  132.0000 4053.7900
 4122.5000  130.8500   150.0000  141.9000   338.32054 -160.82598  -298.13967  132.0000 4054.1700
 4123.0000  114.2000   152.7000  141.9000   338.64652 -160.96174  -298.43609  138.0000 4054.5400
 4123.5000   88.8000   158.3000  141.9000   338.9725  -161.0975  -298.7325   144.0000 4054.9200
 4124.0000   93.4500   132.9000  141.9000   339.29848 -161.23326  -299.02891  143.0000 4055.3000
 4124.5000   98.1000   357.7500  141.9000   339.62446 -161.36902  -299.32533  143.0000 4055.6700
 4125.0000   96.1000   582.6000  141.9000   339.95043 -161.50478  -299.62174  138.5000 4056.0500
 4125.5000   94.1000   149.1000  141.9000   340.27641 -161.64054  -299.91815  134.0000 4056.4300
 4126.0000   74.0500   111.2000  141.9000   340.60239 -161.7763  -300.21457  139.0000 4056.8000
 4126.5000   54.0000   137.7000  141.9000   340.92837 -161.91207  -300.51098  139.0000 4057.1800
 4127.0000   48.9500   142.7500  141.9000   341.25435 -162.04783  -300.80739  153.5000 4057.5500
 4127.5000   43.9000   147.8000  141.9000   341.58033 -162.18359  -301.1038   168.0000 4057.9300
 4128.0000   63.7000   141.0000  141.9000   341.9063  -162.31935  -301.40022  134.0000 4058.3000
 4128.5000   83.5000   134.2000  141.9000   342.23228 -162.45511  -301.69663  134.0000 4058.6800
 4129.0000   92.7000   135.7500  141.9000   342.55826 -162.59087  -301.99304  119.0000 4059.0500
 4129.5000  101.9000   137.3000  141.9000   342.88424 -162.72663  -302.28946  104.0000 4059.4300
 4130.0000  113.8000   131.0000  141.9000   343.21022 -162.86239  -302.58587  104.0000 4059.8000
 4130.5000  110.9500   124.7000  141.9000   343.5362  -162.99815  -302.88228   94.0000 4060.1800
 4131.0000  108.1000   139.0000  141.9000   343.86217 -163.13391  -303.1787    89.5000 4060.5500
 4131.5000  107.7500   129.5000  141.9000   344.18815 -163.26967  -303.47511   85.0000 4060.9300
 4132.0000  107.4000   131.5000  141.9000   344.51413 -163.40543  -303.77152   85.0000 4061.3000
 4132.5000  107.6500   132.4000  143.2500   344.84011 -163.5412  -304.06793   87.0000 4061.6800
 4133.0000  107.9000   128.4000  144.6000   345.16609 -163.67696  -304.36435   89.0000 4062.0500
 4133.5000  113.6000   136.0000  143.9250   345.49207 -163.81272  -304.66076   89.0000 4062.4200
 4134.0000  119.3000   127.5000  143.2500   345.81804 -163.94848  -304.95717   89.0000 4062.8000
 4134.5000  124.4000   136.7000  142.5750   346.14402 -164.08424  -305.25359   95.0000 4063.1700
 4135.0000  129.5000   141.3000  141.9000   346.4700  -164.2200  -305.5500   104.0000 4063.5400
 4135.5000  133.3500   123.0000  141.9000   346.80929 -164.36184  -305.85837  104.0000 4063.9200
 4136.0000  137.2000   146.5000  141.9000   347.14857 -164.50367  -306.16673  104.0000 4064.2900
 4136.5000  138.6000   146.5000  141.9000   347.48786 -164.64551  -306.4751   104.0000 4064.6600
 4137.0000  140.0000   146.5000  141.9000   347.82714 -164.78735  -306.78347  121.0000 4065.0400
 4137.5000  141.4000   158.3000  141.9000   348.16643 -164.92918  -307.09184  121.0000 4065.4100
 4138.0000  140.6000   145.2000  141.9000   348.50571 -165.07102  -307.4002   121.0000 4065.7800
 4138.5000  139.8000   158.3000  141.9000   348.8450  -165.21286  -307.70857  119.0000 4066.1600
 4139.0000  137.9000   209.2000  141.9000   349.18429 -165.35469  -308.01694  119.0000 4066.5300
