~Version Information Section
 VERS.      2.0         :CWLS LOG ASCII STANDARD -VERSION 2.0
 WRAP.      No          :SINGLE LINE PER DEPTH STEP
~Well Information Section
#MNEM.UNIT                      VALUE/NAME                 DESCRIPTION
#----.----     ----------------------------------   --------------------
 STRT    .ft           1200.0000                         :Start Depth
 STOP    .ft           6093.0000                         :Stop  Depth
 STEP    .ft              0.5000                         :Step  Depth
 NULL    .             -999.2500                         :Null value
 COMP    .          LEWIS ENERGY COLOMBIA                :Company Name
 WELL    .          La Estancia 1                        :Well Name
 PATH    .          ST1                                  :Path Name
 FLD     .          La Estancia                          :Field Name
 LOC     .          Default Facility                     :Location
 PROV    .          Unused                               :Province
 SRVC    .          BAKER HUGHES INTEQ                   :Service Company Name
 DATE    .          27/05/2015-07                        :05:20 SA Pacific Standard Time: System Date
 UWI     .                                               :Unique Well ID
 TIMEZONE.Hrs            -5.0000                         :Time zone difference from GMT
~Curve Information Section
#MNEM       .UNIT         CURVE DESCRIPTION
#----       .----         -------------------------
 DEPTH      .ft           :1 Depth Hole
 ROP_AVG    .ft/hr        :2 Time Averaged ROP
 GRAX       .API          :3 Gamma Ray - Apparent
 TCDX       .degF         :4 Downhole Temperature
 SRSP_CVSECT.ft           :5 Incremental Vertical Section
 SRSP_NS    .ft           :6 Position North
 SRSP_EW    .ft           :7 Position East
 LAGGAS     .unit         :8 Total Gas - Lagged
 TVD        .ft           :9 Vertical Depth
~Parameter Information Section
#MNEM.UNIT                      VALUE                       DESCRIPTION
#----.----     ----------------------------------   --------------------
~Other Information Section
Disclaimer
Any opinion and / or recommendation expressed orally or written herein, has been prepared
carefully and may be used if the user so elects, however, no representative or warranty is
made by ourselves or our agents as to the correctness or completeness, and no liability is
assumed for any damages resulting from use of the same.  Baker Hughes's liabilities and obligations
shall be governed by Baker Hughes's Standard Terms and Conditions.
Creator
Export
#----------------------------------------------------------------------
#
# Curve name cross reference:  XREF 'LAS Name' 'XTF Short Name' 'XTF Structured Name'
#
XREF DEPTH DEPTH DEPTH
XREF ROP_AVG ROPAVG GENTIME.ROP_AVG
XREF GRAX GRAX GAMMA.GRAX
XREF TCDX TCDX DOWNHOLE.TCDX
XREF SRSP_CVSECT SRSPCVSE SURVEY_STATION.SRSP_CVSECT
XREF SRSP_NS SRSPNS SURVEY_STATION.SRSP_NS
XREF SRSP_EW SRSPEW SURVEY_STATION.SRSP_EW
XREF LAGGAS LAGGAS LAGMUD.LAGGAS
XREF TVD TVD TVD
 
 
 
 
 
 
 

~A  DEPTH   ROP_AVG     GRAX       TCDX   SRSP_CVSECT  SRSP_NS   SRSP_EW     LAGGAS      TVD   
# ...
 5677.0000   35.7000    37.6000  141.9000  1784.83938 -764.24188 -1612.94313    0.0000 4409.5200
 5677.5000   42.1000    36.2000  141.9000  1785.33932 -764.45036 -1613.39755    0.0000 4409.5200
 5678.0000   42.6000    39.0000  141.9000  1785.83927 -764.65885 -1613.85198    0.0000 4409.5300
 5678.5000   37.4000    40.3000  141.9000  1786.33922 -764.86734 -1614.30641    0.0000 4409.5300
 5679.0000   33.9000    43.1000  141.9000  1786.83917 -765.07583 -1614.76083    0.0000 4409.5300
 5679.5000   34.2000    38.2000  141.9000  1787.33911 -765.28432 -1615.21526    0.0000 4409.5300
 5680.0000   35.8000    39.0000  141.9000  1787.83906 -765.49281 -1615.66969    0.0000 4409.5400
 5680.5000   37.7000    41.7000  141.9000  1788.33901 -765.7013 -1616.12411    0.0000 4409.5400
 5681.0000   31.6000    34.3000  141.9000  1788.83896 -765.90979 -1616.57854    0.0000 4409.5400
 5681.5000   29.9000    39.7000  141.9000  1789.33891 -766.11828 -1617.03297    0.0000 4409.5500
 5682.0000   41.7000    38.9000  141.9000  1789.83885 -766.32677 -1617.4874     0.0000 4409.5500
 5682.5000   33.1000    38.5000  141.9000  1790.3388  -766.53526 -1617.94182    0.0000 4409.5500
 5683.0000   28.2000    35.2000  141.9000  1790.83875 -766.74375 -1618.39625    0.0000 4409.5500
 5683.5000   30.5000    35.4000  141.9000  1791.3387  -766.95224 -1618.85068    0.0000 4409.5600
 5684.0000   34.2000    42.0000  141.9000  1791.83865 -767.16073 -1619.3051     0.0000 4409.5600
 5684.5000   30.9000    34.3000  141.9000  1792.33859 -767.36922 -1619.75953    0.0000 4409.5600
 5685.0000   29.4000    31.4000  141.9000  1792.83854 -767.57771 -1620.21396    0.0000 4409.5600
 5685.5000   30.8000    31.3000  141.9000  1793.33849 -767.7862 -1620.66839    0.0000 4409.5700
 5686.0000   29.6000    31.3000  141.9000  1793.83844 -767.99469 -1621.12281    0.0000 4409.5700
 5686.5000   29.2000    35.0000  141.9000  1794.33839 -768.20318 -1621.57724    0.0000 4409.5700
 5687.0000   32.3000    36.4000  141.9000  1794.83833 -768.41167 -1622.03167    0.0000 4409.5700
 5687.5000   35.1000    34.4000  141.9000  1795.33828 -768.62016 -1622.48609    0.0000 4409.5800
 5688.0000   31.2000    33.6000  141.9000  1795.83823 -768.82865 -1622.94052    0.0000 4409.5800
 5688.5000   27.4000    35.5000  141.9000  1796.33818 -769.03714 -1623.39495    0.0000 4409.5800
 5689.0000   26.3000    34.4000  141.9000  1796.83813 -769.24563 -1623.84938    0.0000 4409.5800
 5689.5000   26.6000    33.6000  141.9000  1797.33807 -769.45411 -1624.3038     0.0000 4409.5900
 5690.0000   31.6000    35.0000  141.9000  1797.83802 -769.6626 -1624.75823    0.0000 4409.5900
 5690.5000   37.1000    32.9000  141.9000  1798.33797 -769.87109 -1625.21266    0.0000 4409.5900
 5691.0000   38.4000    42.0000  141.9000  1798.83792 -770.07958 -1625.66708    0.0000 4409.5900
 5691.5000   35.7000    35.7000  141.9000  1799.33786 -770.28807 -1626.12151    0.0000 4409.6000
 5692.0000   39.2000    37.4000  141.9000  1799.83781 -770.49656 -1626.57594    0.0000 4409.6000
 5692.5000   28.4000    30.4000  141.9000  1800.33776 -770.70505 -1627.03036    0.0000 4409.6000
 5693.0000   38.3000    43.1000  141.9000  1800.83771 -770.91354 -1627.48479    0.0000 4409.6000
 5693.5000   46.8000    38.3000  141.9000  1801.33766 -771.12203 -1627.93922    0.0000 4409.6100
 5694.0000   42.8000    35.7000  141.9000  1801.8376  -771.33052 -1628.39365    0.0000 4409.6100
 5694.5000   46.5000    37.1000  141.9000  1802.33755 -771.53901 -1628.84807    0.0000 4409.6100
 5695.0000   54.0000    37.8000  141.9000  1802.8375  -771.7475 -1629.3025     0.0000 4409.6100
 5695.5000   44.5000    41.3000  141.9000  1803.33745 -771.95599 -1629.75693    0.0000 4409.6200
 5696.0000   44.2000    40.1000  141.9000  1803.8374  -772.16448 -1630.21135    0.0000 4409.6200
 5696.5000   51.3000    44.2000  141.9000  1804.33734 -772.37297 -1630.66578    0.0000 4409.6200
 5697.0000   54.4000    43.1000  141.9000  1804.83729 -772.58146 -1631.12021    0.0000 4409.6200
 5697.5000   52.0000    42.4000  141.9000  1805.33724 -772.78995 -1631.57464    0.0000 4409.6200
 5698.0000   47.1000    38.9000  141.9000  1805.83719 -772.99844 -1632.02906    1.0000 4409.6300
 5698.5000   51.2000    40.6000  141.9000  1806.33714 -773.20693 -1632.48349    1.0000 4409.6300
 5699.0000   37.0000    41.5000  141.9000  1806.83708 -773.41542 -1632.93792    1.0000 4409.6300
 5699.5000   45.9000    45.2000  141.9000  1807.33703 -773.62391 -1633.39234    7.0000 4409.6300
 5700.0000   48.4000    45.2000  141.9000  1807.83698 -773.8324 -1633.84677    3.0000 4409.6400
 5700.5000   54.6000    45.6000  141.9000  1808.33693 -774.04089 -1634.3012     3.0000 4409.6400
 5701.0000   48.8000    43.5000  141.9000  1808.83688 -774.24938 -1634.75563    3.0000 4409.6400
 5701.5000   39.7000    35.0000  141.9000  1809.33682 -774.45786 -1635.21005    5.0000 4409.6400
 5702.0000   48.8000    36.6000  141.9000  1809.83677 -774.66635 -1635.66448   13.0000 4409.6400
 5702.5000   47.5000    46.6000  141.9000  1810.33672 -774.87484 -1636.11891   13.0000 4409.6500
 5703.0000   48.6000    44.3000  141.9000  1810.83667 -775.08333 -1636.57333   13.0000 4409.6500
 5703.5000   44.5000    38.9000  141.9000  1811.33661 -775.29182 -1637.02776    6.0000 4409.6500
 5704.0000   50.3000    41.9000  141.9000  1811.83656 -775.50031 -1637.48219    0.0000 4409.6500
 5704.5000   45.0000    42.7000  141.9000  1812.33651 -775.7088 -1637.93661    0.0000 4409.6500
 5705.0000   43.3000    44.3000  141.9000  1812.83646 -775.91729 -1638.39104    0.0000 4409.6600
 5705.5000   45.8000    44.5000  141.9000  1813.33641 -776.12578 -1638.84547    0.0000 4409.6600
 5706.0000   44.0000    43.1000  141.9000  1813.83635 -776.33427 -1639.2999     0.0000 4409.6600
 5706.5000   47.1000    45.9000  141.9000  1814.3363  -776.54276 -1639.75432    0.0000 4409.6600
 5707.0000   44.4000    39.4000  141.9000  1814.83625 -776.75125 -1640.20875    0.0000 4409.6700
 5707.5000   46.6000    50.9000  141.9000  1815.3362  -776.95974 -1640.66318    0.0000 4409.6700
 5708.0000   44.1000    45.0000  141.9000  1815.83615 -777.16823 -1641.1176     0.0000 4409.6700
 5708.5000   46.3000    45.2000  141.9000  1816.33609 -777.37672 -1641.57203    0.0000 4409.6700
 5709.0000   42.9000    43.2000  141.9000  1816.83604 -777.58521 -1642.02646    0.0000 4409.6700
 5709.5000   48.2000    41.2000  141.9000  1817.33599 -777.7937 -1642.48089    0.0000 4409.6800
 5710.0000   38.5000    44.2000  141.9000  1817.83594 -778.00219 -1642.93531    0.0000 4409.6800
 5710.5000   44.3000    39.2000  141.9000  1818.33589 -778.21068 -1643.38974    0.0000 4409.6800
 5711.0000   50.5000    40.3000  141.9000  1818.83583 -778.41917 -1643.84417    0.0000 4409.6800
 5711.5000   41.6000    34.4000  141.9000  1819.33578 -778.62766 -1644.29859    0.0000 4409.6800
 5712.0000   43.8000    33.2000  141.9000  1819.83573 -778.83615 -1644.75302    0.0000 4409.6800
 5712.5000   38.5000    30.0000  141.9000  1820.33568 -779.04464 -1645.20745    0.0000 4409.6900
 5713.0000   43.4000    34.3000  141.9000  1820.83563 -779.25313 -1645.66188    0.0000 4409.6900
 5713.5000   45.3000    32.0000  141.9000  1821.33557 -779.46161 -1646.1163   125.0000 4409.6900
 5714.0000   44.1000    35.7000  141.9000  1821.83552 -779.6701 -1646.57073  250.0000 4409.6900
 5714.5000   41.9000    35.9000  141.9000  1822.33547 -779.87859 -1647.02516  375.0000 4409.6900
 5715.0000   41.8000    40.6000  141.9000  1822.83542 -780.08708 -1647.47958  500.0000 4409.7000
 5715.5000   40.2000    45.4000  141.9000  1823.33536 -780.29557 -1647.93401  504.0000 4409.7000
 5716.0000   42.6000    40.8000  141.9000  1823.83531 -780.50406 -1648.38844  508.0000 4409.7000
 5716.5000   39.3000    44.2000  141.9000  1824.33526 -780.71255 -1648.84286  538.0000 4409.7000
 5717.0000   41.0000    40.4000  141.9000  1824.83521 -780.92104 -1649.29729  568.0000 4409.7000
 5717.5000   11.3000    44.5000  141.9000  1825.33516 -781.12953 -1649.75172  596.0000 4409.7100
 5718.0000   28.8000    41.9000  141.9000  1825.8351  -781.33802 -1650.20615  624.0000 4409.7100
