~Version Information Section
 VERS.      2.0         :CWLS LOG ASCII STANDARD -VERSION 2.0
 WRAP.      No          :SINGLE LINE PER DEPTH STEP
~Well Information Section
#MNEM.UNIT                      VALUE/NAME                 DESCRIPTION
#----.----     ----------------------------------   --------------------
 STRT    .ft           1200.0000                         :Start Depth
 STOP    .ft           6093.0000                         :Stop  Depth
 STEP    .ft              0.5000                         :Step  Depth
 NULL    .             -999.2500                         :Null value
 COMP    .          LEWIS ENERGY COLOMBIA                :Company Name
 WELL    .          La Estancia 1                        :Well Name
 PATH    .          ST1                                  :Path Name
 FLD     .          La Estancia                          :Field Name
 LOC     .          Default Facility                     :Location
 PROV    .          Unused                               :Province
 SRVC    .          BAKER HUGHES INTEQ                   :Service Company Name
 DATE    .          27/05/2015-07                        :05:20 SA Pacific Standard Time: System Date
 UWI     .                                               :Unique Well ID
 TIMEZONE.Hrs            -5.0000                         :Time zone difference from GMT
~Curve Information Section
#MNEM       .UNIT         CURVE DESCRIPTION
#----       .----         -------------------------
 DEPTH      .ft           :1 Depth Hole
 ROP_AVG    .ft/hr        :2 Time Averaged ROP
 GRAX       .API          :3 Gamma Ray - Apparent
 TCDX       .degF         :4 Downhole Temperature
 SRSP_CVSECT.ft           :5 Incremental Vertical Section
 SRSP_NS    .ft           :6 Position North
 SRSP_EW    .ft           :7 Position East
 LAGGAS     .unit         :8 Total Gas - Lagged
 TVD        .ft           :9 Vertical Depth
~Parameter Information Section
#MNEM.UNIT                      VALUE                       DESCRIPTION
#----.----     ----------------------------------   --------------------
~Other Information Section
Disclaimer
Any opinion and / or recommendation expressed orally or written herein, has been prepared
carefully and may be used if the user so elects, however, no representative or warranty is
made by ourselves or our agents as to the correctness or completeness, and no liability is
assumed for any damages resulting from use of the same.  Baker Hughes's liabilities and obligations
shall be governed by Baker Hughes's Standard Terms and Conditions.
Creator
Export
#----------------------------------------------------------------------
#
# Curve name cross reference:  XREF 'LAS Name' 'XTF Short Name' 'XTF Structured Name'
#
XREF DEPTH DEPTH DEPTH
XREF ROP_AVG ROPAVG GENTIME.ROP_AVG
XREF GRAX GRAX GAMMA.GRAX
XREF TCDX TCDX DOWNHOLE.TCDX
XREF SRSP_CVSECT SRSPCVSE SURVEY_STATION.SRSP_CVSECT
XREF SRSP_NS SRSPNS SURVEY_STATION.SRSP_NS
XREF SRSP_EW SRSPEW SURVEY_STATION.SRSP_EW
XREF LAGGAS LAGGAS LAGMUD.LAGGAS
XREF TVD TVD TVD
 
 
 
 
 
 
 

~A  DEPTH   ROP_AVG     GRAX       TCDX   SRSP_CVSECT  SRSP_NS   SRSP_EW     LAGGAS      TVD   
# ...
 6009.0000   38.8000    73.3000  144.6000  2116.67143 -903.8867 -1913.97857    0.0000 4411.4400
 6009.5000   30.8000    75.4000  141.9000  2117.17071 -904.12258 -1914.41929    0.0000 4411.4400
 6010.0000   13.4000    76.6000  141.9000  2117.6700  -904.35846 -1914.8600     0.0000 4411.4400
 6010.5000   38.1000    78.6000  142.8000  2118.16929 -904.59434 -1915.30071    0.0000 4411.4400
 6011.0000   73.1000    79.7000  143.7000  2118.66857 -904.83022 -1915.74143    0.0000 4411.4400
 6011.5000   79.7000    80.9000  144.6000  2119.16786 -905.0661 -1916.18214    0.0000 4411.4400
 6012.0000   75.6000    65.6000  144.6000  2119.66714 -905.30198 -1916.62286    0.0000 4411.4400
 6012.5000   71.5000    77.8000  144.6000  2120.16643 -905.53786 -1917.06357    0.0000 4411.4400
 6013.0000   66.1000    81.1000  144.6000  2120.66571 -905.77374 -1917.50429    0.0000 4411.4400
 6013.5000   56.9000    83.9000  141.9000  2121.1650  -906.00962 -1917.9450     0.0000 4411.4500
 6014.0000   43.1000    80.5000  144.6000  2121.66429 -906.24549 -1918.38571    0.0000 4411.4500
 6014.5000   45.2000    81.0000  144.6000  2122.16357 -906.48137 -1918.82643    0.0000 4411.4500
 6015.0000   51.4000    74.2000  144.6000  2122.66286 -906.71725 -1919.26714    0.0000 4411.4500
 6015.5000   54.4000    65.0000  144.6000  2123.16214 -906.95313 -1919.70786    0.0000 4411.4500
 6016.0000   55.4000    73.8000  144.6000  2123.66143 -907.18901 -1920.14857    0.0000 4411.4500
 6016.5000   47.2000    67.1000  144.6000  2124.16071 -907.42489 -1920.58929    0.0000 4411.4500
 6017.0000   45.7000    67.6000  144.6000  2124.6600  -907.66077 -1921.0300     0.0000 4411.4500
 6017.5000   57.7000    63.6000  144.6000  2125.15929 -907.89665 -1921.47071    0.0000 4411.4500
 6018.0000   59.1000    59.3000  144.6000  2125.65857 -908.13253 -1921.91143    0.0000 4411.4500
 6018.5000   63.2000    53.3000  144.6000  2126.15786 -908.36841 -1922.35214    0.0000 4411.4500
 6019.0000   61.7000    39.6000  144.6000  2126.65714 -908.60429 -1922.79286    0.0000 4411.4500
 6019.5000   62.2000    45.9000  144.6000  2127.15643 -908.84016 -1923.23357    0.0000 4411.4500
 6020.0000   58.0000    50.0000  144.6000  2127.65571 -909.07604 -1923.67429    0.0000 4411.4500
 6020.5000   49.5000    45.6000  144.6000  2128.1550  -909.31192 -1924.1150     2.0000 4411.4500
 6021.0000   47.6000    39.2000  144.6000  2128.65429 -909.5478 -1924.55571    6.0000 4411.4500
 6021.5000   46.4000    38.2000  144.6000  2129.15357 -909.78368 -1924.99643   10.0000 4411.4600
 6022.0000   50.2000    37.6500  144.6000  2129.65286 -910.01956 -1925.43714    8.5000 4411.4600
 6022.5000   58.5000    37.1000  144.6000  2130.15214 -910.25544 -1925.87786    7.0000 4411.4600
 6023.0000   61.0000    29.3000  144.6000  2130.65143 -910.49132 -1926.31857    3.5000 4411.4600
 6023.5000   62.6000    33.4000  144.6000  2131.15071 -910.7272 -1926.75929    0.0000 4411.4600
 6024.0000   38.2000    27.6000  144.6000  2131.6500  -910.96308 -1927.2000     0.0000 4411.4600
 6024.5000   35.4000    29.3000  144.6000  2132.14929 -911.19896 -1927.64071    0.0000 4411.4600
 6025.0000   52.4000    33.2000  144.6000  2132.64857 -911.43484 -1928.08143    0.0000 4411.4600
 6025.5000   55.9000    36.5000  143.7000  2133.14786 -911.67071 -1928.52214    0.0000 4411.4600
 6026.0000   56.7000    36.4000  142.8000  2133.64714 -911.90659 -1928.96286    0.0000 4411.4600
 6026.5000   64.1000    39.6000  141.9000  2134.14643 -912.14247 -1929.40357    0.0000 4411.4600
 6027.0000   73.9000    34.3000  144.6000  2134.64571 -912.37835 -1929.84429    0.0000 4411.4600
 6027.5000   76.4000    30.7000  143.2500  2135.1450  -912.61423 -1930.2850     0.0000 4411.4600
 6028.0000   78.5000    42.3000  141.9000  2135.64429 -912.85011 -1930.72571    0.0000 4411.4700
 6028.5000   80.6000    42.7000  144.6000  2136.14357 -913.08599 -1931.16643    0.0000 4411.4700
 6029.0000   75.2000    40.6000  144.6000  2136.64286 -913.32187 -1931.60714    0.0000 4411.4700
 6029.5000   72.7000    45.8000  144.6000  2137.14214 -913.55775 -1932.04786    0.0000 4411.4700
 6030.0000   73.13333   42.6000  144.6000  2137.64143 -913.79363 -1932.48857    0.0000 4411.4700
 6030.5000   73.56667   46.6000  144.6000  2138.14071 -914.02951 -1932.92929    0.0000 4411.4700
 6031.0000   74.0000    53.0000  144.6000  2138.6400  -914.26538 -1933.3700     0.0000 4411.4700
 6031.5000   73.8000    46.3000  144.6000  2139.13929 -914.50126 -1933.81071    0.0000 4411.4700
 6032.0000   69.7000    49.4000  144.6000  2139.63857 -914.73714 -1934.25143    0.0000 4411.4700
 6032.5000   68.7000    52.5000  143.9250  2140.13786 -914.97302 -1934.69214    0.0000 4411.4700
 6033.0000   80.4000    50.5000  143.2500  2140.63714 -915.2089 -1935.13286    0.0000 4411.4700
 6033.5000   81.6000    52.8000  142.5750  2141.13643 -915.44478 -1935.57357    0.0000 4411.4700
 6034.0000   82.8000    56.5000  141.9000  2141.63571 -915.68066 -1936.01429    0.0000 4411.4800
 6034.5000   77.3000    53.3000  141.9000  2142.1350  -915.91654 -1936.4550     0.0000 4411.4800
 6035.0000   79.4000    55.1000  141.9000  2142.63429 -916.15242 -1936.89571    0.0000 4411.4800
 6035.5000   81.2500    58.6000  141.9000  2143.13357 -916.3883 -1937.33643    0.0000 4411.4800
 6036.0000   83.1000    63.2000  141.9000  2143.63286 -916.62418 -1937.77714    0.0000 4411.4800
 6036.5000   80.8000    59.0000  143.2500  2144.13214 -916.86005 -1938.21786    0.0000 4411.4800
 6037.0000   80.2000    56.9000  144.6000  2144.63143 -917.09593 -1938.65857    0.0000 4411.4800
 6037.5000   59.9000    61.8000  144.6000  2145.13071 -917.33181 -1939.09929    0.0000 4411.4800
 6038.0000   60.5000    53.2000  144.6000  2145.6300  -917.56769 -1939.5400     0.0000 4411.4800
 6038.5000   68.1000    55.5000  144.6000  2146.12929 -917.80357 -1939.98071    0.0000 4411.4800
 6039.0000   68.3000    50.9000  144.6000  2146.62857 -918.03945 -1940.42143    0.0000 4411.4800
 6039.5000   70.2000    54.4000  144.6000  2147.12786 -918.27533 -1940.86214    0.0000 4411.4900
 6040.0000   72.1000    48.9000  144.6000  2147.62714 -918.51121 -1941.30286    0.0000 4411.4900
 6040.5000   68.7000    37.1000  144.6000  2148.12643 -918.74709 -1941.74357    0.0000 4411.4900
 6041.0000   65.5000    35.8000  144.6000  2148.62571 -918.98297 -1942.18429    0.0000 4411.4900
 6041.5000   62.3000    37.8000  144.6000  2149.1250  -919.21885 -1942.6250     0.0000 4411.4900
 6042.0000   63.7000    42.6000  144.6000  2149.62429 -919.45473 -1943.06571    0.0000 4411.4900
 6042.5000   61.0000    40.3000  144.6000  2150.12357 -919.6906 -1943.50643    0.0000 4411.4900
 6043.0000   58.6500    47.5000  144.6000  2150.62286 -919.92648 -1943.94714    0.0000 4411.4900
 6043.5000   56.3000    40.1000  144.6000  2151.12214 -920.16236 -1944.38786    0.0000 4411.4900
 6044.0000   59.5000    35.0000  144.6000  2151.62143 -920.39824 -1944.82857    0.0000 4411.4900
 6044.5000   53.7000    35.6000  144.6000  2152.12071 -920.63412 -1945.26929    0.0000 4411.5000
 6045.0000   49.0000    38.2000  144.6000  2152.6200  -920.8700 -1945.7100     0.0000 4411.5000
 6045.5000   41.8000    27.7000  144.6000  -999.2500  -999.2500  -999.2500     0.0000 4411.5000
 6046.0000   44.1000    28.3000  144.6000  -999.2500  -999.2500  -999.2500     0.0000 4411.5000
 6046.5000   54.6000    28.3000  144.6000  -999.2500  -999.2500  -999.2500     0.0000 4411.5000
 6047.0000   53.0000    13.5000  144.6000  -999.2500  -999.2500  -999.2500     0.0000 4411.5000
 6047.5000   52.6000    20.5000  144.6000  -999.2500  -999.2500  -999.2500     0.0000 4411.5000
 6048.0000   55.5000    17.3000  144.6000  -999.2500  -999.2500  -999.2500     0.0000 4411.5000
 6048.5000   53.5000    15.4000  144.6000  -999.2500  -999.2500  -999.2500     0.0000 4411.5000
 6049.0000   55.5000    17.7000  144.6000  -999.2500  -999.2500  -999.2500     0.0000 4411.5100
 6049.5000   60.7000    15.5000  144.6000  -999.2500  -999.2500  -999.2500     0.0000 4411.5100
 6050.0000   59.7000    15.6000  144.6000  -999.2500  -999.2500  -999.2500     0.0000 4411.5100
