~Version Information Section
 VERS.      2.0         :CWLS LOG ASCII STANDARD -VERSION 2.0
 WRAP.      No          :SINGLE LINE PER DEPTH STEP
~Well Information Section
#MNEM.UNIT                      VALUE/NAME                 DESCRIPTION
#----.----     ----------------------------------   --------------------
 STRT    .ft           1200.0000                         :Start Depth
 STOP    .ft           6093.0000                         :Stop  Depth
 STEP    .ft              0.5000                         :Step  Depth
 NULL    .             -999.2500                         :Null value
 COMP    .          LEWIS ENERGY COLOMBIA                :Company Name
 WELL    .          La Estancia 1                        :Well Name
 PATH    .          ST1                                  :Path Name
 FLD     .          La Estancia                          :Field Name
 LOC     .          Default Facility                     :Location
 PROV    .          Unused                               :Province
 SRVC    .          BAKER HUGHES INTEQ                   :Service Company Name
 DATE    .          27/05/2015-07                        :05:20 SA Pacific Standard Time: System Date
 UWI     .                                               :Unique Well ID
 TIMEZONE.Hrs            -5.0000                         :Time zone difference from GMT
~Curve Information Section
#MNEM       .UNIT         CURVE DESCRIPTION
#----       .----         -------------------------
 DEPTH      .ft           :1 Depth Hole
 ROP_AVG    .ft/hr        :2 Time Averaged ROP
 GRAX       .API          :3 Gamma Ray - Apparent
 TCDX       .degF         :4 Downhole Temperature
 SRSP_CVSECT.ft           :5 Incremental Vertical Section
 SRSP_NS    .ft           :6 Position North
 SRSP_EW    .ft           :7 Position East
 LAGGAS     .unit         :8 Total Gas - Lagged
 TVD        .ft           :9 Vertical Depth
~Parameter Information Section
#MNEM.UNIT                      VALUE                       DESCRIPTION
#----.----     ----------------------------------   --------------------
~Other Information Section
Disclaimer
Any opinion and / or recommendation expressed orally or written herein, has been prepared
carefully and may be used if the user so elects, however, no representative or warranty is
made by ourselves or our agents as to the correctness or completeness, and no liability is
assumed for any damages resulting from use of the same.  Baker Hughes's liabilities and obligations
shall be governed by Baker Hughes's Standard Terms and Conditions.
Creator
Export
#----------------------------------------------------------------------
#
# Curve name cross reference:  XREF 'LAS Name' 'XTF Short Name' 'XTF Structured Name'
#
XREF DEPTH DEPTH DEPTH
XREF ROP_AVG ROPAVG GENTIME.ROP_AVG
XREF GRAX GRAX GAMMA.GRAX
XREF TCDX TCDX DOWNHOLE.TCDX
XREF SRSP_CVSECT SRSPCVSE SURVEY_STATION.SRSP_CVSECT
XREF SRSP_NS SRSPNS SURVEY_STATION.SRSP_NS
XREF SRSP_EW SRSPEW SURVEY_STATION.SRSP_EW
XREF LAGGAS LAGGAS LAGMUD.LAGGAS
XREF TVD TVD TVD
 
 
 
 
 
 
 

~A  DEPTH   ROP_AVG     GRAX       TCDX   SRSP_CVSECT  SRSP_NS   SRSP_EW     LAGGAS      TVD   
# ...
 2168.0000  232.3500    51.7000  133.5750    60.42809 -49.55319   -43.34596    0.0000 2163.6400
 2168.5000  236.2250    49.2500  133.8000    60.4416  -49.56734   -43.3542     0.0000 2164.1400
 2169.0000  240.1000    46.8000  133.8000    60.45511 -49.58149   -43.36245    0.0000 2164.6400
 2169.5000  246.5400    46.3000  133.8000    60.46862 -49.59564   -43.37069    0.0000 2165.1400
 2170.0000  252.9800    45.8000  133.8000    60.48213 -49.60979   -43.37894    0.0000 2165.6400
 2170.5000  259.4200    48.9500  133.8000    60.49564 -49.62394   -43.38718    0.0000 2166.1400
 2171.0000  265.8600    52.1000  133.8000    60.50915 -49.63809   -43.39543    0.0000 2166.6400
 2171.5000  272.3000    50.8000  133.8000    60.52266 -49.65223   -43.40367    0.0000 2167.1400
 2172.0000  273.3250    72.3000  133.8000    60.53617 -49.66638   -43.41191    0.0000 2167.6400
 2172.5000  274.3500    50.1000  133.8000    60.54968 -49.68053   -43.42016    0.0000 2168.1300
 2173.0000  275.3750    67.1000  133.8000    60.56319 -49.69468   -43.4284     0.0000 2168.6300
 2173.5000  276.4000    69.1000  133.8000    60.5767  -49.70883   -43.43665    0.0000 2169.1300
 2174.0000  250.93333   71.1200  133.8000    60.59021 -49.72298   -43.44489    0.0000 2169.6300
 2174.5000  225.46667   73.1400  133.8000    60.60372 -49.73713   -43.45314    0.0000 2170.1300
 2175.0000  200.0000    75.1600  133.8000    60.61723 -49.75128   -43.46138    0.0000 2170.6300
 2175.5000  181.8500    77.1800  133.8000    60.63074 -49.76543   -43.46963    0.0000 2171.1300
 2176.0000  163.7000    79.2000  133.8000    60.64426 -49.77957   -43.47787    0.0000 2171.6300
 2176.5000  148.0500    74.6000  133.8000    60.65777 -49.79372   -43.48612    0.0000 2172.1300
 2177.0000  132.4000    76.5000  133.8000    60.67128 -49.80787   -43.49436    0.0000 2172.6300
 2177.5000  128.6000    81.1000  133.8000    60.68479 -49.82202   -43.50261    0.0000 2173.1300
 2178.0000  124.8000    83.7000  133.8000    60.6983  -49.83617   -43.51085    0.0000 2173.6300
 2178.5000  122.6500    80.1000  133.8000    60.71181 -49.85032   -43.5191     0.0000 2174.1300
 2179.0000  120.5000    77.2000  133.8000    60.72532 -49.86447   -43.52734    0.0000 2174.6300
 2179.5000  109.8000    73.8000  133.8000    60.73883 -49.87862   -43.53559    0.0000 2175.1300
 2180.0000  110.2500    70.4000  133.8000    60.75234 -49.89277   -43.54383    0.0000 2175.6300
 2180.5000  110.7000    67.0000  133.8000    60.76585 -49.90691   -43.55207    0.0000 2176.1300
 2181.0000  112.6500    63.6000  133.8000    60.77936 -49.92106   -43.56032    0.0000 2176.6300
 2181.5000  114.6000    60.2000  133.8000    60.79287 -49.93521   -43.56856    0.0000 2177.1300
 2182.0000  117.2500    66.7000  133.8000    60.80638 -49.94936   -43.57681    0.0000 2177.6300
 2182.5000  119.9000    77.2000  133.8000    60.81989 -49.96351   -43.58505    0.0000 2178.1300
 2183.0000  117.4000    76.6500  133.8000    60.8334  -49.97766   -43.5933     0.0000 2178.6300
 2183.5000  114.9000    76.1000  133.8000    60.84691 -49.99181   -43.60154    0.0000 2179.1300
 2184.0000  108.4000    75.5500  133.8000    60.86043 -50.00596   -43.60979    0.0000 2179.6300
 2184.5000  101.9000    75.0000  133.8000    60.87394 -50.02011   -43.61803    0.0000 2180.1300
 2185.0000  107.6000    74.4500  133.8000    60.88745 -50.03426   -43.62628    0.0000 2180.6300
 2185.5000  113.3000    73.9000  133.8000    60.90096  -50.0484   -43.63452    0.0000 2181.1300
 2186.0000  116.4000    70.7000  133.8000    60.91447 -50.06255   -43.64277    0.0000 2181.6300
 2186.5000  119.5000    69.3000  133.8000    60.92798  -50.0767   -43.65101    0.0000 2182.1300
 2187.0000  120.5500    59.5000  133.8000    60.94149 -50.09085   -43.65926    0.0000 2182.6300
 2187.5000  121.6000    62.4000  133.8000    60.9550   -50.1050   -43.6675     0.0000 2183.1300
 2188.0000  117.6000    59.5000  133.8000    60.96851 -50.11915   -43.67574    0.0000 2183.6300
 2188.5000  113.6000    61.1500  133.8000    60.98202  -50.1333   -43.68399    0.0000 2184.1200
 2189.0000  110.2000    62.8000  133.8000    60.99553 -50.14745   -43.69223    0.0000 2184.6200
 2189.5000  114.8000    62.5000  133.8000    61.00904  -50.1616   -43.70048    0.0000 2185.1200
 2190.0000  119.4000    62.2000  133.8000    61.02255 -50.17574   -43.70872    0.0000 2185.6200
 2190.5000  124.0000    60.8000  133.8000    61.03606 -50.18989   -43.71697    0.0000 2186.1200
 2191.0000  140.4000    62.8000  133.8000    61.04957 -50.20404   -43.72521    0.0000 2186.6200
 2191.5000  156.8000    64.8000  133.8000    61.06309 -50.21819   -43.73346    0.0000 2187.1200
 2192.0000  173.2000    79.2000  133.8000    61.0766  -50.23234   -43.7417     0.0000 2187.6200
 2192.5000  182.4750    75.2000  133.8000    61.09011 -50.24649   -43.74995    0.0000 2188.1200
 2193.0000  191.7500    80.5000  133.8000    61.10362 -50.26064   -43.75819    0.0000 2188.6200
 2193.5000  201.0250    80.5000  133.8000    61.11713 -50.27479   -43.76644    0.0000 2189.1200
 2194.0000  210.3000    90.3000  133.8000    61.13064 -50.28894   -43.77468    0.0000 2189.6200
 2194.5000  206.1000    78.5000  133.8000    61.14415 -50.30309   -43.78293    0.0000 2190.1200
 2195.0000  201.9000    81.1000  133.8000    61.15766 -50.31723   -43.79117    0.0000 2190.6200
 2195.5000  197.7000    76.5000  133.8000    61.17117 -50.33138   -43.79941    0.0000 2191.1200
 2196.0000  180.0500    78.5000  133.8000    61.18468 -50.34553   -43.80766    0.0000 2191.6200
 2196.5000  162.4000    80.5000  133.8000    61.19819 -50.35968   -43.8159     0.0000 2192.1200
 2197.0000  150.0000    77.2000  133.8000    61.2117  -50.37383   -43.82415    0.0000 2192.6200
 2197.5000  137.6000    82.4000  133.8000    61.22521 -50.38798   -43.83239    0.0000 2193.1200
 2198.0000  135.1000    77.2000  133.8000    61.23872 -50.40213   -43.84064    0.0000 2193.6200
 2198.5000  132.6000    99.4000  133.8000    61.25223 -50.41628   -43.84888    0.0000 2194.1200
 2199.0000  133.33333   86.6500  133.8000    61.26574 -50.43043   -43.85713    0.0000 2194.6200
 2199.5000  134.06667   73.9000  133.8000    61.27926 -50.44457   -43.86537    0.0000 2195.1200
 2200.0000  134.8000    80.5000  133.8000    61.29277 -50.45872   -43.87362    0.0000 2195.6200
 2200.5000  134.3500    77.8000  133.8000    61.30628 -50.47287   -43.88186    0.0000 2196.1200
 2201.0000  133.9000    76.5000  133.8000    61.31979 -50.48702   -43.89011    0.0000 2196.6200
 2201.5000  130.0000    83.1000  133.8000    61.3333  -50.50117   -43.89835    0.0000 2197.1200
 2202.0000  126.1000    86.0500  133.8000    61.34681 -50.51532   -43.9066     0.0000 2197.6200
 2202.5000  117.6000    89.0000  133.8000    61.36032 -50.52947   -43.91484    0.0000 2198.1200
 2203.0000  119.7000    85.0000  133.8000    61.37383 -50.54362   -43.92309    0.0000 2198.6200
 2203.5000  121.8000    74.6000  133.8000    61.38734 -50.55777   -43.93133    0.0000 2199.1200
 2204.0000  123.9000    71.5000  133.8000    61.40085 -50.57191   -43.93957    0.0000 2199.6200
 2204.5000  120.6000    68.4000  133.8000    61.41436 -50.58606   -43.94782    0.0000 2200.1200
 2205.0000  118.2000    68.7000  133.8000    61.42787 -50.60021   -43.95606    0.0000 2200.6200
 2205.5000  115.8000    64.8000  133.8000    61.44138 -50.61436   -43.96431    0.0000 2201.1200
 2206.0000  112.2000    68.0000  133.8000    61.45489 -50.62851   -43.97255    0.0000 2201.6100
 2206.5000  108.6000    67.4000  133.8000    61.4684  -50.64266   -43.9808     0.0000 2202.1100
 2207.0000  111.1500    68.3500  133.8000    61.48191 -50.65681   -43.98904    0.0000 2202.6100
 2207.5000  113.7000    69.3000  133.8000    61.49543 -50.67096   -43.99729    0.0000 2203.1100
 2208.0000  123.3000    70.7000  133.8000    61.50894 -50.68511   -44.00553    0.0000 2203.6100
 2208.5000  132.9000    64.8000  133.8000    61.52245 -50.69926   -44.01378    0.0000 2204.1100
 2209.0000  127.0000    72.6500  133.8000    61.53596  -50.7134   -44.02202    0.0000 2204.6100
 2209.5000  121.1000    80.5000  133.8000    61.54947 -50.72755   -44.03027    0.0000 2205.1100
