~Version Information Section
 VERS.      2.0         :CWLS LOG ASCII STANDARD -VERSION 2.0
 WRAP.      No          :SINGLE LINE PER DEPTH STEP
~Well Information Section
#MNEM.UNIT                      VALUE/NAME                 DESCRIPTION
#----.----     ----------------------------------   --------------------
 STRT    .ft           1200.0000                         :Start Depth
 STOP    .ft           6093.0000                         :Stop  Depth
 STEP    .ft              0.5000                         :Step  Depth
 NULL    .             -999.2500                         :Null value
 COMP    .          LEWIS ENERGY COLOMBIA                :Company Name
 WELL    .          La Estancia 1                        :Well Name
 PATH    .          ST1                                  :Path Name
 FLD     .          La Estancia                          :Field Name
 LOC     .          Default Facility                     :Location
 PROV    .          Unused                               :Province
 SRVC    .          BAKER HUGHES INTEQ                   :Service Company Name
 DATE    .          27/05/2015-07                        :05:20 SA Pacific Standard Time: System Date
 UWI     .                                               :Unique Well ID
 TIMEZONE.Hrs            -5.0000                         :Time zone difference from GMT
~Curve Information Section
#MNEM       .UNIT         CURVE DESCRIPTION
#----       .----         -------------------------
 DEPTH      .ft           :1 Depth Hole
 ROP_AVG    .ft/hr        :2 Time Averaged ROP
 GRAX       .API          :3 Gamma Ray - Apparent
 TCDX       .degF         :4 Downhole Temperature
 SRSP_CVSECT.ft           :5 Incremental Vertical Section
 SRSP_NS    .ft           :6 Position North
 SRSP_EW    .ft           :7 Position East
 LAGGAS     .unit         :8 Total Gas - Lagged
 TVD        .ft           :9 Vertical Depth
~Parameter Information Section
#MNEM.UNIT                      VALUE                       DESCRIPTION
#----.----     ----------------------------------   --------------------
~Other Information Section
Disclaimer
Any opinion and / or recommendation expressed orally or written herein, has been prepared
carefully and may be used if the user so elects, however, no representative or warranty is
made by ourselves or our agents as to the correctness or completeness, and no liability is
assumed for any damages resulting from use of the same.  Baker Hughes's liabilities and obligations
shall be governed by Baker Hughes's Standard Terms and Conditions.
Creator
Export
#----------------------------------------------------------------------
#
# Curve name cross reference:  XREF 'LAS Name' 'XTF Short Name' 'XTF Structured Name'
#
XREF DEPTH DEPTH DEPTH
XREF ROP_AVG ROPAVG GENTIME.ROP_AVG
XREF GRAX GRAX GAMMA.GRAX
XREF TCDX TCDX DOWNHOLE.TCDX
XREF SRSP_CVSECT SRSPCVSE SURVEY_STATION.SRSP_CVSECT
XREF SRSP_NS SRSPNS SURVEY_STATION.SRSP_NS
XREF SRSP_EW SRSPEW SURVEY_STATION.SRSP_EW
XREF LAGGAS LAGGAS LAGMUD.LAGGAS
XREF TVD TVD TVD
 
 
 
 
 
 
 

~A  DEPTH   ROP_AVG     GRAX       TCDX   SRSP_CVSECT  SRSP_NS   SRSP_EW     LAGGAS      TVD   
# ...
 4721.5000   84.6500    80.8000  144.6000   832.53968 -363.01638  -749.24766  167.0000 4376.3800
 4722.0000   90.9000    87.7000  144.6000   833.02234 -363.22319  -749.68383  167.0000 4376.5100
 4722.5000   96.0000    88.3500  144.6000   833.5050  -363.4300  -750.1200   294.0000 4376.6400
 4723.0000   92.8000    89.0000  144.6000   833.98766 -363.63681  -750.55617  439.0000 4376.7700
 4723.5000   90.4500    52.3000  144.6000   834.47032 -363.84362  -750.99234  439.0000 4376.9000
 4724.0000   88.1000    91.6000  144.6000   834.95298 -364.05043  -751.42851  439.0000 4377.0300
 4724.5000   90.6500    50.4000  144.6000   835.43564 -364.25723  -751.86468  500.0000 4377.1600
 4725.0000   93.2000    60.4000  144.6000   835.9183  -364.46404  -752.30085  524.0000 4377.2900
 4725.5000   84.5000    85.0000  144.6000   836.40096 -364.67085  -752.73702  524.0000 4377.4200
 4726.0000   87.4000    77.2000  137.0000   836.88362 -364.87766  -753.17319  524.0000 4377.5500
 4726.5000   85.2000    71.3000  140.8000   837.36628 -365.08447  -753.60936  661.0000 4377.6700
 4727.0000   83.0000    65.4000  144.6000   837.84894 -365.29128  -754.04553 1095.0000 4377.8000
 4727.5000   90.4000    53.4000  144.6000   838.3316  -365.49809  -754.4817  1095.0000 4377.9300
 4728.0000   89.7500    66.7000  144.6000   838.81426 -365.70489  -754.91787 1303.0000 4378.0600
 4728.5000   89.1000    62.8000  144.6000   839.29691 -365.9117  -755.35404 1511.0000 4378.1800
 4729.0000   74.6000    62.4800  144.6000   839.77957 -366.11851  -755.79021 2078.0000 4378.3100
 4729.5000   75.0000    62.1600  144.6000   840.26223 -366.32532  -756.22638 2078.0000 4378.4300
 4730.0000   77.1500    61.8400  144.6000   840.74489 -366.53213  -756.66255 2221.0000 4378.5600
 4730.5000   79.3000    61.5200  144.6000   841.22755 -366.73894  -757.09872 2364.0000 4378.6900
 4731.0000   79.0000    61.2000  144.6000   841.71021 -366.94574  -757.53489 2364.0000 4378.8100
 4731.5000   87.0500    52.7000  144.6000   842.19287 -367.15255  -757.97106 2364.0000 4378.9400
 4732.0000   95.1000    51.4500  144.6000   842.67553 -367.35936  -758.40723 2336.0000 4379.0600
 4732.5000  103.2000    50.2000  144.6000   843.15819 -367.56617  -758.8434  2308.0000 4379.1900
 4733.0000  103.2000    46.8000  144.6000   843.64085 -367.77298  -759.27957 2308.0000 4379.3100
 4733.5000  103.2000    45.4000  144.6000   844.12351 -367.97979  -759.71574 2278.0000 4379.4300
 4734.0000  109.0500    40.9000  144.6000   844.60617 -368.1866  -760.15191 2264.0000 4379.5600
 4734.5000  114.9000    47.1000  144.6000   845.08883 -368.3934  -760.58809 2250.0000 4379.6800
 4735.0000  116.5500    45.8000  144.6000   845.57149 -368.60021  -761.02426 2250.0000 4379.8000
 4735.5000  118.2000    37.8000  144.6000   846.05415 -368.80702  -761.46043 2229.0000 4379.9300
 4736.0000  118.8000    42.4500  144.6000   846.53681 -369.01383  -761.8966  2259.0000 4380.0500
 4736.5000  119.4000    47.1000  144.6000   847.01947 -369.22064  -762.33277 2259.0000 4380.1700
 4737.0000  122.4000    42.8500  144.6000   847.50213 -369.42745  -762.76894 2259.0000 4380.2900
 4737.5000  125.4000    38.6000  144.6000   847.98479 -369.63426  -763.20511 2316.0000 4380.4200
 4738.0000  120.7000    46.7000  136.93333  848.46745 -369.84106  -763.64128 2372.0000 4380.5400
 4738.5000  116.0000    47.1000  129.26667  848.95011 -370.04787  -764.07745 2372.0000 4380.6600
 4739.0000  113.0500    47.8000  121.6000   849.43277 -370.25468  -764.51362 2372.0000 4380.7800
 4739.5000  110.1000    44.2000  129.26667  849.91543 -370.46149  -764.94979 2622.0000 4380.9000
 4740.0000  100.5000    47.6000  136.93333  850.39809 -370.6683  -765.38596 2886.0000 4381.0200
 4740.5000   63.8000    51.0000  144.6000   850.88074 -370.87511  -765.82213 2886.0000 4381.1400
 4741.0000   54.0000    45.8000  144.6000   851.3634  -371.08191  -766.2583  2886.0000 4381.2600
 4741.5000   24.1000    44.2000  144.6000   851.84606 -371.28872  -766.69447 3436.0000 4381.3800
 4742.0000   16.0000    42.5000  144.6000   852.32872 -371.49553  -767.13064 3870.0000 4381.5000
 4742.5000   56.4000    44.5000  144.6000   852.81138 -371.70234  -767.56681 3920.0000 4381.6200
 4743.0000   62.5500    44.5000  144.6000   853.29404 -371.90915  -768.00298 3970.0000 4381.7300
 4743.5000   68.7000    45.8000  144.6000   853.7767  -372.11596  -768.43915 3998.0000 4381.8500
 4744.0000   39.3000    46.5000  144.6000   854.25936 -372.32277  -768.87532 1153.0000 4381.9700
 4744.5000   58.1000    43.8000  144.6000   854.74202 -372.52957  -769.31149 1153.0000 4382.0900
 4745.0000   76.9000    40.6000  144.6000   855.22468 -372.73638  -769.74766 1153.0000 4382.2100
 4745.5000   99.1500    44.2000  144.6000   855.70734 -372.94319  -770.18383  574.0000 4382.3200
 4746.0000  121.4000    47.8000  144.6000   856.1900  -373.1500  -770.6200   835.0000 4382.4400
 4746.5000  120.8500    50.7000  144.6000   856.6789  -373.3561  -771.0633   835.0000 4382.5600
 4747.0000  120.3000    53.0000  144.6000   857.1678  -373.5622  -771.5066   835.0000 4382.6700
 4747.5000  117.1500    51.7000  144.6000   857.6567  -373.7683  -771.9499   935.0000 4382.7900
 4748.0000  114.0000    52.5000  144.6000   858.1456  -373.9744  -772.3932  1022.0000 4382.9000
 4748.5000  112.2500    53.1000  144.6000   858.6345  -374.1805  -772.8365  1022.0000 4383.0200
 4749.0000  110.5000    61.5000  144.6000   859.1234  -374.3866  -773.2798  1013.5000 4383.1400
 4749.5000  100.6000    59.4000  144.6000   859.6123  -374.5927  -773.7231  1005.0000 4383.2500
 4750.0000   79.4000    61.3000  144.6000   860.1012  -374.7988  -774.1664   911.0000 4383.3700
 4750.5000   78.4000    60.7000  144.6000   860.5901  -375.0049  -774.6097   911.0000 4383.4800
 4751.0000   77.4000    64.8000  144.6000   861.0790  -375.2110  -775.0530   837.0000 4383.5900
 4751.5000   76.2000    68.0000  144.6000   861.5679  -375.4171  -775.4963   763.0000 4383.7100
 4752.0000   67.5000    59.4000  144.6000   862.0568  -375.6232  -775.9396   763.0000 4383.8200
 4752.5000   39.5000    56.1000  144.6000   862.5457  -375.8293  -776.3829  2706.0000 4383.9400
 4753.0000   68.2000    59.8000  144.6000   863.0346  -376.0354  -776.8262  1497.0000 4384.0500
 4753.5000   76.5000    61.1000  144.6000   863.5235  -376.2415  -777.2695   288.0000 4384.1600
 4754.0000   84.8000    75.2000  144.6000   864.0124  -376.4476  -777.7128   296.0000 4384.2800
 4754.5000  101.4000    84.4000  144.6000   864.5013  -376.6537  -778.1561   296.0000 4384.3900
 4755.0000    0.0000    71.4000  144.6000   864.9902  -376.8598  -778.5994   296.5000 4384.5000
 4755.5000   97.5000    55.9000  144.6000   865.4791  -377.0659  -779.0427   297.0000 4384.6100
 4756.0000  100.5000    89.6000  144.6000   865.9680  -377.2720  -779.4860   297.0000 4384.7200
 4756.5000  103.5000    77.0000  144.6000   866.4569  -377.4781  -779.9293   316.0000 4384.8400
 4757.0000  107.8000    75.5000  144.6000   866.9458  -377.6842  -780.3726   313.0000 4384.9500
 4757.5000  112.1000    89.6000  144.6000   867.4347  -377.8903  -780.8159   310.0000 4385.0600
 4758.0000  110.2500    83.6000  144.6000   867.9236  -378.0964  -781.2592   310.0000 4385.1700
 4758.5000  108.4000    65.6000  144.6000   868.4125  -378.3025  -781.7025   294.0000 4385.2800
 4759.0000   28.7000   114.5000  144.6000   868.9014  -378.5086  -782.1458  1056.0000 4385.3900
 4759.5000   46.1000   140.3000  144.6000   869.3903  -378.7147  -782.5891  1818.0000 4385.5000
 4760.0000   61.7000   135.4000  144.6000   869.8792  -378.9208  -783.0324  1818.0000 4385.6100
 4760.5000   36.2000   119.5000  144.6000   870.3681  -379.1269  -783.4757    50.0000 4385.7200
 4761.0000   31.5000    84.1000  144.6000   870.8570  -379.3330  -783.9190   245.0000 4385.8300
 4761.5000   14.7000   129.7000  144.6000   871.3459  -379.5391  -784.3623   245.0000 4385.9400
 4762.0000   35.8000   114.1000  144.6000   871.8348  -379.7452  -784.8056   245.0000 4386.0500
 4762.5000   29.1000   136.9000  144.6000   872.3237  -379.9513  -785.2489   356.0000 4386.1600
