~Version Information Section
 VERS.      2.0         :CWLS LOG ASCII STANDARD -VERSION 2.0
 WRAP.      No          :SINGLE LINE PER DEPTH STEP
~Well Information Section
#MNEM.UNIT                      VALUE/NAME                 DESCRIPTION
#----.----     ----------------------------------   --------------------
 STRT    .ft           1200.0000                         :Start Depth
 STOP    .ft           6093.0000                         :Stop  Depth
 STEP    .ft              0.5000                         :Step  Depth
 NULL    .             -999.2500                         :Null value
 COMP    .          LEWIS ENERGY COLOMBIA                :Company Name
 WELL    .          La Estancia 1                        :Well Name
 PATH    .          ST1                                  :Path Name
 FLD     .          La Estancia                          :Field Name
 LOC     .          Default Facility                     :Location
 PROV    .          Unused                               :Province
 SRVC    .          BAKER HUGHES INTEQ                   :Service Company Name
 DATE    .          27/05/2015-07                        :05:20 SA Pacific Standard Time: System Date
 UWI     .                                               :Unique Well ID
 TIMEZONE.Hrs            -5.0000                         :Time zone difference from GMT
~Curve Information Section
#MNEM       .UNIT         CURVE DESCRIPTION
#----       .----         -------------------------
 DEPTH      .ft           :1 Depth Hole
 ROP_AVG    .ft/hr        :2 Time Averaged ROP
 GRAX       .API          :3 Gamma Ray - Apparent
 TCDX       .degF         :4 Downhole Temperature
 SRSP_CVSECT.ft           :5 Incremental Vertical Section
 SRSP_NS    .ft           :6 Position North
 SRSP_EW    .ft           :7 Position East
 LAGGAS     .unit         :8 Total Gas - Lagged
 TVD        .ft           :9 Vertical Depth
~Parameter Information Section
#MNEM.UNIT                      VALUE                       DESCRIPTION
#----.----     ----------------------------------   --------------------
~Other Information Section
Disclaimer
Any opinion and / or recommendation expressed orally or written herein, has been prepared
carefully and may be used if the user so elects, however, no representative or warranty is
made by ourselves or our agents as to the correctness or completeness, and no liability is
assumed for any damages resulting from use of the same.  Baker Hughes's liabilities and obligations
shall be governed by Baker Hughes's Standard Terms and Conditions.
Creator
Export
#----------------------------------------------------------------------
#
# Curve name cross reference:  XREF 'LAS Name' 'XTF Short Name' 'XTF Structured Name'
#
XREF DEPTH DEPTH DEPTH
XREF ROP_AVG ROPAVG GENTIME.ROP_AVG
XREF GRAX GRAX GAMMA.GRAX
XREF TCDX TCDX DOWNHOLE.TCDX
XREF SRSP_CVSECT SRSPCVSE SURVEY_STATION.SRSP_CVSECT
XREF SRSP_NS SRSPNS SURVEY_STATION.SRSP_NS
XREF SRSP_EW SRSPEW SURVEY_STATION.SRSP_EW
XREF LAGGAS LAGGAS LAGMUD.LAGGAS
XREF TVD TVD TVD
 
 
 
 
 
 
 

~A  DEPTH   ROP_AVG     GRAX       TCDX   SRSP_CVSECT  SRSP_NS   SRSP_EW     LAGGAS      TVD   
# ...
 5386.5000   35.4000    90.1000  139.2000  1494.36953 -638.72426 -1350.99174  152.0000 4407.0000
 5387.0000   32.3000    82.3000  139.2000  1494.86947 -638.93474 -1351.44526  160.0000 4407.0000
 5387.5000   37.1000    79.0000  139.2000  1495.36942 -639.14521 -1351.89879  160.0000 4407.0100
 5388.0000   40.3000    75.6000  139.2000  1495.86937 -639.35568 -1352.35232  160.0000 4407.0100
 5388.5000   29.1000    72.3000  139.2000  1496.36932 -639.56616 -1352.80584  160.0000 4407.0200
 5389.0000   39.7000    78.5000  139.2000  1496.86926 -639.77663 -1353.25937  152.0000 4407.0200
 5389.5000   47.1000    74.5000  139.2000  1497.36921 -639.98711 -1353.71289  152.0000 4407.0200
 5390.0000   51.2000    72.3000  139.2000  1497.86916 -640.19758 -1354.16642  152.0000 4407.0300
 5390.5000   54.7000    72.1000  139.2000  1498.36911 -640.40805 -1354.61995  133.0000 4407.0300
 5391.0000   57.6000    72.5000  139.2000  1498.86905 -640.61853 -1355.07347  119.0000 4407.0400
 5391.5000   59.8000    70.2000  139.2000  1499.3690  -640.8290 -1355.5270   119.0000 4407.0400
 5392.0000   64.2000    73.0000  139.2000  1499.86895 -641.03947 -1355.98053  119.0000 4407.0500
 5392.5000   60.5000    72.0000  139.2000  1500.36889 -641.24995 -1356.43405  105.0000 4407.0500
 5393.0000   57.6000    71.0000  139.2000  1500.86884 -641.46042 -1356.88758   86.0000 4407.0600
 5393.5000   54.0000    71.2000  139.2000  1501.36879 -641.67089 -1357.34111   86.0000 4407.0600
 5394.0000   56.9000    69.5000  139.2000  1501.86874 -641.88137 -1357.79463   81.0000 4407.0700
 5394.5000   58.7000    69.2000  139.2000  1502.36868 -642.09184 -1358.24816   76.0000 4407.0700
 5395.0000   59.1000    73.1000  139.2000  1502.86863 -642.30232 -1358.70168  127.0000 4407.0700
 5395.5000   56.8000    69.1000  139.2000  1503.36858 -642.51279 -1359.15521  127.0000 4407.0800
 5396.0000   56.1000    68.6000  139.2000  1503.86853 -642.72326 -1359.60874  129.5000 4407.0800
 5396.5000   54.4000    68.9000  139.2000  1504.36847 -642.93374 -1360.06226  132.0000 4407.0900
 5397.0000   58.4000    66.0000  139.2000  1504.86842 -643.14421 -1360.51579  139.0000 4407.0900
 5397.5000   41.6000    68.3000  139.2000  1505.36837 -643.35468 -1360.96932  139.0000 4407.1000
 5398.0000   46.5000    70.1000  139.2000  1505.86832 -643.56516 -1361.42284  139.0000 4407.1000
 5398.5000   51.2000    66.2000  139.2000  1506.36826 -643.77563 -1361.87637  139.0000 4407.1100
 5399.0000   49.6000    65.8000  139.2000  1506.86821 -643.98611 -1362.32989  152.0000 4407.1100
 5399.5000   48.4000    65.2000  139.2000  1507.36816 -644.19658 -1362.78342  152.0000 4407.1200
 5400.0000   51.2000    67.5000  139.2000  1507.86811 -644.40705 -1363.23695  160.5000 4407.1200
 5400.5000   52.1000    66.2000  139.2000  1508.36805 -644.61753 -1363.69047  169.0000 4407.1200
 5401.0000   55.4000    65.9000  139.2000  1508.8680  -644.8280 -1364.1440   169.0000 4407.1300
 5401.5000   54.9000    65.6000  139.2000  1509.36795 -645.03847 -1364.59753  169.0000 4407.1300
 5402.0000   53.1000    59.0000  139.2000  1509.86789 -645.24895 -1365.05105  170.0000 4407.1400
 5402.5000   52.8000    59.5000  139.2000  1510.36784 -645.45942 -1365.50458  170.0000 4407.1400
 5403.0000   52.5000    58.8000  139.2000  1510.86779 -645.66989 -1365.95811  170.0000 4407.1500
 5403.5000   49.4000    59.2000  139.2000  1511.36774 -645.88037 -1366.41163  160.0000 4407.1500
 5404.0000   50.4000    58.0000  139.2000  1511.86768 -646.09084 -1366.86516  157.0000 4407.1600
 5404.5000   45.8000    59.9000  139.2000  1512.36763 -646.30132 -1367.31868  157.0000 4407.1600
 5405.0000   45.2000    64.3000  139.2000  1512.86758 -646.51179 -1367.77221  157.0000 4407.1600
 5405.5000   48.6000    59.4000  139.2000  1513.36753 -646.72226 -1368.22574  108.0000 4407.1700
 5406.0000   51.5000    59.6000  139.2000  1513.86747 -646.93274 -1368.67926   94.0000 4407.1700
 5406.5000   47.0000    60.8000  139.2000  1514.36742 -647.14321 -1369.13279   94.0000 4407.1800
 5407.0000   25.4000    57.4000  139.2000  1514.86737 -647.35368 -1369.58632   94.0000 4407.1800
 5407.5000   32.7000    61.1000  139.2000  1515.36732 -647.56416 -1370.03984   83.0000 4407.1900
 5408.0000   40.3000    56.3000  139.2000  1515.86726 -647.77463 -1370.49337   66.0000 4407.1900
 5408.5000   52.1000    57.5000  139.2000  1516.36721 -647.98511 -1370.94689   66.0000 4407.2000
 5409.0000   57.1000    62.2000  139.2000  1516.86716 -648.19558 -1371.40042   66.0000 4407.2000
 5409.5000   55.4000    57.9000  139.2000  1517.36711 -648.40605 -1371.85395   56.0000 4407.2000
 5410.0000   50.0000    60.2000  139.2000  1517.86705 -648.61653 -1372.30747   44.0000 4407.2100
 5410.5000   46.9000    60.0000  139.2000  1518.3670  -648.8270 -1372.7610    44.0000 4407.2100
 5411.0000   49.1000    58.8000  139.2000  1518.86695 -649.03747 -1373.21453   44.0000 4407.2200
 5411.5000   53.7000    57.2000  139.2000  1519.36689 -649.24795 -1373.66805   48.0000 4407.2200
 5412.0000   53.9000    59.3000  139.2000  1519.86684 -649.45842 -1374.12158   49.0000 4407.2300
 5412.5000   49.2000    62.3000  139.2000  1520.36679 -649.66889 -1374.57511   49.0000 4407.2300
 5413.0000   47.5000    58.9000  139.2000  1520.86674 -649.87937 -1375.02863   41.0000 4407.2400
 5413.5000   47.9000    57.1000  139.2000  1521.36668 -650.08984 -1375.48216   33.0000 4407.2400
 5414.0000   55.2000    59.9000  139.2000  1521.86663 -650.30032 -1375.93568    1.0000 4407.2400
 5414.5000   57.0000    58.7000  139.2000  1522.36658 -650.51079 -1376.38921    1.0000 4407.2500
 5415.0000   58.5000    56.3000  139.2000  1522.86653 -650.72126 -1376.84274   13.5000 4407.2500
 5415.5000   53.5000    59.3000  139.2000  1523.36647 -650.93174 -1377.29626   26.0000 4407.2600
 5416.0000   50.7000    55.5000  139.2000  1523.86642 -651.14221 -1377.74979   32.0000 4407.2600
 5416.5000   57.0000    56.5000  139.2000  1524.36637 -651.35268 -1378.20332   32.0000 4407.2700
 5417.0000   60.9000    57.3000  139.2000  1524.86632 -651.56316 -1378.65684   32.5000 4407.2700
 5417.5000   50.0000    54.8000  139.2000  1525.36626 -651.77363 -1379.11037   33.0000 4407.2700
 5418.0000   45.5000    55.5000  139.2000  1525.86621 -651.98411 -1379.56389   33.0000 4407.2800
 5418.5000   51.6000    55.4000  139.2000  1526.36616 -652.19458 -1380.01742   39.0000 4407.2800
 5419.0000   48.3000    58.1000  139.2000  1526.86611 -652.40505 -1380.47095   34.0000 4407.2900
 5419.5000   34.7000    53.5000  139.2000  1527.36605 -652.61553 -1380.92447   29.0000 4407.2900
 5420.0000   15.1000    53.2000  139.2000  1527.8660  -652.8260 -1381.3780    29.0000 4407.3000
 5420.5000   41.4000    57.0000  139.2000  1528.36595 -653.03647 -1381.83153   14.0000 4407.3000
 5421.0000   45.0000    58.8000  139.2000  1528.86589 -653.24695 -1382.28505    9.5000 4407.3100
 5421.5000   38.7000    59.1000  139.2000  1529.36584 -653.45742 -1382.73858    5.0000 4407.3100
 5422.0000   34.4000    57.0000  139.2000  1529.86579 -653.66789 -1383.19211    5.0000 4407.3100
 5422.5000   34.0000    57.7000  139.2000  1530.36574 -653.87837 -1383.64563    3.0000 4407.3200
 5423.0000   41.5000    57.3000  139.2000  1530.86568 -654.08884 -1384.09916    3.0000 4407.3200
 5423.5000   41.1000    58.0000  139.2000  1531.36563 -654.29932 -1384.55268    3.0000 4407.3300
 5424.0000   44.0000    58.3000  139.2000  1531.86558 -654.50979 -1385.00621    3.0000 4407.3300
 5424.5000   44.5000    59.8000  139.2000  1532.36553 -654.72026 -1385.45974    0.0000 4407.3400
 5425.0000   41.1000    57.1000  139.2000  1532.86547 -654.93074 -1385.91326    1.0000 4407.3400
 5425.5000   42.6000    56.9000  139.2000  1533.36542 -655.14121 -1386.36679    1.0000 4407.3400
 5426.0000   40.4000    60.9000  139.2000  1533.86537 -655.35168 -1386.82032    1.0000 4407.3500
 5426.5000   42.8000    60.2000  139.2000  1534.36532 -655.56216 -1387.27384    0.0000 4407.3500
 5427.0000   45.7000    62.6000  139.2000  1534.86526 -655.77263 -1387.72737    0.0000 4407.3600
 5427.5000   45.7000    62.0000  139.2000  1535.36521 -655.98311 -1388.18089    0.0000 4407.3600
