~Version Information Section
 VERS.      2.0         :CWLS LOG ASCII STANDARD -VERSION 2.0
 WRAP.      No          :SINGLE LINE PER DEPTH STEP
~Well Information Section
#MNEM.UNIT                      VALUE/NAME                 DESCRIPTION
#----.----     ----------------------------------   --------------------
 STRT    .ft           1200.0000                         :Start Depth
 STOP    .ft           6093.0000                         :Stop  Depth
 STEP    .ft              0.5000                         :Step  Depth
 NULL    .             -999.2500                         :Null value
 COMP    .          LEWIS ENERGY COLOMBIA                :Company Name
 WELL    .          La Estancia 1                        :Well Name
 PATH    .          ST1                                  :Path Name
 FLD     .          La Estancia                          :Field Name
 LOC     .          Default Facility                     :Location
 PROV    .          Unused                               :Province
 SRVC    .          BAKER HUGHES INTEQ                   :Service Company Name
 DATE    .          27/05/2015-07                        :05:20 SA Pacific Standard Time: System Date
 UWI     .                                               :Unique Well ID
 TIMEZONE.Hrs            -5.0000                         :Time zone difference from GMT
~Curve Information Section
#MNEM       .UNIT         CURVE DESCRIPTION
#----       .----         -------------------------
 DEPTH      .ft           :1 Depth Hole
 ROP_AVG    .ft/hr        :2 Time Averaged ROP
 GRAX       .API          :3 Gamma Ray - Apparent
 TCDX       .degF         :4 Downhole Temperature
 SRSP_CVSECT.ft           :5 Incremental Vertical Section
 SRSP_NS    .ft           :6 Position North
 SRSP_EW    .ft           :7 Position East
 LAGGAS     .unit         :8 Total Gas - Lagged
 TVD        .ft           :9 Vertical Depth
~Parameter Information Section
#MNEM.UNIT                      VALUE                       DESCRIPTION
#----.----     ----------------------------------   --------------------
~Other Information Section
Disclaimer
Any opinion and / or recommendation expressed orally or written herein, has been prepared
carefully and may be used if the user so elects, however, no representative or warranty is
made by ourselves or our agents as to the correctness or completeness, and no liability is
assumed for any damages resulting from use of the same.  Baker Hughes's liabilities and obligations
shall be governed by Baker Hughes's Standard Terms and Conditions.
Creator
Export
#----------------------------------------------------------------------
#
# Curve name cross reference:  XREF 'LAS Name' 'XTF Short Name' 'XTF Structured Name'
#
XREF DEPTH DEPTH DEPTH
XREF ROP_AVG ROPAVG GENTIME.ROP_AVG
XREF GRAX GRAX GAMMA.GRAX
XREF TCDX TCDX DOWNHOLE.TCDX
XREF SRSP_CVSECT SRSPCVSE SURVEY_STATION.SRSP_CVSECT
XREF SRSP_NS SRSPNS SURVEY_STATION.SRSP_NS
XREF SRSP_EW SRSPEW SURVEY_STATION.SRSP_EW
XREF LAGGAS LAGGAS LAGMUD.LAGGAS
XREF TVD TVD TVD
 
 
 
 
 
 
 

~A  DEPTH   ROP_AVG     GRAX       TCDX   SRSP_CVSECT  SRSP_NS   SRSP_EW     LAGGAS      TVD   
 1200.0000    0.4000  -999.2500  109.5000  -999.2500  -999.2500  -999.2500  -999.2500 1199.9900
 1200.5000    0.8000    39.9000  111.8000  -999.2500  -999.2500  -999.2500  -999.2500 1200.4900
 1201.0000    0.9000    42.3500  112.9000  -999.2500  -999.2500  -999.2500  -999.2500 1200.9900
 1201.5000    0.8000    44.8000  112.3000  -999.2500  -999.2500  -999.2500  -999.2500 1201.4900
 1202.0000    0.9000    47.2500  115.6000  -999.2500  -999.2500  -999.2500  -999.2500 1201.9800
 1202.5000    0.8000    49.7000  117.3000  -999.2500  -999.2500  -999.2500  -999.2500 1202.4800
 1203.0000    0.7000    45.2000  117.6000  -999.2500  -999.2500  -999.2500  -999.2500 1202.9800
 1203.5000    0.7000    46.8250  117.6000  -999.2500  -999.2500  -999.2500  -999.2500 1203.4800
 1204.0000    0.7000    48.4500  117.6000  -999.2500  -999.2500  -999.2500     0.0000 1203.9800
 1204.5000    0.8000    50.0750  118.9000  -999.2500  -999.2500  -999.2500     0.0000 1204.4800
 1205.0000    0.7000    51.7000  120.3000  -999.2500  -999.2500  -999.2500     0.0000 1204.9800
 1205.5000    0.9000    56.9000  120.5000  -999.2500  -999.2500  -999.2500     0.0000 1205.4800
 1206.0000    0.9000    58.0500  120.3000  -999.2500  -999.2500  -999.2500     0.0000 1205.9800
 1206.5000    0.8000    59.2000  120.3000  -999.2500  -999.2500  -999.2500     0.0000 1206.4800
 1207.0000    0.7000    60.3500  120.3000  -999.2500  -999.2500  -999.2500     0.0000 1206.9800
 1207.5000    1.5000    61.5000  120.3000  -999.2500  -999.2500  -999.2500     0.0000 1207.4800
 1208.0000    1.9000   607.4000  120.3000  -999.2500  -999.2500  -999.2500     0.0000 1207.9800
 1208.5000    1.9000    55.9000  120.3000  -999.2500  -999.2500  -999.2500     0.0000 1208.4800
 1209.0000    1.8000    53.0000  120.3000  -999.2500  -999.2500  -999.2500     0.0000 1208.9800
 1209.5000    1.4000  53.23333  120.3000  -999.2500  -999.2500  -999.2500     0.0000 1209.4800
 1210.0000    2.1000  53.46667  120.3000  -999.2500  -999.2500  -999.2500     0.0000 1209.9800
 1210.5000    1.9000    53.7000  120.3000  -999.2500  -999.2500  -999.2500     0.0000 1210.4800
 1211.0000    1.8000    56.9000  120.3000  -999.2500  -999.2500  -999.2500     0.0000 1210.9800
 1211.5000    2.0000    51.0500  120.3000  -999.2500  -999.2500  -999.2500     0.0000 1211.4800
 1212.0000    2.0000    45.2000  120.6000  -999.2500  -999.2500  -999.2500     0.0000 1211.9800
 1212.5000    2.1000    53.3500  120.3000  -999.2500  -999.2500  -999.2500     0.0000 1212.4800
 1213.0000    2.7000    61.5000  120.3000  -999.2500  -999.2500  -999.2500     0.0000 1212.9800
 1213.5000    2.3000    49.1000  120.6000  -999.2500  -999.2500  -999.2500     0.0000 1213.4800
 1214.0000    2.9000    54.6500  121.1000  -999.2500  -999.2500  -999.2500     0.0000 1213.9800
 1214.5000    2.6000    60.2000  121.8000  -999.2500  -999.2500  -999.2500     0.0000 1214.4800
 1215.0000    2.9000    60.2000  122.4000  -999.2500  -999.2500  -999.2500     0.0000 1214.9800
 1215.5000    3.0000    55.6000  122.4000  -999.2500  -999.2500  -999.2500     0.0000 1215.4800
 1216.0000    3.5000    51.0000  122.6000  -999.2500  -999.2500  -999.2500     0.0000 1215.9800
 1216.5000    2.5000    57.6000  123.0000  -999.2500  -999.2500  -999.2500     0.0000 1216.4800
 1217.0000    2.5000    57.6000  122.6000  -999.2500  -999.2500  -999.2500     0.0000 1216.9800
 1217.5000    2.3000    53.7000  122.1000  -999.2500  -999.2500  -999.2500     0.0000 1217.4800
 1218.0000    2.7000    53.0000  122.6000  -999.2500  -999.2500  -999.2500     0.0000 1217.9800
 1218.5000    3.3000    56.3000  123.0000  -999.2500  -999.2500  -999.2500     0.0000 1218.4800
 1219.0000    4.2000    50.4000  123.0000  -999.2500  -999.2500  -999.2500     0.0000 1218.9800
 1219.5000    3.0000    49.7000  123.0000  -999.2500  -999.2500  -999.2500     0.0000 1219.4800
 1220.0000    3.2000    46.4500  123.0000  -999.2500  -999.2500  -999.2500     0.0000 1219.9800
 1220.5000    2.7000    43.2000  123.0000  -999.2500  -999.2500  -999.2500     0.0000 1220.4800
 1221.0000    3.2000    42.2000  123.0000  -999.2500  -999.2500  -999.2500     0.0000 1220.9800
 1221.5000    3.6000    41.2000  123.0000  -999.2500  -999.2500  -999.2500     0.0000 1221.4800
 1222.0000    2.7000    47.8000  123.0000  -999.2500  -999.2500  -999.2500     0.0000 1221.9800
 1222.5000    2.5000    45.2000  122.0000  -999.2500  -999.2500  -999.2500     0.0000 1222.4800
 1223.0000    3.1000    44.8500  123.0000  -999.2500  -999.2500  -999.2500     0.0000 1222.9800
 1223.5000    2.5000    44.5000  123.0000  -999.2500  -999.2500  -999.2500     0.0000 1223.4700
 1224.0000    2.4000  42.96667  123.0000  -999.2500  -999.2500  -999.2500     0.0000 1223.9700
 1224.5000    3.0000  41.43333  123.0000  -999.2500  -999.2500  -999.2500     0.0000 1224.4700
 1225.0000    2.8000    39.9000  123.0000  -999.2500  -999.2500  -999.2500     0.0000 1224.9700
 1225.5000    2.5000    41.5500  123.0000  -999.2500  -999.2500  -999.2500     0.0000 1225.4700
 1226.0000    2.0000    43.2000  123.0000  -999.2500  -999.2500  -999.2500     0.0000 1225.9700
 1226.5000    1.1000    41.2500  123.0000  -999.2500  -999.2500  -999.2500     0.0000 1226.4700
 1227.0000    1.1000    39.3000  123.0000  -999.2500  -999.2500  -999.2500     0.0000 1226.9700
 1227.5000    1.1000    44.2000  123.0000  -999.2500  -999.2500  -999.2500     0.0000 1227.4700
 1228.0000    1.1000    49.1000  123.0000  -999.2500  -999.2500  -999.2500     0.0000 1227.9700
 1228.5000    1.0000    48.4000  123.0000  -999.2500  -999.2500  -999.2500     0.0000 1228.4700
 1229.0000    1.8000    53.0000  122.6000  -999.2500  -999.2500  -999.2500     0.0000 1228.9700
 1229.5000    4.2000    57.6000  123.0000  -999.2500  -999.2500  -999.2500     0.0000 1229.4700
 1230.0000    2.3000    54.0000  123.0000  -999.2500  -999.2500  -999.2500     0.0000 1229.9700
 1230.5000    2.4000    50.4000  123.0000  -999.2500  -999.2500  -999.2500     0.0000 1230.4700
 1231.0000    3.4000    51.5500  123.0000  -999.2500  -999.2500  -999.2500     0.0000 1230.9700
 1231.5000    8.8000    52.7000  123.0000  -999.2500  -999.2500  -999.2500     0.0000 1231.4700
 1232.0000   16.3000    49.1000  123.0000  -999.2500  -999.2500  -999.2500     0.0000 1231.9700
 1232.5000    7.8000    49.1000  123.0000  -999.2500  -999.2500  -999.2500     0.0000 1232.4700
 1233.0000    5.7000    50.4000  116.9000  -999.2500  -999.2500  -999.2500     0.0000 1232.9700
 1233.5000    5.2000    52.7000  123.0000  -999.2500  -999.2500  -999.2500     0.0000 1233.4700
 1234.0000    5.6000    55.0000  123.0000    -4.9800     1.7600     4.6800     0.0000 1233.9700
 1234.5000    9.0000    58.9000  123.0000    -4.98549 1.73429     4.6983     0.0000 1234.4700
 1235.0000    5.7000    56.9000  123.0000    -4.99099 1.70857     4.71659    0.0000 1234.9600
 1235.5000   10.1000    57.9000  123.0000    -4.99648 1.68286     4.73489    0.0000 1235.4600
 1236.0000   11.9000    58.9000  123.0000    -5.00198 1.65714     4.75319    0.0000 1235.9600
 1236.5000    6.4000    54.6000  121.8000    -5.00747 1.63143     4.77148    0.0000 1236.4600
 1237.0000    5.7000    60.2000  120.3000    -5.01297 1.60571     4.78978    0.0000 1236.9600
 1237.5000    6.9000    64.1000  123.0000    -5.01846    1.5800     4.80808    0.0000 1237.4600
 1238.0000    6.6000    63.1000  123.0000    -5.02396 1.55429     4.82637    0.0000 1237.9600
 1238.5000    5.9000    60.2000  121.4000    -5.02945 1.52857     4.84467    0.0000 1238.4600
 1239.0000    4.0000    61.5000  123.0000    -5.03495 1.50286     4.86297    0.0000 1238.9600
 1239.5000   10.0000    69.3000  121.0000    -5.04044 1.47714     4.88126    0.0000 1239.4600
 1240.0000    7.4000    66.1000  123.0000    -5.04593 1.45143     4.89956    0.0000 1239.9600
 1240.5000    5.4000    62.2000  123.0000    -5.05143 1.42571     4.91786    0.0000 1240.4600
 1241.0000    5.8000    67.1000  120.7000    -5.05692    1.4000     4.93615    0.0000 1240.9600
 1241.5000    5.9000    67.9000  123.0000    -5.06242 1.37429     4.95445    0.0000 1241.4600
