~Version Information Section
 VERS.      2.0         :CWLS LOG ASCII STANDARD -VERSION 2.0
 WRAP.      No          :SINGLE LINE PER DEPTH STEP
~Well Information Section
#MNEM.UNIT                      VALUE/NAME                 DESCRIPTION
#----.----     ----------------------------------   --------------------
 STRT    .ft           1200.0000                         :Start Depth
 STOP    .ft           6093.0000                         :Stop  Depth
 STEP    .ft              0.5000                         :Step  Depth
 NULL    .             -999.2500                         :Null value
 COMP    .          LEWIS ENERGY COLOMBIA                :Company Name
 WELL    .          La Estancia 1                        :Well Name
 PATH    .          ST1                                  :Path Name
 FLD     .          La Estancia                          :Field Name
 LOC     .          Default Facility                     :Location
 PROV    .          Unused                               :Province
 SRVC    .          BAKER HUGHES INTEQ                   :Service Company Name
 DATE    .          27/05/2015-07                        :05:20 SA Pacific Standard Time: System Date
 UWI     .                                               :Unique Well ID
 TIMEZONE.Hrs            -5.0000                         :Time zone difference from GMT
~Curve Information Section
#MNEM       .UNIT         CURVE DESCRIPTION
#----       .----         -------------------------
 DEPTH      .ft           :1 Depth Hole
 ROP_AVG    .ft/hr        :2 Time Averaged ROP
 GRAX       .API          :3 Gamma Ray - Apparent
 TCDX       .degF         :4 Downhole Temperature
 SRSP_CVSECT.ft           :5 Incremental Vertical Section
 SRSP_NS    .ft           :6 Position North
 SRSP_EW    .ft           :7 Position East
 LAGGAS     .unit         :8 Total Gas - Lagged
 TVD        .ft           :9 Vertical Depth
~Parameter Information Section
#MNEM.UNIT                      VALUE                       DESCRIPTION
#----.----     ----------------------------------   --------------------
~Other Information Section
Disclaimer
Any opinion and / or recommendation expressed orally or written herein, has been prepared
carefully and may be used if the user so elects, however, no representative or warranty is
made by ourselves or our agents as to the correctness or completeness, and no liability is
assumed for any damages resulting from use of the same.  Baker Hughes's liabilities and obligations
shall be governed by Baker Hughes's Standard Terms and Conditions.
Creator
Export
#----------------------------------------------------------------------
#
# Curve name cross reference:  XREF 'LAS Name' 'XTF Short Name' 'XTF Structured Name'
#
XREF DEPTH DEPTH DEPTH
XREF ROP_AVG ROPAVG GENTIME.ROP_AVG
XREF GRAX GRAX GAMMA.GRAX
XREF TCDX TCDX DOWNHOLE.TCDX
XREF SRSP_CVSECT SRSPCVSE SURVEY_STATION.SRSP_CVSECT
XREF SRSP_NS SRSPNS SURVEY_STATION.SRSP_NS
XREF SRSP_EW SRSPEW SURVEY_STATION.SRSP_EW
XREF LAGGAS LAGGAS LAGMUD.LAGGAS
XREF TVD TVD TVD
 
 
 
 
 
 
 

~A  DEPTH   ROP_AVG     GRAX       TCDX   SRSP_CVSECT  SRSP_NS   SRSP_EW     LAGGAS      TVD   
# ...
 2504.0000   72.9000    75.9000  139.2000    66.44097 -49.80688   -49.88215   13.0000 2499.5000
 2504.5000   57.7000    88.3000  139.2000    66.44081 -49.79796   -49.88624   15.0000 2500.0000
 2505.0000   55.5000    82.7500  139.2000    66.44065 -49.78903   -49.89032   13.5000 2500.5000
 2505.5000    8.7000    77.2000  139.2000    66.44048 -49.78011   -49.89441   12.0000 2501.0000
 2506.0000   11.46667   61.5000  139.2000    66.44032 -49.77118   -49.89849   12.0000 2501.5000
 2506.5000   14.23333   73.9000  139.2000    66.44016 -49.76226   -49.90258   13.0000 2502.0000
 2507.0000   17.0000    68.7000  139.2000    66.4400  -49.75333   -49.90667   14.0000 2502.5000
 2507.5000  131.9000    63.5000  139.2000    66.43984 -49.74441   -49.91075   14.0000 2503.0000
 2508.0000   51.7000    64.8000  139.2000    66.43968 -49.73548   -49.91484   14.0000 2503.5000
 2508.5000   48.8000    56.3000  139.2000    66.43952 -49.72656   -49.91892   14.0000 2504.0000
 2509.0000   46.1000    72.9000  139.2000    66.43935 -49.71763   -49.92301   14.0000 2504.5000
 2509.5000   44.1000    72.1000  139.2000    66.43919 -49.70871   -49.9271    13.5000 2505.0000
 2510.0000   43.6000    71.3000  139.2000    66.43903 -49.69978   -49.93118   13.0000 2505.5000
 2510.5000   42.1000    68.0000  139.2000    66.43887 -49.69086   -49.93527   13.0000 2506.0000
 2511.0000   31.8000    70.7000  139.2000    66.43871 -49.68194   -49.93935   14.0000 2506.5000
 2511.5000   39.6000    66.7000  139.2000    66.43855 -49.67301   -49.94344   14.0000 2507.0000
 2512.0000   39.4000    63.8000  139.2000    66.43839 -49.66409   -49.94753   14.0000 2507.5000
 2512.5000   11.0000    61.8000  139.2000    66.43823 -49.65516   -49.95161   14.0000 2508.0000
 2513.0000   28.1000    60.8000  139.2000    66.43806 -49.64624   -49.9557    14.0000 2508.5000
 2513.5000   64.5000    56.9000  139.2000    66.4379  -49.63731   -49.95978   14.0000 2509.0000
 2514.0000   80.3500    59.5000  139.2000    66.43774 -49.62839   -49.96387   14.0000 2509.5000
 2514.5000   96.2000    64.8000  139.2000    66.43758 -49.61946   -49.96796   14.0000 2510.0000
 2515.0000  104.4500    62.8000  139.2000    66.43742 -49.61054   -49.97204   13.0000 2510.5000
 2515.5000  112.7000    62.3000  139.2000    66.43726 -49.60161   -49.97613   13.0000 2511.0000
 2516.0000  124.1000    61.8000  139.2000    66.4371  -49.59269   -49.98022   13.0000 2511.5000
 2516.5000  135.5000    52.3000  139.2000    66.43694 -49.58376   -49.9843    11.0000 2512.0000
 2517.0000  144.63333   54.6000  139.2000    66.43677 -49.57484   -49.98839   14.0000 2512.5000
 2517.5000  153.76667   56.9000  139.2000    66.43661 -49.56591   -49.99247   14.0000 2513.0000
 2518.0000  162.9000    53.7000  139.2000    66.43645 -49.55699   -49.99656   13.5000 2513.5000
 2518.5000  168.4000    53.0000  139.2000    66.43629 -49.54806   -50.00065   13.0000 2514.0000
 2519.0000  173.9000    53.7000  139.2000    66.43613 -49.53914   -50.00473   11.0000 2514.5000
 2519.5000  179.4000    62.8000  139.2000    66.43597 -49.53022   -50.00882   11.0000 2515.0000
 2520.0000  184.9000    55.9000  138.42857   66.43581 -49.52129   -50.0129    11.0000 2515.5000
 2520.5000  188.4000    58.2000  137.65714   66.43565 -49.51237   -50.01699   13.0000 2516.0000
 2521.0000  191.9000    56.9000  136.88571   66.43548 -49.50344   -50.02108   13.0000 2516.5000
 2521.5000  195.4000    60.2000  136.11429   66.43532 -49.49452   -50.02516   13.0000 2517.0000
 2522.0000  199.6750    60.2000  135.34286   66.43516 -49.48559   -50.02925   13.5000 2517.5000
 2522.5000  203.9500    62.8000  134.57143   66.4350  -49.47667   -50.03333   14.0000 2518.0000
 2523.0000  208.2250    61.5000  133.8000    66.43484 -49.46774   -50.03742   14.0000 2518.5000
 2523.5000  212.5000    67.4000  133.8000    66.43468 -49.45882   -50.04151   14.0000 2519.0000
 2524.0000  214.0500    61.5000  133.8000    66.43452 -49.44989   -50.04559   16.0000 2519.5000
 2524.5000  215.6000    69.3000  133.8000    66.43435 -49.44097   -50.04968   18.0000 2520.0000
 2525.0000  217.1500    63.5000  133.8000    66.43419 -49.43204   -50.05376   10.0000 2520.5000
 2525.5000  218.7000    61.5000  133.8000    66.43403 -49.42312   -50.05785   10.0000 2521.0000
 2526.0000  207.6500    65.7000  133.8000    66.43387 -49.41419   -50.06194   13.0000 2521.5000
 2526.5000  196.6000    72.9000  133.8000    66.43371 -49.40527   -50.06602   16.0000 2522.0000
 2527.0000  173.8500    70.0000  133.8000    66.43355 -49.39634   -50.07011   16.0000 2522.5000
 2527.5000  151.1000    68.0000  133.8000    66.43339 -49.38742   -50.07419   22.0000 2523.0000
 2528.0000  134.2500    71.3000  133.8000    66.43323 -49.37849   -50.07828   22.5000 2523.5000
 2528.5000  117.4000    64.8000  133.8000    66.43306 -49.36957   -50.08237   23.0000 2524.0000
 2529.0000  117.2000    66.1000  133.8000    66.4329  -49.36065   -50.08645   23.0000 2524.5000
 2529.5000  117.0000    63.8000  133.8000    66.43274 -49.35172   -50.09054   31.0000 2525.0000
 2530.0000  119.93333   66.2500  133.8000    66.43258  -49.3428   -50.09462   28.0000 2525.5000
 2530.5000  122.86667   68.7000  133.8000    66.43242 -49.33387   -50.09871   28.0000 2526.0000
 2531.0000  125.8000    74.6000  134.4750    66.43226 -49.32495   -50.1028    28.0000 2526.5000
 2531.5000  144.83333   70.0000  135.1500    66.4321  -49.31602   -50.10688   24.0000 2527.0000
 2532.0000  163.86667   66.7500  135.8250    66.43194  -49.3071   -50.11097   22.0000 2527.5000
 2532.5000  182.9000    63.5000  136.5000    66.43177 -49.29817   -50.11505   22.0000 2528.0000
 2533.0000  194.9600    63.5000  137.1750    66.43161 -49.28925   -50.11914   22.0000 2528.5000
 2533.5000  207.0200    62.2000  137.8500    66.43145 -49.28032   -50.12323   18.0000 2528.9900
 2534.0000  219.0800    59.2500  138.5250    66.43129  -49.2714   -50.12731   17.0000 2529.4900
 2534.5000  231.1400    56.3000  139.2000    66.43113 -49.26247   -50.1314    17.0000 2529.9900
 2535.0000  243.2000    65.4000  137.8500    66.43097 -49.25355   -50.13548   17.0000 2530.4900
 2535.5000  242.3250    60.2000  136.5000    66.43081 -49.24462   -50.13957   18.0000 2530.9900
 2536.0000  241.4500    63.1000  135.1500    66.43065  -49.2357   -50.14366   20.0000 2531.4900
 2536.5000  240.5750    66.1000  133.8000    66.43048 -49.22677   -50.14774   20.0000 2531.9900
 2537.0000  239.7000    68.0000  134.3400    66.43032 -49.21785   -50.15183   20.0000 2532.4900
 2537.5000  208.3000    80.8000  134.8800    66.43016 -49.20892   -50.15591   18.0000 2532.9900
 2538.0000  176.9000    81.1000  135.4200    66.4300   -49.2000   -50.1600    24.0000 2533.4900
 2538.5000  118.4000    84.4000  135.9600    66.4284  -49.19479   -50.16069   24.0000 2533.9900
 2539.0000  102.2500    77.2000  136.5000    66.42681 -49.18957   -50.16138   27.5000 2534.4900
 2539.5000   86.1000    75.2000  136.5000    66.42521 -49.18436   -50.16207   31.0000 2534.9900
 2540.0000   81.9000    77.2000  136.5000    66.42362 -49.17915   -50.16277   30.0000 2535.4900
 2540.5000   86.3000    79.2000  136.5000    66.42202 -49.17394   -50.16346   30.0000 2535.9900
 2541.0000   88.7000    74.9500  136.5000    66.42043 -49.16872   -50.16415   29.0000 2536.4900
 2541.5000   91.1000    70.7000  136.5000    66.41883 -49.16351   -50.16484   28.0000 2536.9900
 2542.0000   96.0000    70.1000  136.5000    66.41723  -49.1583   -50.16553   24.0000 2537.4900
 2542.5000  100.9000    71.0000  136.5000    66.41564 -49.15309   -50.16622   24.0000 2537.9900
 2543.0000  108.7500    66.7000  136.5000    66.41404 -49.14787   -50.16691   22.5000 2538.4900
 2543.5000  116.6000    66.4000  136.5000    66.41245 -49.14266   -50.16761   21.0000 2538.9900
 2544.0000  113.5000    69.8000  136.5000    66.41085 -49.13745   -50.1683    20.0000 2539.4900
 2544.5000  110.4000    71.0000  136.5000    66.40926 -49.13223   -50.16899   20.0000 2539.9900
 2545.0000  113.2500    66.7000  136.5000    66.40766 -49.12702   -50.16968   19.0000 2540.4900
 2545.5000  116.1000    66.7000  136.5000    66.40606 -49.12181   -50.17037   18.0000 2540.9900
