~Version Information Section
 VERS.      2.0         :CWLS LOG ASCII STANDARD -VERSION 2.0
 WRAP.      No          :SINGLE LINE PER DEPTH STEP
~Well Information Section
#MNEM.UNIT                      VALUE/NAME                 DESCRIPTION
#----.----     ----------------------------------   --------------------
 STRT    .ft           1200.0000                         :Start Depth
 STOP    .ft           6093.0000                         :Stop  Depth
 STEP    .ft              0.5000                         :Step  Depth
 NULL    .             -999.2500                         :Null value
 COMP    .          LEWIS ENERGY COLOMBIA                :Company Name
 WELL    .          La Estancia 1                        :Well Name
 PATH    .          ST1                                  :Path Name
 FLD     .          La Estancia                          :Field Name
 LOC     .          Default Facility                     :Location
 PROV    .          Unused                               :Province
 SRVC    .          BAKER HUGHES INTEQ                   :Service Company Name
 DATE    .          27/05/2015-07                        :05:20 SA Pacific Standard Time: System Date
 UWI     .                                               :Unique Well ID
 TIMEZONE.Hrs            -5.0000                         :Time zone difference from GMT
~Curve Information Section
#MNEM       .UNIT         CURVE DESCRIPTION
#----       .----         -------------------------
 DEPTH      .ft           :1 Depth Hole
 ROP_AVG    .ft/hr        :2 Time Averaged ROP
 GRAX       .API          :3 Gamma Ray - Apparent
 TCDX       .degF         :4 Downhole Temperature
 SRSP_CVSECT.ft           :5 Incremental Vertical Section
 SRSP_NS    .ft           :6 Position North
 SRSP_EW    .ft           :7 Position East
 LAGGAS     .unit         :8 Total Gas - Lagged
 TVD        .ft           :9 Vertical Depth
~Parameter Information Section
#MNEM.UNIT                      VALUE                       DESCRIPTION
#----.----     ----------------------------------   --------------------
~Other Information Section
Disclaimer
Any opinion and / or recommendation expressed orally or written herein, has been prepared
carefully and may be used if the user so elects, however, no representative or warranty is
made by ourselves or our agents as to the correctness or completeness, and no liability is
assumed for any damages resulting from use of the same.  Baker Hughes's liabilities and obligations
shall be governed by Baker Hughes's Standard Terms and Conditions.
Creator
Export
#----------------------------------------------------------------------
#
# Curve name cross reference:  XREF 'LAS Name' 'XTF Short Name' 'XTF Structured Name'
#
XREF DEPTH DEPTH DEPTH
XREF ROP_AVG ROPAVG GENTIME.ROP_AVG
XREF GRAX GRAX GAMMA.GRAX
XREF TCDX TCDX DOWNHOLE.TCDX
XREF SRSP_CVSECT SRSPCVSE SURVEY_STATION.SRSP_CVSECT
XREF SRSP_NS SRSPNS SURVEY_STATION.SRSP_NS
XREF SRSP_EW SRSPEW SURVEY_STATION.SRSP_EW
XREF LAGGAS LAGGAS LAGMUD.LAGGAS
XREF TVD TVD TVD
 
 
 
 
 
 
 

~A  DEPTH   ROP_AVG     GRAX       TCDX   SRSP_CVSECT  SRSP_NS   SRSP_EW     LAGGAS      TVD   
# ...
 3134.0000   96.8500   104.7000  133.8000    67.49021 -55.27947   -48.44158  322.0000 3129.4100
 3134.5000  106.3000   109.2000  133.8000    67.49168 -55.28079   -48.44263  325.0000 3129.9100
 3135.0000  100.9000   115.1000  133.8000    67.49316 -55.28211   -48.44368  283.0000 3130.4100
 3135.5000  100.6500   124.3000  133.8000    67.49463 -55.28342   -48.44474  283.0000 3130.9100
 3136.0000  100.4000   122.9500  133.8000    67.49611 -55.28474   -48.44579  283.0000 3131.4100
 3136.5000  103.9500   121.6000  133.8000    67.49758 -55.28605   -48.44684  257.0000 3131.9100
 3137.0000  107.5000   134.2000  133.8000    67.49905 -55.28737   -48.44789  198.0000 3132.4100
 3137.5000  107.0500   146.8000  133.8000    67.50053 -55.28868   -48.44895  198.0000 3132.9100
 3138.0000  106.6000   139.8000  133.8000    67.5020   -55.2900   -48.4500   198.0000 3133.4100
 3138.5000   96.8000   132.8000  133.8000    67.50347 -55.29132   -48.45105  181.0000 3133.9100
 3139.0000   87.7000   123.9000  133.8000    67.50495 -55.29263   -48.45211  186.0000 3134.4100
 3139.5000   91.5500   109.2000  133.8000    67.50642 -55.29395   -48.45316  186.0000 3134.9100
 3140.0000   95.4000   107.6000  133.8000    67.50789 -55.29526   -48.45421  186.0000 3135.4100
 3140.5000  104.9500   106.0000  133.8000    67.50937 -55.29658   -48.45526  212.0000 3135.9100
 3141.0000  114.5000    99.7000  133.8000    67.51084 -55.29789   -48.45632  263.0000 3136.4100
 3141.5000  113.6500   100.1000  133.8000    67.51232 -55.29921   -48.45737  263.0000 3136.9100
 3142.0000  112.8000   130.8000  133.8000    67.51379 -55.30053   -48.45842  263.0000 3137.4100
 3142.5000  100.8000   151.7000  133.8000    67.51526 -55.30184   -48.45947  309.0000 3137.9100
 3143.0000  106.1000   103.3000  133.8000    67.51674 -55.30316   -48.46053  332.0000 3138.4100
 3143.5000  111.4000    98.1000  133.8000    67.51821 -55.30447   -48.46158  332.0000 3138.9100
 3144.0000  116.7000   149.8000  133.8000    67.51968 -55.30579   -48.46263  332.0000 3139.4100
 3144.5000  112.7000   135.4000  133.8000    67.52116 -55.30711   -48.46368  365.0000 3139.9100
 3145.0000  115.76667  114.5000  133.8000    67.52263 -55.30842   -48.46474  365.0000 3140.4100
 3145.5000  118.83333  131.5000  133.8000    67.52411 -55.30974   -48.46579  365.0000 3140.9100
 3146.0000  121.9000   146.5000  133.8000    67.52558 -55.31105   -48.46684  364.5000 3141.4100
 3146.5000  125.2500   160.2000  133.8000    67.52705 -55.31237   -48.46789  364.0000 3141.9100
 3147.0000  128.6000   140.0000  133.8000    67.52853 -55.31368   -48.46895  371.0000 3142.4100
 3147.5000  130.1000   173.3000  133.8000    67.5300   -55.3150   -48.4700   371.0000 3142.9100
 3148.0000  131.6000   175.6000  133.8000    67.53147 -55.31632   -48.47105  369.5000 3143.4100
 3148.5000  133.2000   153.7000  133.8000    67.53295 -55.31763   -48.47211  368.0000 3143.9100
 3149.0000  134.8000   137.7000  133.8000    67.53442 -55.31895   -48.47316  368.0000 3144.4100
 3149.5000  126.2000   120.0000  133.8000    67.53589 -55.32026   -48.47421  372.0000 3144.9100
 3150.0000  117.6000   107.9000  133.8000    67.53737 -55.32158   -48.47526  371.0000 3145.4100
 3150.5000  106.3000    85.0000  133.8000    67.53884 -55.32289   -48.47632  370.0000 3145.9100
 3151.0000  104.4000    72.6000  133.8000    67.54032 -55.32421   -48.47737  370.0000 3146.4100
 3151.5000  102.5000   112.1500  133.8000    67.54179 -55.32553   -48.47842  370.0000 3146.9100
 3152.0000  100.6000   151.7000  133.8000    67.54326 -55.32684   -48.47947  390.0000 3147.4100
 3152.5000  102.0000   133.4000  133.8000    67.54474 -55.32816   -48.48053  410.0000 3147.9100
 3153.0000  103.4000   102.5000  133.8000    67.54621 -55.32947   -48.48158  410.0000 3148.4100
 3153.5000  108.3000   171.3000  133.8000    67.54768 -55.33079   -48.48263  462.0000 3148.9100
 3154.0000  113.2000   117.4000  133.8000    67.54916 -55.33211   -48.48368  506.0000 3149.4100
 3154.5000  110.2000    63.5000  133.8000    67.55063 -55.33342   -48.48474  506.0000 3149.9100
 3155.0000  107.2000   140.6000  133.8000    67.55211 -55.33474   -48.48579  506.0000 3150.4100
 3155.5000   93.3000    85.7000  133.8000    67.55358 -55.33605   -48.48684  517.0000 3150.9100
 3156.0000   79.2000   110.8500  133.8000    67.55505 -55.33737   -48.48789  519.5000 3151.4100
 3156.5000   72.3000   136.0000  133.8000    67.55653 -55.33868   -48.48895  522.0000 3151.9100
 3157.0000   84.96667   98.1000  132.0000    67.5580   -55.3400   -48.4900   522.0000 3152.4100
 3157.5000   97.63333  124.3000  136.5000    67.55947 -55.34132   -48.49105  509.0000 3152.9100
 3158.0000  110.3000   289.0000  133.8000    67.56095 -55.34263   -48.49211  462.0000 3153.4100
 3158.5000   54.0000   270.1000  133.8000    67.56242 -55.34395   -48.49316  462.0000 3153.9100
 3159.0000   29.1000   222.7000  133.8000    67.56389 -55.34526   -48.49421  462.0000 3154.4100
 3159.5000   48.1000   175.3000  133.8000    67.56537 -55.34658   -48.49526  312.0000 3154.9100
 3160.0000   31.5000   192.3000  133.8000    67.56684 -55.34789   -48.49632  284.0000 3155.4100
 3160.5000   51.2000   174.6000  133.8000    67.56832 -55.34921   -48.49737  284.0000 3155.9100
 3161.0000   39.4000   192.3000  133.8000    67.56979 -55.35053   -48.49842  284.0000 3156.4100
 3161.5000   37.4000   135.7000  133.8000    67.57126 -55.35184   -48.49947  260.0000 3156.9100
 3162.0000   48.7000   107.2500  133.8000    67.57274 -55.35316   -48.50053   33.0000 3157.4100
 3162.5000   42.1000    78.8000  133.8000    67.57421 -55.35447   -48.50158   33.0000 3157.9100
 3163.0000   46.2000   105.6000  133.8000    67.57568 -55.35579   -48.50263   33.0000 3158.4100
 3163.5000   53.6000   163.5000  133.8000    67.57716 -55.35711   -48.50368   52.0000 3158.9100
 3164.0000   56.2000   153.7000  133.8000    67.57863 -55.35842   -48.50474   71.0000 3159.4100
 3164.5000   41.6000   171.3000  133.8000    67.58011 -55.35974   -48.50579   71.0000 3159.9100
 3165.0000   50.8000   139.6000  133.8000    67.58158 -55.36105   -48.50684   72.5000 3160.4100
 3165.5000   48.0000    78.5000  133.8000    67.58305 -55.36237   -48.50789   74.0000 3160.9100
 3166.0000   46.9000    65.7000  133.8000    67.58453 -55.36368   -48.50895   69.0000 3161.4100
 3166.5000   55.3000   119.7000  133.8000    67.5860   -55.3650   -48.5100    69.0000 3161.9100
 3167.0000   64.2000   179.8000  133.8000    67.58747 -55.36632   -48.51105   77.0000 3162.4100
 3167.5000   61.0000   174.0000  133.8000    67.58895 -55.36763   -48.51211   85.0000 3162.9100
 3168.0000   63.6000   133.7000  133.8000    67.59042 -55.36895   -48.51316   85.0000 3163.4100
 3168.5000   67.0000   105.3000  133.8000    67.59189 -55.37026   -48.51421   93.0000 3163.9100
 3169.0000   63.4000    78.2000  133.8000    67.59337 -55.37158   -48.51526   93.0000 3164.4100
 3169.5000   66.6000    89.6000  133.8000    67.59484 -55.37289   -48.51632   93.0000 3164.9100
 3170.0000   72.5500   126.2000  134.7000    67.59632 -55.37421   -48.51737   93.0000 3165.4100
 3170.5000   78.5000   146.2000  134.7000    67.59779 -55.37553   -48.51842   95.0000 3165.9100
 3171.0000   48.8000   157.2000  134.7000    67.59926 -55.37684   -48.51947  100.0000 3166.4100
 3171.5000   48.7000   191.0000  134.7000    67.60074 -55.37816   -48.52053  105.0000 3166.9100
 3172.0000   53.5000   161.5000  136.5000    67.60221 -55.37947   -48.52158  105.0000 3167.4100
 3172.5000   58.3000   111.8000  135.8250    67.60368 -55.38079   -48.52263  132.0000 3167.9100
 3173.0000   85.6000    77.8000  135.1500    67.60516 -55.38211   -48.52368  150.5000 3168.4100
 3173.5000   81.8000    63.5000  134.4750    67.60663 -55.38342   -48.52474  169.0000 3168.9100
 3174.0000   63.0000    49.1000  133.8000    67.60811 -55.38474   -48.52579  169.0000 3169.4100
 3174.5000   55.4000    86.7000  136.5000    67.60958 -55.38605   -48.52684  161.0000 3169.9100
 3175.0000   63.2000   111.2000  139.2000    67.61105 -55.38737   -48.52789  136.0000 3170.4100
 3175.5000   71.0000   151.7000  136.5000    67.61253 -55.38868   -48.52895  136.0000 3170.9100
