~Version Information Section
 VERS.      2.0         :CWLS LOG ASCII STANDARD -VERSION 2.0
 WRAP.      No          :SINGLE LINE PER DEPTH STEP
~Well Information Section
#MNEM.UNIT                      VALUE/NAME                 DESCRIPTION
#----.----     ----------------------------------   --------------------
 STRT    .ft           1200.0000                         :Start Depth
 STOP    .ft           6093.0000                         :Stop  Depth
 STEP    .ft              0.5000                         :Step  Depth
 NULL    .             -999.2500                         :Null value
 COMP    .          LEWIS ENERGY COLOMBIA                :Company Name
 WELL    .          La Estancia 1                        :Well Name
 PATH    .          ST1                                  :Path Name
 FLD     .          La Estancia                          :Field Name
 LOC     .          Default Facility                     :Location
 PROV    .          Unused                               :Province
 SRVC    .          BAKER HUGHES INTEQ                   :Service Company Name
 DATE    .          27/05/2015-07                        :05:20 SA Pacific Standard Time: System Date
 UWI     .                                               :Unique Well ID
 TIMEZONE.Hrs            -5.0000                         :Time zone difference from GMT
~Curve Information Section
#MNEM       .UNIT         CURVE DESCRIPTION
#----       .----         -------------------------
 DEPTH      .ft           :1 Depth Hole
 ROP_AVG    .ft/hr        :2 Time Averaged ROP
 GRAX       .API          :3 Gamma Ray - Apparent
 TCDX       .degF         :4 Downhole Temperature
 SRSP_CVSECT.ft           :5 Incremental Vertical Section
 SRSP_NS    .ft           :6 Position North
 SRSP_EW    .ft           :7 Position East
 LAGGAS     .unit         :8 Total Gas - Lagged
 TVD        .ft           :9 Vertical Depth
~Parameter Information Section
#MNEM.UNIT                      VALUE                       DESCRIPTION
#----.----     ----------------------------------   --------------------
~Other Information Section
Disclaimer
Any opinion and / or recommendation expressed orally or written herein, has been prepared
carefully and may be used if the user so elects, however, no representative or warranty is
made by ourselves or our agents as to the correctness or completeness, and no liability is
assumed for any damages resulting from use of the same.  Baker Hughes's liabilities and obligations
shall be governed by Baker Hughes's Standard Terms and Conditions.
Creator
Export
#----------------------------------------------------------------------
#
# Curve name cross reference:  XREF 'LAS Name' 'XTF Short Name' 'XTF Structured Name'
#
XREF DEPTH DEPTH DEPTH
XREF ROP_AVG ROPAVG GENTIME.ROP_AVG
XREF GRAX GRAX GAMMA.GRAX
XREF TCDX TCDX DOWNHOLE.TCDX
XREF SRSP_CVSECT SRSPCVSE SURVEY_STATION.SRSP_CVSECT
XREF SRSP_NS SRSPNS SURVEY_STATION.SRSP_NS
XREF SRSP_EW SRSPEW SURVEY_STATION.SRSP_EW
XREF LAGGAS LAGGAS LAGMUD.LAGGAS
XREF TVD TVD TVD
 
 
 
 
 
 
 

~A  DEPTH   ROP_AVG     GRAX       TCDX   SRSP_CVSECT  SRSP_NS   SRSP_EW     LAGGAS      TVD   
# ...
 4430.0000   57.9000   153.0000  144.6000   568.04178 -254.78133  -507.83511   35.0000 4256.9100
 4430.5000   83.3500   165.5000  144.6000   568.46322 -254.95367  -508.21989   42.0000 4257.1800
 4431.0000  108.8000   153.9000  144.6000   568.88467 -255.1260  -508.60467   42.0000 4257.4600
 4431.5000  116.66667  157.6000  144.6000   569.30611 -255.29833  -508.98944   42.0000 4257.7300
 4432.0000  124.53333  163.5000  141.9000   569.72756 -255.47067  -509.37422   42.0000 4258.0000
 4432.5000  132.4000   150.2000  142.5750   570.1490  -255.6430  -509.7590    40.0000 4258.2700
 4433.0000  136.8000   151.7000  143.2500   570.57044 -255.81533  -510.14378   43.0000 4258.5500
 4433.5000  141.2000   150.6000  143.9250   570.99189 -255.98767  -510.52856   43.0000 4258.8200
 4434.0000   65.2000   149.1000  144.6000   571.41333 -256.1600  -510.91333   43.0000 4259.0900
 4434.5000   53.6000   135.4000  144.6000   571.83478 -256.33233  -511.29811   66.0000 4259.3600
 4435.0000   65.8500   127.9000  144.6000   572.25622 -256.50467  -511.68289  159.0000 4259.6300
 4435.5000   78.1000   109.2000  144.6000   572.67767 -256.6770  -512.06767  159.0000 4259.9000
 4436.0000   51.8000   124.3000  144.6000   573.09911 -256.84933  -512.45244  173.5000 4260.1700
 4436.5000   39.1000    68.0000  144.6000   573.52056 -257.02167  -512.83722  188.0000 4260.4500
 4437.0000   30.3000    72.6000  144.6000   573.9420  -257.1940  -513.2220    66.0000 4260.7200
 4437.5000   26.7000    98.8000  144.6000   574.36344 -257.36633  -513.60678   66.0000 4260.9900
 4438.0000   31.3000    79.8000  144.6000   574.78489 -257.53867  -513.99156   79.0000 4261.2600
 4438.5000   38.6000   148.5000  144.6000   575.20633 -257.7110  -514.37633   92.0000 4261.5300
 4439.0000   52.4000   182.5000  144.6000   575.62778 -257.88333  -514.76111   92.0000 4261.8000
 4439.5000   51.4000   194.9000  144.6000   576.04922 -258.05567  -515.14589  130.0000 4262.0700
 4440.0000   27.2000   207.3000  144.6000   576.47067 -258.2280  -515.53067  124.5000 4262.3300
 4440.5000   13.8000   198.8000  144.6000   576.89211 -258.40033  -515.91544  119.0000 4262.6000
 4441.0000   28.4000   179.8000  144.6000   577.31356 -258.57267  -516.30022  119.0000 4262.8700
 4441.5000   33.5000   156.0000  144.6000   577.7350  -258.7450  -516.6850    83.0000 4263.1400
 4442.0000   22.4000    91.9000  144.6000   578.15644 -258.91733  -517.06978   74.0000 4263.4100
 4442.5000   26.1000    61.5000  144.6000   578.57789 -259.08967  -517.45456   65.0000 4263.6800
 4443.0000   24.8000    43.2000  144.6000   578.99933 -259.2620  -517.83933   65.0000 4263.9500
 4443.5000   23.9000    44.5000  144.6000   579.42078 -259.43433  -518.22411   47.0000 4264.2200
 4444.0000   26.3000  55.93333  144.6000   579.84222 -259.60667  -518.60889   59.0000 4264.4800
 4444.5000   33.4000  67.36667  144.6000   580.26367 -259.7790  -518.99367   59.0000 4264.7500
 4445.0000   42.5000    78.8000  144.6000   580.68511 -259.95133  -519.37844   59.0000 4265.0200
 4445.5000   40.3000    85.0000  144.6000   581.10656 -260.12367  -519.76322   82.0000 4265.2900
 4446.0000   32.3000    71.0000  144.6000   581.5280  -260.2960  -520.1480    84.0000 4265.5500
 4446.5000   30.8000    56.9000  144.6000   581.94944 -260.46833  -520.53278   84.0000 4265.8200
 4447.0000   31.4000    41.2000  144.6000   582.37089 -260.64067  -520.91756   84.0000 4266.0900
 4447.5000   34.5000    45.8000  144.6000   582.79233 -260.8130  -521.30233   85.0000 4266.3500
 4448.0000   36.8000    49.1000  144.6000   583.21378 -260.98533  -521.68711   83.0000 4266.6200
 4448.5000   33.2000    51.0000  144.6000   583.63522 -261.15767  -522.07189   83.0000 4266.8900
 4449.0000   34.3000    45.2000  144.6000   584.05667 -261.3300  -522.45667   83.0000 4267.1500
 4449.5000   29.0000    43.2000  144.6000   584.47811 -261.50233  -522.84144  102.0000 4267.4200
 4450.0000   31.3000    37.3000  144.6000   584.89956 -261.67467  -523.22622  103.0000 4267.6800
 4450.5000   26.9000    32.1000  144.6000   585.3210  -261.8470  -523.6110   103.0000 4267.9500
 4451.0000   30.8000    30.1000  144.6000   585.74244 -262.01933  -523.99578  103.0000 4268.2100
 4451.5000   30.4000    37.3000  144.6000   586.16389 -262.19167  -524.38056   77.0000 4268.4800
 4452.0000   29.9000    36.0000  144.6000   586.58533 -262.3640  -524.76533   61.0000 4268.7400
 4452.5000   36.3000    34.7000  144.6000   587.00678 -262.53633  -525.15011   61.0000 4269.0100
 4453.0000   33.2000    33.4000  144.6000   587.42822 -262.70867  -525.53489   61.0000 4269.2700
 4453.5000   31.5000    39.3000  144.6000   587.84967 -262.8810  -525.91967   61.0000 4269.5400
 4454.0000   33.7000    43.8000  144.6000   588.27111 -263.05333  -526.30444   77.0000 4269.8000
 4454.5000   41.0000    48.4000  144.6000   588.69256 -263.22567  -526.68922   77.0000 4270.0700
 4455.0000   21.9000    55.0000  144.6000   589.1140  -263.3980  -527.0740    84.0000 4270.3300
 4455.5000   28.3000    47.8000  144.6000   589.53544 -263.57033  -527.45878   91.0000 4270.5900
 4456.0000   30.3000    46.6500  144.6000   589.95689 -263.74267  -527.84356   88.0000 4270.8600
 4456.5000   27.4000    45.5000  144.6000   590.37833 -263.9150  -528.22833   88.0000 4271.1200
 4457.0000   18.2000    43.2000  144.6000   590.79978 -264.08733  -528.61311   79.0000 4271.3800
 4457.5000   21.6000    54.0000  144.6000   591.22122 -264.25967  -528.99789   70.0000 4271.6500
 4458.0000   29.7000    53.0000  144.6000   591.64267 -264.4320  -529.38267   81.0000 4271.9100
 4458.5000   32.0000    43.8000  144.6000   592.06411 -264.60433  -529.76744   81.0000 4272.1700
 4459.0000    6.1000    49.1000  144.6000   592.48556 -264.77667  -530.15222   59.0000 4272.4300
 4459.5000   20.8000  54.86667  144.6000   592.9070  -264.9490  -530.5370    37.0000 4272.7000
 4460.0000   40.7000  60.63333  144.6000   593.32844 -265.12133  -530.92178   61.0000 4272.9600
 4460.5000   39.6000    66.4000  144.6000   593.74989 -265.29367  -531.30656   61.0000 4273.2200
 4461.0000   45.2000    62.8000  144.6000   594.17133 -265.4660  -531.69133   79.5000 4273.4800
 4461.5000   40.5000    56.9000  144.6000   594.59278 -265.63833  -532.07611   98.0000 4273.7400
 4462.0000   40.2000    59.5000  144.6000   595.01422 -265.81067  -532.46089   98.0000 4274.0000
 4462.5000   48.2000    73.3000  144.6000   595.43567 -265.9830  -532.84567  109.0000 4274.2700
 4463.0000   56.2000    50.7000  144.6000   595.85711 -266.15533  -533.23044  129.0000 4274.5300
 4463.5000   58.8000    43.8000  144.6000   596.27856 -266.32767  -533.61522  149.0000 4274.7900
 4464.0000   39.6000    39.2500  144.6000   596.7000  -266.5000  -534.0000   149.0000 4275.0500
 4464.5000   34.9000    34.7000  144.6000   597.1342  -266.6795  -534.3954   184.0000 4275.3100
 4465.0000   36.3000    30.8000  144.6000   597.5684  -266.8590  -534.7908   181.0000 4275.5700
 4465.5000   40.0000    38.0000  144.6000   598.0026  -267.0385  -535.1862   178.0000 4275.8300
 4466.0000   48.3000    67.0000  144.6000   598.4368  -267.2180  -535.5816   178.0000 4276.0900
 4466.5000   55.5000    73.4000  144.6000   598.8710  -267.3975  -535.9770   144.0000 4276.3500
 4467.0000   64.4000    79.8000  144.6000   599.3052  -267.5770  -536.3724   104.0000 4276.6100
 4467.5000   71.4000    80.3000  144.6000   599.7394  -267.7565  -536.7678   104.0000 4276.8600
 4468.0000   75.4500    93.2000  144.6000   600.1736  -267.9360  -537.1632   104.0000 4277.1200
 4468.5000   79.5000   113.2000  144.6000   600.6078  -268.1155  -537.5586   100.0000 4277.3800
 4469.0000   81.5500    91.6000  144.6000   601.0420  -268.2950  -537.9540   120.0000 4277.6400
 4469.5000   83.6000    88.6000  144.6000   601.4762  -268.4745  -538.3494   120.0000 4277.9000
 4470.0000   51.8000    80.8000  144.6000   601.9104  -268.6540  -538.7448   120.0000 4278.1500
 4470.5000   47.3000    82.7000  144.6000   602.3446  -268.8335  -539.1402   134.0000 4278.4100
 4471.0000   50.7000    80.9000  144.6000   602.7788  -269.0130  -539.5356   155.0000 4278.6700
