~Version Information Section
 VERS.      2.0         :CWLS LOG ASCII STANDARD -VERSION 2.0
 WRAP.      No          :SINGLE LINE PER DEPTH STEP
~Well Information Section
#MNEM.UNIT                      VALUE/NAME                 DESCRIPTION
#----.----     ----------------------------------   --------------------
 STRT    .ft           1200.0000                         :Start Depth
 STOP    .ft           6093.0000                         :Stop  Depth
 STEP    .ft              0.5000                         :Step  Depth
 NULL    .             -999.2500                         :Null value
 COMP    .          LEWIS ENERGY COLOMBIA                :Company Name
 WELL    .          La Estancia 1                        :Well Name
 PATH    .          ST1                                  :Path Name
 FLD     .          La Estancia                          :Field Name
 LOC     .          Default Facility                     :Location
 PROV    .          Unused                               :Province
 SRVC    .          BAKER HUGHES INTEQ                   :Service Company Name
 DATE    .          27/05/2015-07                        :05:20 SA Pacific Standard Time: System Date
 UWI     .                                               :Unique Well ID
 TIMEZONE.Hrs            -5.0000                         :Time zone difference from GMT
~Curve Information Section
#MNEM       .UNIT         CURVE DESCRIPTION
#----       .----         -------------------------
 DEPTH      .ft           :1 Depth Hole
 ROP_AVG    .ft/hr        :2 Time Averaged ROP
 GRAX       .API          :3 Gamma Ray - Apparent
 TCDX       .degF         :4 Downhole Temperature
 SRSP_CVSECT.ft           :5 Incremental Vertical Section
 SRSP_NS    .ft           :6 Position North
 SRSP_EW    .ft           :7 Position East
 LAGGAS     .unit         :8 Total Gas - Lagged
 TVD        .ft           :9 Vertical Depth
~Parameter Information Section
#MNEM.UNIT                      VALUE                       DESCRIPTION
#----.----     ----------------------------------   --------------------
~Other Information Section
Disclaimer
Any opinion and / or recommendation expressed orally or written herein, has been prepared
carefully and may be used if the user so elects, however, no representative or warranty is
made by ourselves or our agents as to the correctness or completeness, and no liability is
assumed for any damages resulting from use of the same.  Baker Hughes's liabilities and obligations
shall be governed by Baker Hughes's Standard Terms and Conditions.
Creator
Export
#----------------------------------------------------------------------
#
# Curve name cross reference:  XREF 'LAS Name' 'XTF Short Name' 'XTF Structured Name'
#
XREF DEPTH DEPTH DEPTH
XREF ROP_AVG ROPAVG GENTIME.ROP_AVG
XREF GRAX GRAX GAMMA.GRAX
XREF TCDX TCDX DOWNHOLE.TCDX
XREF SRSP_CVSECT SRSPCVSE SURVEY_STATION.SRSP_CVSECT
XREF SRSP_NS SRSPNS SURVEY_STATION.SRSP_NS
XREF SRSP_EW SRSPEW SURVEY_STATION.SRSP_EW
XREF LAGGAS LAGGAS LAGMUD.LAGGAS
XREF TVD TVD TVD
 
 
 
 
 
 
 

~A  DEPTH   ROP_AVG     GRAX       TCDX   SRSP_CVSECT  SRSP_NS   SRSP_EW     LAGGAS      TVD   
# ...
 3764.0000  202.1000   153.7000  139.2000   152.5000   -87.6800  -127.1600    94.0000 3749.8100
 3764.5000  198.0000   153.0500  139.2000   152.69178 -87.75289  -127.33767   91.0000 3750.2800
 3765.0000  193.9000   152.4000  139.2000   152.88356 -87.82578  -127.51533  104.0000 3750.7400
 3765.5000  189.2000   154.3000  139.2000   153.07533 -87.89867  -127.6930   104.0000 3751.2100
 3766.0000  184.5000   151.8500  139.2000   153.26711 -87.97156  -127.87067  104.0000 3751.6700
 3766.5000  179.8000   149.4000  139.2000   153.45889 -88.04444  -128.04833  114.0000 3752.1400
 3767.0000  173.7000   162.8000  136.5000   153.65067 -88.11733  -128.2260   136.0000 3752.6000
 3767.5000  167.6000   146.1000  137.4000   153.84244 -88.19022  -128.40367  136.0000 3753.0700
 3768.0000  161.5000   147.1000  138.3000   154.03422 -88.26311  -128.58133  146.0000 3753.5300
 3768.5000  160.4500   148.0000  139.2000   154.2260   -88.3360  -128.7590   156.0000 3754.0000
 3769.0000  159.4000   150.7000  138.5250   154.41778 -88.40889  -128.93667  156.0000 3754.4600
 3769.5000  157.73333  142.6000  137.8500   154.60956 -88.48178  -129.11433  156.0000 3754.9300
 3770.0000  156.06667  147.6000  137.1750   154.80133 -88.55467  -129.2920   159.0000 3755.3900
 3770.5000  154.4000   151.1000  136.5000   154.99311 -88.62756  -129.46967  162.0000 3755.8600
 3771.0000  110.4500   147.9000  136.5000   155.18489 -88.70044  -129.64733   33.0000 3756.3200
 3771.5000   66.5000   150.7000  137.8500   155.37667 -88.77333  -129.8250    33.0000 3756.7800
 3772.0000   48.9000   153.5000  139.2000   155.56844 -88.84622  -130.00267   32.5000 3757.2500
 3772.5000   47.7000   152.4000  139.2000   155.76022 -88.91911  -130.18033   32.0000 3757.7100
 3773.0000   48.3000   165.5000  139.2000   155.9520   -88.9920  -130.3580    33.0000 3758.1800
 3773.5000   51.7000   145.8000  139.2000   156.14378 -89.06489  -130.53567   33.0000 3758.6400
 3774.0000   66.7500   143.5500  139.2000   156.33556 -89.13778  -130.71333   44.0000 3759.1000
 3774.5000   81.8000   141.3000  139.2000   156.52733 -89.21067  -130.8910    55.0000 3759.5700
 3775.0000   96.6000   145.4000  139.2000   156.71911 -89.28356  -131.06867   55.0000 3760.0300
 3775.5000   60.7000   149.5000  139.2000   156.91089 -89.35644  -131.24633   58.0000 3760.4900
 3776.0000   13.7000   164.8000  139.2000   157.10267 -89.42933  -131.4240    43.0000 3760.9600
 3776.5000   23.4000   162.2000  139.2000   157.29444 -89.50222  -131.60167   43.0000 3761.4200
 3777.0000   25.0000   159.6000  139.2000   157.48622 -89.57511  -131.77933   43.0000 3761.8800
 3777.5000   50.1000   147.1000  139.2000   157.6780   -89.6480  -131.9570    45.0000 3762.3500
 3778.0000   73.6000   142.6000  139.2000   157.86978 -89.72089  -132.13467   44.0000 3762.8100
 3778.5000   76.3000   145.2000  139.2000   158.06156 -89.79378  -132.31233   44.0000 3763.2700
 3779.0000   65.7000   149.8000  139.2000   158.25333 -89.86667  -132.4900    44.0000 3763.7400
 3779.5000   62.1000  149.13333  139.2000   158.44511 -89.93956  -132.66767   54.0000 3764.2000
 3780.0000   64.2500  148.46667  139.2000   158.63689 -90.01244  -132.84533   59.0000 3764.6600
 3780.5000   66.4000   147.8000  139.2000   158.82867 -90.08533  -133.0230    64.0000 3765.1200
 3781.0000   72.8000  147.13333  139.2000   159.02044 -90.15822  -133.20067   64.0000 3765.5900
 3781.5000   78.6000  146.46667  139.2000   159.21222 -90.23111  -133.37833   80.0000 3766.0500
 3782.0000   77.8500   145.8000  139.2000   159.4040   -90.3040  -133.5560    85.0000 3766.5100
 3782.5000   77.1000   151.7000  139.2000   159.59578 -90.37689  -133.73367   85.0000 3766.9700
 3783.0000   65.2000   160.2000  139.2000   159.78756 -90.44978  -133.91133   85.0000 3767.4400
 3783.5000   62.5500   154.6500  139.2000   159.97933 -90.52267  -134.0890    93.0000 3767.9000
 3784.0000   59.9000   149.1000  139.2000   160.17111 -90.59556  -134.26667  100.0000 3768.3600
 3784.5000   71.1000   147.8000  139.2000   160.36289 -90.66844  -134.44433  100.0000 3768.8200
 3785.0000   77.7000   143.9000  138.6600   160.55467 -90.74133  -134.6220   100.0000 3769.2800
 3785.5000   84.3000   140.0000  138.1200   160.74644 -90.81422  -134.79967   99.0000 3769.7500
 3786.0000   80.8000   146.7000  137.5800   160.93822 -90.88711  -134.97733  114.0000 3770.2100
 3786.5000   81.7000   153.4000  137.0400   161.1300   -90.9600  -135.1550   114.0000 3770.6700
 3787.0000   83.7000   143.9000  136.5000   161.32178 -91.03289  -135.33267  112.0000 3771.1300
 3787.5000   85.7000   151.1000  137.4000   161.51356 -91.10578  -135.51033  110.0000 3771.5900
 3788.0000   96.0000   140.0000  138.3000   161.70533 -91.17867  -135.6880   122.0000 3772.0500
 3788.5000   98.5500   150.4000  139.2000   161.89711 -91.25156  -135.86567  122.0000 3772.5200
 3789.0000  101.1000   145.5000  139.2000   162.08889 -91.32444  -136.04333  129.0000 3772.9800
 3789.5000  105.0000   145.2000  139.2000   162.28067 -91.39733  -136.2210   136.0000 3773.4400
 3790.0000  108.9000   144.2000  139.2000   162.47244 -91.47022  -136.39867  139.0000 3773.9000
 3790.5000  105.8000   143.2000  139.2000   162.66422 -91.54311  -136.57633  139.0000 3774.3600
 3791.0000  102.7000   140.6000  139.2000   162.8560   -91.6160  -136.7540   144.5000 3774.8200
 3791.5000  102.2500   137.3000  139.2000   163.04778 -91.68889  -136.93167  150.0000 3775.2800
 3792.0000  101.8000   147.1000  139.2000   163.23956 -91.76178  -137.10933  146.0000 3775.7400
 3792.5000   95.6000   142.8500  139.2000   163.43133 -91.83467  -137.2870   146.0000 3776.2000
 3793.0000   81.2000   138.6000  139.2000   163.62311 -91.90756  -137.46467  144.5000 3776.6600
 3793.5000   80.7000   132.8000  139.2000   163.81489 -91.98044  -137.64233  143.0000 3777.1300
 3794.0000   80.2000   134.7000  139.2000   164.00667 -92.05333  -137.8200   144.0000 3777.5900
 3794.5000   90.8000   141.9000  139.2000   164.19844 -92.12622  -137.99767  144.0000 3778.0500
 3795.0000   99.4000   142.4750  139.2000   164.39022 -92.19911  -138.17533  148.5000 3778.5100
 3795.5000  108.0000   143.0500  139.2000   164.5820   -92.2720  -138.3530   153.0000 3778.9700
 3796.0000   89.3000   143.6250  139.2000   164.77378 -92.34489  -138.53067  153.0000 3779.4300
 3796.5000   63.1000   144.2000  139.2000   164.96556 -92.41778  -138.70833  146.0000 3779.8900
 3797.0000   57.5000   134.7000  139.2000   165.15733 -92.49067  -138.8860   141.5000 3780.3500
 3797.5000   71.4500   139.3000  139.2000   165.34911 -92.56356  -139.06367  137.0000 3780.8100
 3798.0000   85.4000   131.5000  139.2000   165.54089 -92.63644  -139.24133  137.0000 3781.2700
 3798.5000  104.3000   131.5000  139.2000   165.73267 -92.70933  -139.4190   136.0000 3781.7300
 3799.0000   95.0500   138.0000  139.2000   165.92444 -92.78222  -139.59667  135.5000 3782.1900
 3799.5000   85.8000   139.0000  139.2000   166.11622 -92.85511  -139.77433  135.0000 3782.6400
 3800.0000   73.4000   135.2500  139.2000   166.3080   -92.9280  -139.9520   135.0000 3783.1000
 3800.5000   76.6000   131.5000  139.2000   166.49978 -93.00089  -140.12967  104.0000 3783.5600
 3801.0000   79.8000   147.8000  139.2000   166.69156 -93.07378  -140.30733  104.0000 3784.0200
 3801.5000   91.1250   142.6000  139.2000   166.88333 -93.14667  -140.4850   104.0000 3784.4800
 3802.0000  102.4500   142.6000  139.2000   167.07511 -93.21956  -140.66267  104.0000 3784.9400
 3802.5000  113.7750   143.2000  139.2000   167.26689 -93.29244  -140.84033  116.0000 3785.4000
 3803.0000  125.1000   145.8000  139.2000   167.45867 -93.36533  -141.0180   118.0000 3785.8600
 3803.5000  150.96667  141.3000  139.2000   167.65044 -93.43822  -141.19567  118.0000 3786.3200
 3804.0000  176.83333  142.6000  139.2000   167.84222 -93.51111  -141.37333  118.0000 3786.7800
 3804.5000  202.7000   141.3000  139.2000   168.0340   -93.5840  -141.5510   104.0000 3787.2300
 3805.0000  197.06667  140.0000  139.2000   168.22578 -93.65689  -141.72867  102.0000 3787.6900
 3805.5000  191.43333  136.0000  139.2000   168.41756 -93.72978  -141.90633  102.0000 3788.1500
