~Version Information Section
 VERS.      2.0         :CWLS LOG ASCII STANDARD -VERSION 2.0
 WRAP.      No          :SINGLE LINE PER DEPTH STEP
~Well Information Section
#MNEM.UNIT                      VALUE/NAME                 DESCRIPTION
#----.----     ----------------------------------   --------------------
 STRT    .ft           1200.0000                         :Start Depth
 STOP    .ft           6093.0000                         :Stop  Depth
 STEP    .ft              0.5000                         :Step  Depth
 NULL    .             -999.2500                         :Null value
 COMP    .          LEWIS ENERGY COLOMBIA                :Company Name
 WELL    .          La Estancia 1                        :Well Name
 PATH    .          ST1                                  :Path Name
 FLD     .          La Estancia                          :Field Name
 LOC     .          Default Facility                     :Location
 PROV    .          Unused                               :Province
 SRVC    .          BAKER HUGHES INTEQ                   :Service Company Name
 DATE    .          27/05/2015-07                        :05:20 SA Pacific Standard Time: System Date
 UWI     .                                               :Unique Well ID
 TIMEZONE.Hrs            -5.0000                         :Time zone difference from GMT
~Curve Information Section
#MNEM       .UNIT         CURVE DESCRIPTION
#----       .----         -------------------------
 DEPTH      .ft           :1 Depth Hole
 ROP_AVG    .ft/hr        :2 Time Averaged ROP
 GRAX       .API          :3 Gamma Ray - Apparent
 TCDX       .degF         :4 Downhole Temperature
 SRSP_CVSECT.ft           :5 Incremental Vertical Section
 SRSP_NS    .ft           :6 Position North
 SRSP_EW    .ft           :7 Position East
 LAGGAS     .unit         :8 Total Gas - Lagged
 TVD        .ft           :9 Vertical Depth
~Parameter Information Section
#MNEM.UNIT                      VALUE                       DESCRIPTION
#----.----     ----------------------------------   --------------------
~Other Information Section
Disclaimer
Any opinion and / or recommendation expressed orally or written herein, has been prepared
carefully and may be used if the user so elects, however, no representative or warranty is
made by ourselves or our agents as to the correctness or completeness, and no liability is
assumed for any damages resulting from use of the same.  Baker Hughes's liabilities and obligations
shall be governed by Baker Hughes's Standard Terms and Conditions.
Creator
Export
#----------------------------------------------------------------------
#
# Curve name cross reference:  XREF 'LAS Name' 'XTF Short Name' 'XTF Structured Name'
#
XREF DEPTH DEPTH DEPTH
XREF ROP_AVG ROPAVG GENTIME.ROP_AVG
XREF GRAX GRAX GAMMA.GRAX
XREF TCDX TCDX DOWNHOLE.TCDX
XREF SRSP_CVSECT SRSPCVSE SURVEY_STATION.SRSP_CVSECT
XREF SRSP_NS SRSPNS SURVEY_STATION.SRSP_NS
XREF SRSP_EW SRSPEW SURVEY_STATION.SRSP_EW
XREF LAGGAS LAGGAS LAGMUD.LAGGAS
XREF TVD TVD TVD
 
 
 
 
 
 
 

~A  DEPTH   ROP_AVG     GRAX       TCDX   SRSP_CVSECT  SRSP_NS   SRSP_EW     LAGGAS      TVD   
# ...
 1832.0000  156.06667   72.0000  131.1000    42.09468 -40.93894   -27.1366     0.0000 1828.1900
 1832.5000  156.9000    57.6000  131.1000    42.14271 -40.95654   -27.18144    0.0000 1828.6900
 1833.0000  157.3000    60.2000  131.1000    42.19074 -40.97415   -27.22628    0.0000 1829.1800
 1833.5000  157.7000    62.8000  131.1000    42.23878 -40.99176   -27.27112    0.0000 1829.6800
 1834.0000  158.7000  60.83333  131.1000    42.28681 -41.00936   -27.31596    0.0000 1830.1800
 1834.5000  159.7000  58.86667  131.1000    42.33484 -41.02697   -27.3608     0.0000 1830.6800
 1835.0000  160.7000    56.9000  131.1000    42.38287 -41.04457   -27.40564    0.0000 1831.1700
 1835.5000  165.16667   54.5000  131.1000    42.4309  -41.06218   -27.45048    0.0000 1831.6700
 1836.0000  169.63333   52.1000  131.1000    42.47894 -41.07979   -27.49532    0.0000 1832.1700
 1836.5000  174.1000    49.7000  131.1000    42.52697 -41.09739   -27.54016    0.0000 1832.6700
 1837.0000  179.6000    48.1000  131.1000    42.5750   -41.1150   -27.5850     0.0000 1833.1600
 1837.5000  185.1000    46.5000  131.1000    42.62303 -41.13261   -27.62984    0.0000 1833.6600
 1838.0000  190.6000    48.6250  131.1000    42.67106 -41.15021   -27.67468    0.0000 1834.1600
 1838.5000  199.8750    50.7500  131.1000    42.7191  -41.16782   -27.71952    0.0000 1834.6600
 1839.0000  209.1500    52.8750  131.1000    42.76713 -41.18543   -27.76436    0.0000 1835.1500
 1839.5000  218.4250    55.0000  131.1000    42.81516 -41.20303   -27.8092     0.0000 1835.6500
 1840.0000  227.7000    56.5000  131.1000    42.86319 -41.22064   -27.85404    0.0000 1836.1500
 1840.5000  230.1250    58.0000  131.1000    42.91122 -41.23824   -27.89888    0.0000 1836.6500
 1841.0000  232.5500    59.5000  131.1000    42.95926 -41.25585   -27.94372    0.0000 1837.1500
 1841.5000  234.9750    60.6000  131.1000    43.00729 -41.27346   -27.98856    0.0000 1837.6400
 1842.0000  237.4000    61.7000  131.1000    43.05532 -41.29106   -28.0334     0.0000 1838.1400
 1842.5000  209.4000    62.8000  131.1000    43.10335 -41.30867   -28.07824    0.0000 1838.6400
 1843.0000  181.4000    64.1000  131.1000    43.15138 -41.32628   -28.12309    0.0000 1839.1400
 1843.5000  165.1000    65.4000  131.1000    43.19941 -41.34388   -28.16793    0.0000 1839.6300
 1844.0000  148.8000    85.7000  131.1000    43.24745 -41.36149   -28.21277    0.0000 1840.1300
 1844.5000  140.0000  80.23333  131.1000    43.29548  -41.3791   -28.25761    0.0000 1840.6300
 1845.0000  131.2000  74.76667  131.1000    43.34351  -41.3967   -28.30245    0.0000 1841.1300
 1845.5000  131.13333   69.3000  131.1000    43.39154 -41.41431   -28.34729    0.0000 1841.6300
 1846.0000  131.06667   77.2000  131.1000    43.43957 -41.43191   -28.39213    0.0000 1842.1200
 1846.5000  131.0000    73.9000  131.1000    43.48761 -41.44952   -28.43697    0.0000 1842.6200
 1847.0000  138.1500    81.1000  131.1000    43.53564 -41.46713   -28.48181    0.0000 1843.1200
 1847.5000  145.3000    88.3000  131.1000    43.58367 -41.48473   -28.52665    0.0000 1843.6200
 1848.0000  148.13333   88.3000  131.1000    43.6317  -41.50234   -28.57149    0.0000 1844.1200
 1848.5000  150.96667   83.5500  131.1000    43.67973 -41.51995   -28.61633    0.0000 1844.6100
 1849.0000  153.8000    78.8000  131.1000    43.72777 -41.53755   -28.66117    0.0000 1845.1100
 1849.5000   79.9500    60.8000  131.1000    43.7758  -41.55516   -28.70601    0.0000 1845.6100
 1850.0000    6.1000    75.2000  131.1000    43.82383 -41.57277   -28.75085    0.0000 1846.1100
 1850.5000   26.4000    71.9500  131.1000    43.87186 -41.59037   -28.79569    0.0000 1846.6100
 1851.0000   51.98333   68.7000  131.1000    43.91989 -41.60798   -28.84053    0.0000 1847.1000
 1851.5000   77.56667   68.0000  131.1000    43.96793 -41.62559   -28.88537    0.0000 1847.6000
 1852.0000  103.1500    84.2000  131.1000    44.01596 -41.64319   -28.93021    0.0000 1848.1000
 1852.5000  128.73333  100.4000  131.1000    44.06399  -41.6608   -28.97505    0.0000 1848.6000
 1853.0000  154.31667  102.0000  131.1000    44.11202  -41.6784   -29.01989    0.0000 1849.1000
 1853.5000  179.9000    94.8000  131.1000    44.16005 -41.69601   -29.06473    0.0000 1849.6000
 1854.0000  205.0750    89.6000  131.1000    44.20809 -41.71362   -29.10957    0.0000 1850.0900
 1854.5000  230.2500    84.4000  131.1000    44.25612 -41.73122   -29.15441    0.0000 1850.5900
 1855.0000  255.4250    79.8000  131.1000    44.30415 -41.74883   -29.19926    0.0000 1851.0900
 1855.5000  280.6000    74.6000  131.1000    44.35218 -41.76644   -29.2441     0.0000 1851.5900
 1856.0000  274.8500    65.4000  131.1000    44.40021 -41.78404   -29.28894    0.0000 1852.0900
 1856.5000  269.1000    64.8000  131.1000    44.44824 -41.80165   -29.33378    0.0000 1852.5800
 1857.0000  263.3500    81.1000  131.1000    44.49628 -41.81926   -29.37862    0.0000 1853.0800
 1857.5000  257.6000    68.7000  131.1000    44.54431 -41.83686   -29.42346    0.0000 1853.5800
 1858.0000  225.4000    68.0000  131.1000    44.59234 -41.85447   -29.4683     0.0000 1854.0800
 1858.5000  193.2000    67.7000  131.1000    44.64037 -41.87207   -29.51314    0.0000 1854.5800
 1859.0000  135.3000    67.4000  131.1000    44.6884  -41.88968   -29.55798    0.0000 1855.0800
 1859.5000  125.2000    77.2000  131.1000    44.73644 -41.90729   -29.60282    0.0000 1855.5700
 1860.0000  115.1000  80.03333  131.1000    44.78447 -41.92489   -29.64766    0.0000 1856.0700
 1860.5000  105.0000  82.86667  131.1000    44.8325   -41.9425   -29.6925     0.0000 1856.5700
 1861.0000  122.0500    85.7000  131.1000    44.88053 -41.96011   -29.73734    0.0000 1857.0700
 1861.5000  139.1000    89.6000  131.1000    44.92856 -41.97771   -29.78218    0.0000 1857.5700
 1862.0000  147.9250    89.0000  131.1000    44.9766  -41.99532   -29.82702    0.0000 1858.0700
 1862.5000  156.7500    87.7000  131.1000    45.02463 -42.01293   -29.87186    0.0000 1858.5600
 1863.0000  165.5750    83.1000  131.1000    45.07266 -42.03053   -29.9167     0.0000 1859.0600
 1863.5000  174.4000    78.5000  131.1000    45.12069 -42.04814   -29.96154    0.0000 1859.5600
 1864.0000   89.6000    99.4000  131.1000    45.16872 -42.06574   -30.00638    0.0000 1860.0600
 1864.5000   50.5000    96.1500  131.1000    45.21676 -42.08335   -30.05122    0.0000 1860.5600
 1865.0000   41.3000    92.9000  131.1000    45.26479 -42.10096   -30.09606    0.0000 1861.0600
 1865.5000   55.0000    97.4500  131.1000    45.31282 -42.11856   -30.1409     0.0000 1861.5500
 1866.0000   71.4000   102.0000  131.1000    45.36085 -42.13617   -30.18574    0.0000 1862.0500
 1866.5000   73.5000    93.5000  131.1000    45.40888 -42.15378   -30.23059    0.0000 1862.5500
 1867.0000   67.4000    88.3000  131.1000    45.45691 -42.17138   -30.27543    0.0000 1863.0500
 1867.5000   53.2000    83.1000  131.1000    45.50495 -42.18899   -30.32027    0.0000 1863.5500
 1868.0000   49.9000    85.7000  131.1000    45.55298  -42.2066   -30.36511    0.0000 1864.0500
 1868.5000   53.5000    88.3000  131.1000    45.60101  -42.2242   -30.40995    0.0000 1864.5500
 1869.0000   61.1000    85.7000  131.1000    45.64904 -42.24181   -30.45479    0.0000 1865.0400
 1869.5000   52.3500    83.1000  131.1000    45.69707 -42.25941   -30.49963    0.0000 1865.5400
 1870.0000   43.6000    85.0000  131.1000    45.74511 -42.27702   -30.54447    0.0000 1866.0400
 1870.5000   57.4000    73.9000  131.1000    45.79314 -42.29463   -30.58931    0.0000 1866.5400
 1871.0000   78.5000    67.0500  131.1000    45.84117 -42.31223   -30.63415    0.0000 1867.0400
 1871.5000   99.6000    60.2000  131.1000    45.8892  -42.32984   -30.67899    0.0000 1867.5400
 1872.0000  120.7000    60.8000  131.1000    45.93723 -42.34745   -30.72383    0.0000 1868.0400
 1872.5000  137.03333   71.3000  131.1000    45.98527 -42.36505   -30.76867    0.0000 1868.5300
 1873.0000  153.36667   59.5000  131.1000    46.0333  -42.38266   -30.81351    0.0000 1869.0300
 1873.5000  169.7000    53.0000  131.1000    46.08133 -42.40027   -30.85835    0.0000 1869.5300
