~Version Information Section
 VERS.      2.0         :CWLS LOG ASCII STANDARD -VERSION 2.0
 WRAP.      No          :SINGLE LINE PER DEPTH STEP
~Well Information Section
#MNEM.UNIT                      VALUE/NAME                 DESCRIPTION
#----.----     ----------------------------------   --------------------
 STRT    .ft           1200.0000                         :Start Depth
 STOP    .ft           6093.0000                         :Stop  Depth
 STEP    .ft              0.5000                         :Step  Depth
 NULL    .             -999.2500                         :Null value
 COMP    .          LEWIS ENERGY COLOMBIA                :Company Name
 WELL    .          La Estancia 1                        :Well Name
 PATH    .          ST1                                  :Path Name
 FLD     .          La Estancia                          :Field Name
 LOC     .          Default Facility                     :Location
 PROV    .          Unused                               :Province
 SRVC    .          BAKER HUGHES INTEQ                   :Service Company Name
 DATE    .          27/05/2015-07                        :05:20 SA Pacific Standard Time: System Date
 UWI     .                                               :Unique Well ID
 TIMEZONE.Hrs            -5.0000                         :Time zone difference from GMT
~Curve Information Section
#MNEM       .UNIT         CURVE DESCRIPTION
#----       .----         -------------------------
 DEPTH      .ft           :1 Depth Hole
 ROP_AVG    .ft/hr        :2 Time Averaged ROP
 GRAX       .API          :3 Gamma Ray - Apparent
 TCDX       .degF         :4 Downhole Temperature
 SRSP_CVSECT.ft           :5 Incremental Vertical Section
 SRSP_NS    .ft           :6 Position North
 SRSP_EW    .ft           :7 Position East
 LAGGAS     .unit         :8 Total Gas - Lagged
 TVD        .ft           :9 Vertical Depth
~Parameter Information Section
#MNEM.UNIT                      VALUE                       DESCRIPTION
#----.----     ----------------------------------   --------------------
~Other Information Section
Disclaimer
Any opinion and / or recommendation expressed orally or written herein, has been prepared
carefully and may be used if the user so elects, however, no representative or warranty is
made by ourselves or our agents as to the correctness or completeness, and no liability is
assumed for any damages resulting from use of the same.  Baker Hughes's liabilities and obligations
shall be governed by Baker Hughes's Standard Terms and Conditions.
Creator
Export
#----------------------------------------------------------------------
#
# Curve name cross reference:  XREF 'LAS Name' 'XTF Short Name' 'XTF Structured Name'
#
XREF DEPTH DEPTH DEPTH
XREF ROP_AVG ROPAVG GENTIME.ROP_AVG
XREF GRAX GRAX GAMMA.GRAX
XREF TCDX TCDX DOWNHOLE.TCDX
XREF SRSP_CVSECT SRSPCVSE SURVEY_STATION.SRSP_CVSECT
XREF SRSP_NS SRSPNS SURVEY_STATION.SRSP_NS
XREF SRSP_EW SRSPEW SURVEY_STATION.SRSP_EW
XREF LAGGAS LAGGAS LAGMUD.LAGGAS
XREF TVD TVD TVD
 
 
 
 
 
 
 

~A  DEPTH   ROP_AVG     GRAX       TCDX   SRSP_CVSECT  SRSP_NS   SRSP_EW     LAGGAS      TVD   
# ...
 3470.0000  152.6000   149.7500  133.8000    84.13455 -61.18364   -64.06409   41.0000 3464.7000
 3470.5000  145.1500   141.9000  133.8000    84.19432 -61.20545   -64.11989   44.0000 3465.2000
 3471.0000  137.7000   151.1000  133.8000    84.25409 -61.22727   -64.17568   48.0000 3465.6900
 3471.5000  138.9500   149.8000  133.8000    84.31386 -61.24909   -64.23148   48.0000 3466.1900
 3472.0000  140.2000   155.0000  133.8000    84.37364 -61.27091   -64.28727   48.0000 3466.6800
 3472.5000  141.7000   158.9000  133.8000    84.43341 -61.29273   -64.34307   49.0000 3467.1800
 3473.0000  143.2000   143.2000  133.8000    84.49318 -61.31455   -64.39886   52.0000 3467.6800
 3473.5000  144.7000   152.4000  133.8000    84.55295 -61.33636   -64.45466   52.0000 3468.1700
 3474.0000  147.83333  158.3000  133.8000    84.61273 -61.35818   -64.51045   52.0000 3468.6700
 3474.5000  150.96667  153.0000  133.8000    84.6725   -61.3800   -64.56625   59.0000 3469.1600
 3475.0000  154.1000   139.3000  133.8000    84.73227 -61.40182   -64.62205   59.0000 3469.6600
 3475.5000  149.7000   153.0000  133.8000    84.79205 -61.42364   -64.67784   59.0000 3470.1600
 3476.0000  145.3000   151.4000  133.8000    84.85182 -61.44545   -64.73364   59.0000 3470.6500
 3476.5000  146.2500   144.9000  133.8000    84.91159 -61.46727   -64.78943   61.0000 3471.1500
 3477.0000  147.2000   144.5000  133.8000    84.97136 -61.48909   -64.84523   80.0000 3471.6400
 3477.5000   98.0000   156.3000  133.8000    85.03114 -61.51091   -64.90102   80.0000 3472.1400
 3478.0000   48.8000   168.1000  133.8000    85.09091 -61.53273   -64.95682   81.0000 3472.6400
 3478.5000   69.9000   159.6000  133.8000    85.15068 -61.55455   -65.01261   82.0000 3473.1300
 3479.0000   91.0000   151.1000  133.8000    85.21045 -61.57636   -65.06841   78.0000 3473.6300
 3479.5000  105.86667  155.6000  133.8000    85.27023 -61.59818   -65.1242    78.0000 3474.1200
 3480.0000  120.73333  156.5000  133.8000    85.3300   -61.6200   -65.1800    75.0000 3474.6200
 3480.5000  135.6000   157.4000  133.8000    85.41106  -61.6533   -65.25394   72.0000 3475.1200
 3481.0000  136.0500   158.3000  133.8000    85.49213  -61.6866   -65.32787   76.0000 3475.6100
 3481.5000  136.5000   151.7000  133.8000    85.57319 -61.71989   -65.40181   76.0000 3476.1100
 3482.0000  130.1500   140.6000  133.8000    85.65426 -61.75319   -65.47574   70.5000 3476.6000
 3482.5000  123.8000   146.5000  133.8000    85.73532 -61.78649   -65.54968   65.0000 3477.1000
 3483.0000  121.5500   134.1000  133.8000    85.81638 -61.81979   -65.62362   67.0000 3477.5900
 3483.5000  119.3000   147.6000  133.8000    85.89745 -61.85309   -65.69755   67.0000 3478.0900
 3484.0000  117.3000   159.6000  135.1500    85.97851 -61.88638   -65.77149   64.5000 3478.5900
 3484.5000  115.3000   155.0000  136.5000    86.05957 -61.91968   -65.84543   62.0000 3479.0800
 3485.0000  116.0000   145.4000  135.9600    86.14064 -61.95298   -65.91936   62.0000 3479.5800
 3485.5000  116.7000   141.9000  135.4200    86.2217  -61.98628   -65.9933    68.0000 3480.0700
 3486.0000  121.9000   147.1500  134.8800    86.30277 -62.01957   -66.06723   78.0000 3480.5700
 3486.5000  127.1000   152.4000  134.3400    86.38383 -62.05287   -66.14117   78.0000 3481.0600
 3487.0000  133.46667  153.7000  133.8000    86.46489 -62.08617   -66.21511   78.0000 3481.5600
 3487.5000  139.83333  144.2000  133.8000    86.54596 -62.11947   -66.28904   72.0000 3482.0500
 3488.0000  146.2000   147.1000  133.8000    86.62702 -62.15277   -66.36298   74.0000 3482.5500
 3488.5000  147.6000   150.4000  133.8000    86.70809 -62.18606   -66.43691   74.0000 3483.0500
 3489.0000  149.0000   158.3000  133.8000    86.78915 -62.21936   -66.51085   74.0000 3483.5400
 3489.5000  147.63333  143.9000  133.8000    86.87021 -62.25266   -66.58479   69.0000 3484.0400
 3490.0000  146.26667  144.5000  133.8000    86.95128 -62.28596   -66.65872   75.0000 3484.5300
 3490.5000  144.9000  142.76667  133.8000    87.03234 -62.31926   -66.73266   75.0000 3485.0300
 3491.0000  145.3500  141.03333  133.8000    87.1134  -62.35255   -66.8066    75.0000 3485.5200
 3491.5000  145.8000   139.3000  133.8000    87.19447 -62.38585   -66.88053   78.0000 3486.0200
 3492.0000  145.1000   137.6500  133.8000    87.27553 -62.41915   -66.95447   79.0000 3486.5100
 3492.5000  144.4000   136.0000  133.8000    87.3566  -62.45245   -67.0284    79.0000 3487.0100
 3493.0000   99.3000   133.5500  133.8000    87.43766 -62.48574   -67.10234   79.0000 3487.5000
 3493.5000   54.2000   131.1000  133.8000    87.51872 -62.51904   -67.17628  100.0000 3488.0000
 3494.0000   51.2000   133.9000  134.7000    87.59979 -62.55234   -67.25021   24.0000 3488.4900
 3494.5000   48.2000   136.7000  135.6000    87.68085 -62.58564   -67.32415   24.0000 3488.9900
 3495.0000   91.5000   134.1000  136.5000    87.76191 -62.61894   -67.39809   24.0000 3489.4800
 3495.5000   81.4000   135.6000  135.6000    87.84298 -62.65223   -67.47202   29.0000 3489.9800
 3496.0000   67.0000   137.1000  134.7000    87.92404 -62.68553   -67.54596   37.0000 3490.4700
 3496.5000   66.1000   138.6000  133.8000    88.00511 -62.71883   -67.61989   37.0000 3490.9700
 3497.0000   51.0000   132.8600  133.8000    88.08617 -62.75213   -67.69383   41.0000 3491.4700
 3497.5000   46.6000   127.1200  133.8000    88.16723 -62.78543   -67.76777   45.0000 3491.9600
 3498.0000   59.7000   121.3800  133.8000    88.2483  -62.81872   -67.8417    51.0000 3492.4600
 3498.5000   69.3000   115.6400  133.8000    88.32936 -62.85202   -67.91564   51.0000 3492.9500
 3499.0000   76.1000   109.9000  133.8000    88.41043 -62.88532   -67.98957   55.5000 3493.4500
 3499.5000   75.5000   134.1000  133.8000    88.49149 -62.91862   -68.06351   60.0000 3493.9400
 3500.0000   74.9000   138.0000  134.7000    88.57255 -62.95191   -68.13745   85.0000 3494.4300
 3500.5000   61.2000   122.3000  135.6000    88.65362 -62.98521   -68.21138   85.0000 3494.9300
 3501.0000   54.4000   123.6000  136.5000    88.73468 -63.01851   -68.28532   89.0000 3495.4200
 3501.5000   57.1000   126.2000  135.1500    88.81574 -63.05181   -68.35926   93.0000 3495.9200
 3502.0000   60.7000   128.8000  133.8000    88.89681 -63.08511   -68.43319   93.0000 3496.4100
 3502.5000   67.5500   134.1000  135.6000    88.97787  -63.1184   -68.50713  100.0000 3496.9100
 3503.0000   74.4000   140.6000  137.4000    89.05894  -63.1517   -68.58106   98.0000 3497.4000
 3503.5000   86.3000   132.1000  139.2000    89.1400   -63.1850   -68.6550    96.0000 3497.9000
 3504.0000   98.2000   123.6000  139.2000    89.22106  -63.2183   -68.72894   96.0000 3498.3900
 3504.5000   89.2000   129.5000  136.5000    89.30213  -63.2516   -68.80287  103.0000 3498.8900
 3505.0000   58.0000   126.9000  136.5000    89.38319 -63.28489   -68.87681  110.5000 3499.3800
 3505.5000   57.5000   124.3000  136.5000    89.46426 -63.31819   -68.95074  118.0000 3499.8800
 3506.0000   55.4000   129.7750  136.5000    89.54532 -63.35149   -69.02468  118.0000 3500.3700
 3506.5000   56.7000   135.2500  136.5000    89.62638 -63.38479   -69.09862  104.0000 3500.8700
 3507.0000   85.8000   140.7250  136.5000    89.70745 -63.41809   -69.17255   89.0000 3501.3600
 3507.5000   86.8500   146.2000  136.5000    89.78851 -63.45138   -69.24649   89.0000 3501.8600
 3508.0000   87.9000   146.5000  136.5000    89.86957 -63.48468   -69.32043   89.0000 3502.3500
 3508.5000   72.8000  147.16667  136.5000    89.95064 -63.51798   -69.39436   94.0000 3502.8400
 3509.0000   67.0000  147.83333  136.5000    90.0317  -63.55128   -69.4683    98.5000 3503.3400
 3509.5000   65.5000   148.5000  136.5000    90.11277 -63.58457   -69.54223  103.0000 3503.8300
 3510.0000   66.1000  147.33333  136.5000    90.19383 -63.61787   -69.61617  103.0000 3504.3300
 3510.5000   60.1000  146.16667  136.5000    90.27489 -63.65117   -69.69011  106.0000 3504.8200
 3511.0000   54.1000   145.0000  136.5000    90.35596 -63.68447   -69.76404  117.0000 3505.3200
 3511.5000   60.7500   146.4000  136.5000    90.43702 -63.71777   -69.83798  117.0000 3505.8100
