~Version Information Section
 VERS.      2.0         :CWLS LOG ASCII STANDARD -VERSION 2.0
 WRAP.      No          :SINGLE LINE PER DEPTH STEP
~Well Information Section
#MNEM.UNIT                      VALUE/NAME                 DESCRIPTION
#----.----     ----------------------------------   --------------------
 STRT    .ft           1200.0000                         :Start Depth
 STOP    .ft           6093.0000                         :Stop  Depth
 STEP    .ft              0.5000                         :Step  Depth
 NULL    .             -999.2500                         :Null value
 COMP    .          LEWIS ENERGY COLOMBIA                :Company Name
 WELL    .          La Estancia 1                        :Well Name
 PATH    .          ST1                                  :Path Name
 FLD     .          La Estancia                          :Field Name
 LOC     .          Default Facility                     :Location
 PROV    .          Unused                               :Province
 SRVC    .          BAKER HUGHES INTEQ                   :Service Company Name
 DATE    .          27/05/2015-07                        :05:20 SA Pacific Standard Time: System Date
 UWI     .                                               :Unique Well ID
 TIMEZONE.Hrs            -5.0000                         :Time zone difference from GMT
~Curve Information Section
#MNEM       .UNIT         CURVE DESCRIPTION
#----       .----         -------------------------
 DEPTH      .ft           :1 Depth Hole
 ROP_AVG    .ft/hr        :2 Time Averaged ROP
 GRAX       .API          :3 Gamma Ray - Apparent
 TCDX       .degF         :4 Downhole Temperature
 SRSP_CVSECT.ft           :5 Incremental Vertical Section
 SRSP_NS    .ft           :6 Position North
 SRSP_EW    .ft           :7 Position East
 LAGGAS     .unit         :8 Total Gas - Lagged
 TVD        .ft           :9 Vertical Depth
~Parameter Information Section
#MNEM.UNIT                      VALUE                       DESCRIPTION
#----.----     ----------------------------------   --------------------
~Other Information Section
Disclaimer
Any opinion and / or recommendation expressed orally or written herein, has been prepared
carefully and may be used if the user so elects, however, no representative or warranty is
made by ourselves or our agents as to the correctness or completeness, and no liability is
assumed for any damages resulting from use of the same.  Baker Hughes's liabilities and obligations
shall be governed by Baker Hughes's Standard Terms and Conditions.
Creator
Export
#----------------------------------------------------------------------
#
# Curve name cross reference:  XREF 'LAS Name' 'XTF Short Name' 'XTF Structured Name'
#
XREF DEPTH DEPTH DEPTH
XREF ROP_AVG ROPAVG GENTIME.ROP_AVG
XREF GRAX GRAX GAMMA.GRAX
XREF TCDX TCDX DOWNHOLE.TCDX
XREF SRSP_CVSECT SRSPCVSE SURVEY_STATION.SRSP_CVSECT
XREF SRSP_NS SRSPNS SURVEY_STATION.SRSP_NS
XREF SRSP_EW SRSPEW SURVEY_STATION.SRSP_EW
XREF LAGGAS LAGGAS LAGMUD.LAGGAS
XREF TVD TVD TVD
 
 
 
 
 
 
 

~A  DEPTH   ROP_AVG     GRAX       TCDX   SRSP_CVSECT  SRSP_NS   SRSP_EW     LAGGAS      TVD   
# ...
 1538.0000   97.2000    62.2000  123.0000     5.18362 -22.41787     4.93149    0.0000 1536.7000
 1538.5000   54.5000    72.6500  123.0000     5.23707 -22.45569     4.89027    0.0000 1537.2000
 1539.0000   11.8000    83.1000  123.0000     5.29053 -22.49351     4.84904    0.0000 1537.7000
 1539.5000   30.3000    79.8000  125.7000     5.34399 -22.53133     4.80782    0.0000 1538.1900
 1540.0000   48.8000    76.5000  125.7000     5.39745 -22.56915     4.7666     0.0000 1538.6900
 1540.5000   89.5000    75.2000  125.7000     5.4509  -22.60697     4.72537    0.0000 1539.1900
 1541.0000   83.2000    70.9500  125.7000     5.50436 -22.64479     4.68415    0.0000 1539.6800
 1541.5000   90.4000    66.7000  125.7000     5.55782 -22.68261     4.64293    0.0000 1540.1800
 1542.0000   97.6000    72.0000  125.7000     5.61128 -22.72043     4.6017     0.0000 1540.6800
 1542.5000  108.3000    72.0000  125.7000     5.66473 -22.75824     4.56048    0.0000 1541.1700
 1543.0000  119.0000    72.0000  125.7000     5.71819 -22.79606     4.51926    0.0000 1541.6700
 1543.5000  129.7000  73.73333  125.7000     5.77165 -22.83388     4.47803    0.0000 1542.1700
 1544.0000  119.7000  75.46667  125.7000     5.82511  -22.8717     4.43681    0.0000 1542.6700
 1544.5000  123.3000    77.2000  125.7000     5.87856 -22.90952     4.39559    0.0000 1543.1600
 1545.0000  126.9000    68.0000  125.7000     5.93202 -22.94734     4.35436    0.0000 1543.6600
 1545.5000  131.1000  66.93333  125.7000     5.98548 -22.98516     4.31314    0.0000 1544.1600
 1546.0000  135.3000  65.86667  125.7000     6.03894 -23.02298     4.27191    0.0000 1544.6500
 1546.5000  139.5000    64.8000  125.7000     6.09239  -23.0608     4.23069    0.0000 1545.1500
 1547.0000  130.7500  68.06667  125.7000     6.14585 -23.09862     4.18947    0.0000 1545.6500
 1547.5000  122.0000  71.33333  125.7000     6.19931 -23.13644     4.14824    0.0000 1546.1400
 1548.0000  115.4500    74.6000  125.7000     6.25277 -23.17426     4.10702    0.0000 1546.6400
 1548.5000  108.9000  74.48333  125.7000     6.30622 -23.21207     4.0658     0.0000 1547.1400
 1549.0000  124.5000  74.36667  125.7000     6.35968 -23.24989     4.02457    0.0000 1547.6300
 1549.5000  140.1000    74.2500  125.7000     6.41314 -23.28771     3.98335    0.0000 1548.1300
 1550.0000  140.9000  74.13333  125.7000     6.4666  -23.32553     3.94213    0.0000 1548.6300
 1550.5000  141.7000  74.01667  125.7000     6.52005 -23.36335     3.9009     0.0000 1549.1300
 1551.0000  106.3000    73.9000  125.7000     6.57351 -23.40117     3.85968    0.0000 1549.6200
 1551.5000   73.5000    75.2250  125.7000     6.62697 -23.43899     3.81846    0.0000 1550.1200
 1552.0000   62.9000    76.5500  125.7000     6.68043 -23.47681     3.77723    0.0000 1550.6200
 1552.5000   52.3000    77.8750  125.7000     6.73388 -23.51463     3.73601    0.0000 1551.1100
 1553.0000   86.3000    79.2000  125.7000     6.78734 -23.55245     3.69479    0.0000 1551.6100
 1553.5000  102.0000    81.1500  125.7000     6.8408  -23.59027     3.65356    0.0000 1552.1100
 1554.0000  117.7000    83.1000  125.7000     6.89426 -23.62809     3.61234    0.0000 1552.6000
 1554.5000  119.63333 77.76667  125.7000     6.94771  -23.6659     3.57112    0.0000 1553.1000
 1555.0000  121.56667 72.43333  125.7000     7.00117 -23.70372     3.52989    0.0000 1553.6000
 1555.5000  123.5000    67.1000  125.7000     7.05463 -23.74154     3.48867    0.0000 1554.0900
 1556.0000  132.1000    70.2000  125.7000     7.10809 -23.77936     3.44745    0.0000 1554.5900
 1556.5000  140.7000    73.3000  125.7000     7.16154 -23.81718     3.40622    0.0000 1555.0900
 1557.0000  142.2000    66.1000  125.7000     7.2150   -23.8550     3.3650     0.0000 1555.5800
 1557.5000  143.7000    58.9000  125.7000     7.26846 -23.89282     3.32378    0.0000 1556.0800
 1558.0000  145.2000    59.5500  125.7000     7.32191 -23.93064     3.28255    0.0000 1556.5800
 1558.5000  147.2500    60.2000  125.7000     7.37537 -23.96846     3.24133    0.0000 1557.0800
 1559.0000  149.3000    67.4000  125.7000     7.42883 -24.00628     3.20011    0.0000 1557.5700
 1559.5000  151.86667   58.0500  125.7000     7.48229  -24.0441     3.15888    0.0000 1558.0700
 1560.0000  154.43333   48.7000  125.7000     7.53574 -24.08191     3.11766    0.0000 1558.5700
 1560.5000  157.0000    54.0000  125.7000     7.5892  -24.11973     3.07644    0.0000 1559.0600
 1561.0000  162.06667   57.6000  125.7000     7.64266 -24.15755     3.03521    0.0000 1559.5600
 1561.5000  167.13333   53.0000  125.7000     7.69612 -24.19537     2.99399    0.0000 1560.0600
 1562.0000  172.2000    52.6000  126.1500     7.74957 -24.23319     2.95277    0.0000 1560.5500
 1562.5000  177.43333   49.8000  126.6000     7.80303 -24.27101     2.91154    0.0000 1561.0500
 1563.0000  182.66667   56.3000  127.0500     7.85649 -24.30883     2.87032    0.0000 1561.5500
 1563.5000  187.9000    52.7000  127.5000     7.90995 -24.34665     2.8291     0.0000 1562.0400
 1564.0000  193.8500    49.1000  127.9500     7.9634  -24.38447     2.78787    0.0000 1562.5400
 1564.5000  199.8000    41.2000  128.4000     8.01686 -24.42229     2.74665    0.0000 1563.0400
 1565.0000  205.7500    44.5000  125.7000     8.07032 -24.46011     2.70543    0.0000 1563.5300
 1565.5000  211.7000    47.8000  128.4000     8.12378 -24.49793     2.6642     0.0000 1564.0300
 1566.0000  217.1000    52.8000  125.7000     8.17723 -24.53574     2.62298    0.0000 1564.5300
 1566.5000  222.5000    57.8000  125.7000     8.23069 -24.57356     2.58176    0.0000 1565.0200
 1567.0000  227.9000    62.8000  125.7000     8.28415 -24.61138     2.54053    0.0000 1565.5200
 1567.5000  233.3000  63.82222  125.7000     8.33761  -24.6492     2.49931    0.0000 1566.0200
 1568.0000  218.2000  64.84444  125.1600     8.39106 -24.68702     2.45809    0.0000 1566.5100
 1568.5000  203.1000  65.86667  124.6200     8.44452 -24.72484     2.41686    0.0000 1567.0100
 1569.0000  188.0000  66.88889  124.0800     8.49798 -24.76266     2.37564    0.0000 1567.5100
 1569.5000  172.9000  67.91111  123.5400     8.55144 -24.80048     2.33441    0.0000 1568.0100
 1570.0000   26.1000  68.93333  123.0000     8.60489  -24.8383     2.29319    0.0000 1568.5000
 1570.5000   53.23333 69.95556  123.0000     8.65835 -24.87612     2.25197    0.0000 1569.0000
 1571.0000   80.36667 70.97778  123.0000     8.71181 -24.91394     2.21074    0.0000 1569.5000
 1571.5000  107.5000    72.0000  123.0000     8.76527 -24.95176     2.16952    0.0000 1569.9900
 1572.0000   41.4000    77.2000  123.0000     8.81872 -24.98957     2.1283     0.0000 1570.4900
 1572.5000   30.0000    75.5500  123.0000     8.87218 -25.02739     2.08707    0.0000 1570.9900
 1573.0000   36.2000    73.9000  123.0000     8.92564 -25.06521     2.04585    0.0000 1571.4800
 1573.5000   40.0000    74.5500  123.0000     8.9791  -25.10303     2.00463    0.0000 1571.9800
 1574.0000   43.7000    75.2000  123.0000     9.03255 -25.14085     1.9634     0.0000 1572.4800
 1574.5000   49.5000    71.3000  123.0000     9.08601 -25.17867     1.92218    0.0000 1572.9700
 1575.0000   59.6000    67.4000  123.0000     9.13947 -25.21649     1.88096    0.0000 1573.4700
 1575.5000   71.2500    63.6500  128.4000     9.19293 -25.25431     1.83973    0.0000 1573.9700
 1576.0000   82.9000    59.9000  125.7000     9.24638 -25.29213     1.79851    0.0000 1574.4600
 1576.5000   97.7000    63.5000  123.0000     9.29984 -25.32995     1.75729    0.0000 1574.9600
 1577.0000  112.5000    63.1500  123.0000     9.3533  -25.36777     1.71606    0.0000 1575.4600
 1577.5000  107.8500    62.8000  123.0000     9.40676 -25.40559     1.67484    0.0000 1575.9500
 1578.0000  103.2000    56.7000  123.0000     9.46021  -25.4434     1.63362    0.0000 1576.4500
 1578.5000  114.9500    53.0500  123.0000     9.51367 -25.48122     1.59239    0.0000 1576.9500
 1579.0000  126.7000    49.4000  123.0000     9.56713 -25.51904     1.55117    0.0000 1577.4400
 1579.5000  115.76667   46.5000  123.0000     9.62059 -25.55686     1.50995    0.0000 1577.9400
