~Version Information Section
 VERS.      2.0         :CWLS LOG ASCII STANDARD -VERSION 2.0
 WRAP.      No          :SINGLE LINE PER DEPTH STEP
~Well Information Section
#MNEM.UNIT                      VALUE/NAME                 DESCRIPTION
#----.----     ----------------------------------   --------------------
 STRT    .ft           1200.0000                         :Start Depth
 STOP    .ft           6093.0000                         :Stop  Depth
 STEP    .ft              0.5000                         :Step  Depth
 NULL    .             -999.2500                         :Null value
 COMP    .          LEWIS ENERGY COLOMBIA                :Company Name
 WELL    .          La Estancia 1                        :Well Name
 PATH    .          ST1                                  :Path Name
 FLD     .          La Estancia                          :Field Name
 LOC     .          Default Facility                     :Location
 PROV    .          Unused                               :Province
 SRVC    .          BAKER HUGHES INTEQ                   :Service Company Name
 DATE    .          27/05/2015-07                        :05:20 SA Pacific Standard Time: System Date
 UWI     .                                               :Unique Well ID
 TIMEZONE.Hrs            -5.0000                         :Time zone difference from GMT
~Curve Information Section
#MNEM       .UNIT         CURVE DESCRIPTION
#----       .----         -------------------------
 DEPTH      .ft           :1 Depth Hole
 ROP_AVG    .ft/hr        :2 Time Averaged ROP
 GRAX       .API          :3 Gamma Ray - Apparent
 TCDX       .degF         :4 Downhole Temperature
 SRSP_CVSECT.ft           :5 Incremental Vertical Section
 SRSP_NS    .ft           :6 Position North
 SRSP_EW    .ft           :7 Position East
 LAGGAS     .unit         :8 Total Gas - Lagged
 TVD        .ft           :9 Vertical Depth
~Parameter Information Section
#MNEM.UNIT                      VALUE                       DESCRIPTION
#----.----     ----------------------------------   --------------------
~Other Information Section
Disclaimer
Any opinion and / or recommendation expressed orally or written herein, has been prepared
carefully and may be used if the user so elects, however, no representative or warranty is
made by ourselves or our agents as to the correctness or completeness, and no liability is
assumed for any damages resulting from use of the same.  Baker Hughes's liabilities and obligations
shall be governed by Baker Hughes's Standard Terms and Conditions.
Creator
Export
#----------------------------------------------------------------------
#
# Curve name cross reference:  XREF 'LAS Name' 'XTF Short Name' 'XTF Structured Name'
#
XREF DEPTH DEPTH DEPTH
XREF ROP_AVG ROPAVG GENTIME.ROP_AVG
XREF GRAX GRAX GAMMA.GRAX
XREF TCDX TCDX DOWNHOLE.TCDX
XREF SRSP_CVSECT SRSPCVSE SURVEY_STATION.SRSP_CVSECT
XREF SRSP_NS SRSPNS SURVEY_STATION.SRSP_NS
XREF SRSP_EW SRSPEW SURVEY_STATION.SRSP_EW
XREF LAGGAS LAGGAS LAGMUD.LAGGAS
XREF TVD TVD TVD
 
 
 
 
 
 
 

~A  DEPTH   ROP_AVG     GRAX       TCDX   SRSP_CVSECT  SRSP_NS   SRSP_EW     LAGGAS      TVD   
# ...
 5054.5000   22.5000    34.4000  128.4000  1162.41979 -498.94333 -1049.89172    0.0000 4409.6100
 5055.0000   23.7000    32.5000  128.4000  1162.91958 -499.14667 -1050.34844    0.0000 4409.6100
 5055.5000    6.5000    30.9000  128.4000  1163.41938 -499.3500 -1050.80516    0.0000 4409.6000
 5056.0000   30.9000    33.7000  128.4000  1163.91917 -499.55333 -1051.26188    0.0000 4409.5900
 5056.5000   32.7000    33.2000  128.4000  1164.41896 -499.75667 -1051.71859    0.0000 4409.5800
 5057.0000   26.5000    33.4000  129.7000  1164.91875 -499.9600 -1052.17531    0.0000 4409.5800
 5057.5000   28.2000    35.2000  128.4000  1165.41854 -500.16333 -1052.63203    0.0000 4409.5700
 5058.0000   28.2000    35.5000  128.4000  1165.91833 -500.36667 -1053.08875    0.0000 4409.5600
 5058.5000   31.0000    33.2000  128.4000  1166.41813 -500.5700 -1053.54547    0.0000 4409.5600
 5059.0000   30.5000    32.9000  128.4000  1166.91792 -500.77333 -1054.00219    0.0000 4409.5500
 5059.5000   32.2000    32.2000  128.4000  1167.41771 -500.97667 -1054.45891    0.0000 4409.5400
 5060.0000   31.1000    37.1000  128.4000  1167.9175  -501.1800 -1054.91563    0.0000 4409.5300
 5060.5000   28.2000    42.6000  128.4000  1168.41729 -501.38333 -1055.37234    0.0000 4409.5300
 5061.0000   28.8000    42.9000  128.4000  1168.91708 -501.58667 -1055.82906    0.0000 4409.5200
 5061.5000   27.4000    43.5000  128.4000  1169.41688 -501.7900 -1056.28578    0.0000 4409.5100
 5062.0000   28.2000    40.6000  128.4000  1169.91667 -501.99333 -1056.7425     0.0000 4409.5000
 5062.5000   27.6000    42.0000  128.4000  1170.41646 -502.19667 -1057.19922    0.0000 4409.4900
 5063.0000   19.4000    43.6000  129.7000  1170.91625 -502.4000 -1057.65594    0.0000 4409.4900
 5063.5000   15.1000    41.5000  128.4000  1171.41604 -502.60333 -1058.11266    0.0000 4409.4800
 5064.0000   24.2000    41.7000  128.4000  1171.91583 -502.80667 -1058.56938    0.0000 4409.4700
 5064.5000   25.7000    43.9000  128.4000  1172.41563 -503.0100 -1059.02609    0.0000 4409.4600
 5065.0000   31.9000    47.7000  128.4000  1172.91542 -503.21333 -1059.48281    0.0000 4409.4500
 5065.5000   36.6000    37.8000  128.4000  1173.41521 -503.41667 -1059.93953    0.0000 4409.4400
 5066.0000   30.6000    42.0000  128.4000  1173.9150  -503.6200 -1060.39625    0.0000 4409.4400
 5066.5000   30.6000    41.3000  128.4000  1174.41479 -503.82333 -1060.85297    0.0000 4409.4300
 5067.0000   27.8000    39.6000  128.4000  1174.91458 -504.02667 -1061.30969    0.0000 4409.4200
 5067.5000   29.8000    45.6000  128.4000  1175.41438 -504.2300 -1061.76641    0.0000 4409.4100
 5068.0000   30.0000    51.9000  129.7000  1175.91417 -504.43333 -1062.22313    0.0000 4409.4000
 5068.5000   33.1000    48.6000  129.0500  1176.41396 -504.63667 -1062.67984    0.0000 4409.3900
 5069.0000   28.9000    48.4000  128.4000  1176.91375 -504.8400 -1063.13656    0.0000 4409.3800
 5069.5000   29.0000    41.3000  128.4000  1177.41354 -505.04333 -1063.59328    0.0000 4409.3700
 5070.0000   31.9000    43.7000  128.4000  1177.91333 -505.24667 -1064.0500     0.0000 4409.3700
 5070.5000   26.6000    50.9000  128.4000  1178.41313 -505.4500 -1064.50672    0.0000 4409.3600
 5071.0000   26.9000    39.7000  128.4000  1178.91292 -505.65333 -1064.96344    0.0000 4409.3500
 5071.5000   29.3000    36.4000  128.4000  1179.41271 -505.85667 -1065.42016    0.0000 4409.3400
 5072.0000   28.0000    38.3000  128.4000  1179.9125  -506.0600 -1065.87688    0.0000 4409.3300
 5072.5000   25.3000    38.9000  129.7000  1180.41229 -506.26333 -1066.33359    0.0000 4409.3200
 5073.0000   31.0000    40.2000  128.4000  1180.91208 -506.46667 -1066.79031    0.0000 4409.3100
 5073.5000   28.2000    36.0000  128.4000  1181.41188 -506.6700 -1067.24703    0.0000 4409.3000
 5074.0000   29.3000    32.7000  128.4000  1181.91167 -506.87333 -1067.70375    0.0000 4409.2900
 5074.5000   28.0000    33.4000  128.4000  1182.41146 -507.07667 -1068.16047    0.0000 4409.2800
 5075.0000   26.9000    33.4000  128.4000  1182.91125 -507.2800 -1068.61719    0.0000 4409.2700
 5075.5000   29.3000    31.7000  128.4000  1183.41104 -507.48333 -1069.07391    0.0000 4409.2600
 5076.0000   18.7000    33.1000  128.4000  1183.91083 -507.68667 -1069.53063    0.0000 4409.2500
 5076.5000   34.3000    33.2000  128.4000  1184.41063 -507.8900 -1069.98734    0.0000 4409.2400
 5077.0000   55.0000    36.0000  128.4000  1184.91042 -508.09333 -1070.44406    0.0000 4409.2300
 5077.5000   37.0000    33.9000  128.4000  1185.41021 -508.29667 -1070.90078    0.0000 4409.2200
 5078.0000   26.1000    31.3000  128.4000  1185.9100  -508.5000 -1071.3575     0.0000 4409.2100
 5078.5000   19.8000    36.0000  128.4000  1186.40979 -508.70333 -1071.81422    0.0000 4409.2000
 5079.0000   15.5000    37.3000  128.4000  1186.90958 -508.90667 -1072.27094    0.0000 4409.1900
 5079.5000   21.7000    39.9000  128.4000  1187.40938 -509.1100 -1072.72766    0.0000 4409.1800
 5080.0000   16.9000    36.0000  128.4000  1187.90917 -509.31333 -1073.18438    0.0000 4409.1700
 5080.5000   19.7000    37.8000  100.0000  1188.40896 -509.51667 -1073.64109    0.0000 4409.1600
 5081.0000   18.9000    35.2000  128.4000  1188.90875 -509.7200 -1074.09781    0.0000 4409.1500
 5081.5000   20.1000    36.0000  128.4000  1189.40854 -509.92333 -1074.55453    0.0000 4409.1400
 5082.0000   16.3000    35.0000  128.4000  1189.90833 -510.12667 -1075.01125    4.0000 4409.1300
 5082.5000   13.3000    39.9000  128.4000  1190.40813 -510.3300 -1075.46797    4.0000 4409.1200
 5083.0000   16.2000    37.4000  128.4000  1190.90792 -510.53333 -1075.92469    4.0000 4409.1100
 5083.5000    9.6000    40.1000  128.4000  1191.40771 -510.73667 -1076.38141    4.0000 4409.1000
 5084.0000   12.6000    36.9000  128.4000  1191.9075  -510.9400 -1076.83813   10.0000 4409.0900
 5084.5000   16.5000    37.4000  128.4000  1192.40729 -511.14333 -1077.29484   10.0000 4409.0800
 5085.0000   17.3000    42.2000  128.4000  1192.90708 -511.34667 -1077.75156   48.5000 4409.0600
 5085.5000   15.8000    36.5000  129.3000  1193.40688 -511.5500 -1078.20828   87.0000 4409.0500
 5086.0000   12.6000    35.3000  128.4000  1193.90667 -511.75333 -1078.6650    87.0000 4409.0400
 5086.5000    5.9000    36.7000  128.4000  1194.40646 -511.95667 -1079.12172  140.0000 4409.0300
 5087.0000   22.5000    40.3000  128.4000  1194.90625 -512.1600 -1079.57844  124.5000 4409.0200
 5087.5000   27.5000    39.2000  129.7000  1195.40604 -512.36333 -1080.03516  109.0000 4409.0100
 5088.0000   35.2000    37.1000  129.0500  1195.90583 -512.56667 -1080.49188  109.0000 4409.0000
 5088.5000   41.3000    37.6000  128.4000  1196.40563 -512.7700 -1080.94859  155.0000 4408.9900
 5089.0000   35.2000    34.9000  128.4000  1196.90542 -512.97333 -1081.40531  173.0000 4408.9700
 5089.5000   29.1000    39.0000  128.4000  1197.40521 -513.17667 -1081.86203  191.0000 4408.9600
 5090.0000   32.7000    41.8000  128.4000  1197.9050  -513.3800 -1082.31875  191.0000 4408.9500
 5090.5000   33.9000    36.7000  128.4000  1198.40479 -513.58333 -1082.77547  227.0000 4408.9400
 5091.0000   34.8000    35.9000  128.4000  1198.90458 -513.78667 -1083.23219  268.0000 4408.9300
 5091.5000   37.1000    37.9000  128.4000  1199.40438 -513.9900 -1083.68891  268.0000 4408.9200
 5092.0000   43.9000    35.7000  128.4000  1199.90417 -514.19333 -1084.14563  268.0000 4408.9000
 5092.5000   45.4000    35.0000  128.4000  1200.40396 -514.39667 -1084.60234  300.0000 4408.8900
 5093.0000   43.5000    31.8000  128.4000  1200.90375 -514.6000 -1085.05906  315.0000 4408.8800
 5093.5000   43.5000    29.3000  128.4000  1201.40354 -514.80333 -1085.51578  315.0000 4408.8700
 5094.0000   46.0000    23.9000  128.4000  1201.90333 -515.00667 -1085.9725   315.0000 4408.8600
 5094.5000   41.7000    27.1000  128.4000  1202.40313 -515.2100 -1086.42922  465.0000 4408.8400
 5095.0000   22.3000    27.5000  128.4000  1202.90292 -515.41333 -1086.88594  504.0000 4408.8300
 5095.5000   33.4000    29.3000  128.4000  1203.40271 -515.61667 -1087.34266  504.0000 4408.8200
