~Version Information Section
 VERS.      2.0         :CWLS LOG ASCII STANDARD -VERSION 2.0
 WRAP.      No          :SINGLE LINE PER DEPTH STEP
~Well Information Section
#MNEM.UNIT                      VALUE/NAME                 DESCRIPTION
#----.----     ----------------------------------   --------------------
 STRT    .ft           1200.0000                         :Start Depth
 STOP    .ft           6093.0000                         :Stop  Depth
 STEP    .ft              0.5000                         :Step  Depth
 NULL    .             -999.2500                         :Null value
 COMP    .          LEWIS ENERGY COLOMBIA                :Company Name
 WELL    .          La Estancia 1                        :Well Name
 PATH    .          ST1                                  :Path Name
 FLD     .          La Estancia                          :Field Name
 LOC     .          Default Facility                     :Location
 PROV    .          Unused                               :Province
 SRVC    .          BAKER HUGHES INTEQ                   :Service Company Name
 DATE    .          27/05/2015-07                        :05:20 SA Pacific Standard Time: System Date
 UWI     .                                               :Unique Well ID
 TIMEZONE.Hrs            -5.0000                         :Time zone difference from GMT
~Curve Information Section
#MNEM       .UNIT         CURVE DESCRIPTION
#----       .----         -------------------------
 DEPTH      .ft           :1 Depth Hole
 ROP_AVG    .ft/hr        :2 Time Averaged ROP
 GRAX       .API          :3 Gamma Ray - Apparent
 TCDX       .degF         :4 Downhole Temperature
 SRSP_CVSECT.ft           :5 Incremental Vertical Section
 SRSP_NS    .ft           :6 Position North
 SRSP_EW    .ft           :7 Position East
 LAGGAS     .unit         :8 Total Gas - Lagged
 TVD        .ft           :9 Vertical Depth
~Parameter Information Section
#MNEM.UNIT                      VALUE                       DESCRIPTION
#----.----     ----------------------------------   --------------------
~Other Information Section
Disclaimer
Any opinion and / or recommendation expressed orally or written herein, has been prepared
carefully and may be used if the user so elects, however, no representative or warranty is
made by ourselves or our agents as to the correctness or completeness, and no liability is
assumed for any damages resulting from use of the same.  Baker Hughes's liabilities and obligations
shall be governed by Baker Hughes's Standard Terms and Conditions.
Creator
Export
#----------------------------------------------------------------------
#
# Curve name cross reference:  XREF 'LAS Name' 'XTF Short Name' 'XTF Structured Name'
#
XREF DEPTH DEPTH DEPTH
XREF ROP_AVG ROPAVG GENTIME.ROP_AVG
XREF GRAX GRAX GAMMA.GRAX
XREF TCDX TCDX DOWNHOLE.TCDX
XREF SRSP_CVSECT SRSPCVSE SURVEY_STATION.SRSP_CVSECT
XREF SRSP_NS SRSPNS SURVEY_STATION.SRSP_NS
XREF SRSP_EW SRSPEW SURVEY_STATION.SRSP_EW
XREF LAGGAS LAGGAS LAGMUD.LAGGAS
XREF TVD TVD TVD
 
 
 
 
 
 
 

~A  DEPTH   ROP_AVG     GRAX       TCDX   SRSP_CVSECT  SRSP_NS   SRSP_EW     LAGGAS      TVD   
# ...
 2798.0000   57.1000    65.4000  141.9000    66.14097  -49.3200   -49.78419  161.0000 2793.4800
 2798.5000   84.1000    59.8500  141.9000    66.14118 -49.32667   -49.78124  183.0000 2793.9800
 2799.0000  111.1000    54.3000  141.9000    66.1414  -49.33333   -49.77828  187.0000 2794.4800
 2799.5000  129.9000    58.2000  141.9000    66.14161  -49.3400   -49.77532  187.0000 2794.9800
 2800.0000  148.7000    61.5000  141.9000    66.14183 -49.34667   -49.77237  187.0000 2795.4800
 2800.5000  167.5000    64.8000  141.9000    66.14204 -49.35333   -49.76941  168.0000 2795.9800
 2801.0000  158.9500    51.7000  141.9000    66.14226  -49.3600   -49.76645  157.0000 2796.4800
 2801.5000  150.4000    51.0000  141.9000    66.14247 -49.36667   -49.76349  157.0000 2796.9800
 2802.0000  101.2000    52.3500  141.9000    66.14269 -49.37333   -49.76054  157.0000 2797.4800
 2802.5000   93.9500    53.7000  141.9000    66.1429   -49.3800   -49.75758  148.0000 2797.9800
 2803.0000   86.7000    53.7000  141.9000    66.14312 -49.38667   -49.75462  131.0000 2798.4800
 2803.5000   97.0500    58.9000  141.9000    66.14333 -49.39333   -49.75167  131.0000 2798.9800
 2804.0000  107.4000    41.2000  141.9000    66.14355  -49.4000   -49.74871  131.0000 2799.4800
 2804.5000  109.7000    43.2000  141.9000    66.14376 -49.40667   -49.74575  169.0000 2799.9800
 2805.0000  112.0000    72.0000  141.9000    66.14398 -49.41333   -49.7428   185.0000 2800.4800
 2805.5000   99.8000    73.3000  141.9000    66.14419  -49.4200   -49.73984  185.0000 2800.9800
 2806.0000  105.5000    74.6000  141.9000    66.14441 -49.42667   -49.73688  185.0000 2801.4800
 2806.5000  111.2000    65.1000  141.9000    66.14462 -49.43333   -49.73392  194.0000 2801.9800
 2807.0000  116.9000    79.8000  141.9000    66.14484  -49.4400   -49.73097  194.0000 2802.4800
 2807.5000  127.0500    70.0000  141.9000    66.14505 -49.44667   -49.72801  194.0000 2802.9800
 2808.0000  137.2000    42.5000  141.9000    66.14527 -49.45333   -49.72505  194.0000 2803.4800
 2808.5000  116.5000    17.0000  141.9000    66.14548  -49.4600   -49.7221   186.0000 2803.9800
 2809.0000   66.5000    15.5000  141.9000    66.1457  -49.46667   -49.71914  187.0000 2804.4800
 2809.5000   54.2000    14.0000  141.9000    66.14591 -49.47333   -49.71618  187.0000 2804.9800
 2810.0000   72.2000    12.5000  141.9000    66.14613  -49.4800   -49.71323  187.0000 2805.4800
 2810.5000   75.4000    14.4000  141.9000    66.14634 -49.48667   -49.71027  184.0000 2805.9800
 2811.0000   73.4500    14.4000  141.9000    66.14656 -49.49333   -49.70731  192.0000 2806.4800
 2811.5000   71.5000    14.4000  141.9000    66.14677  -49.5000   -49.70435  192.0000 2806.9800
 2812.0000   74.9000    20.0000  141.9000    66.14699 -49.50667   -49.7014   192.0000 2807.4800
 2812.5000   73.7000    37.5000  141.9000    66.1472  -49.51333   -49.69844  192.0000 2807.9800
 2813.0000   63.0000    46.5000  141.9000    66.14742  -49.5200   -49.69548  183.0000 2808.4800
 2813.5000   65.5000    76.9000  141.9000    66.14763 -49.52667   -49.69253  183.0000 2808.9800
 2814.0000   75.33333   77.2000  141.9000    66.14785 -49.53333   -49.68957  160.0000 2809.4800
 2814.5000   85.16667   78.5000  141.9000    66.14806  -49.5400   -49.68661  137.0000 2809.9800
 2815.0000   95.0000    78.5000  141.9000    66.14828 -49.54667   -49.68366  137.0000 2810.4800
 2815.5000  107.9500    74.2500  141.9000    66.14849 -49.55333   -49.6807   102.0000 2810.9800
 2816.0000  120.9000    70.0000  141.9000    66.14871  -49.5600   -49.67774   93.5000 2811.4800
 2816.5000  129.2500    74.6000  141.9000    66.14892 -49.56667   -49.67478   85.0000 2811.9800
 2817.0000  137.6000    53.0000  141.9000    66.14914 -49.57333   -49.67183   85.0000 2812.4800
 2817.5000  126.3500    72.9000  141.9000    66.14935  -49.5800   -49.66887   88.0000 2812.9800
 2818.0000  115.1000   104.3000  141.9000    66.14957 -49.58667   -49.66591   86.0000 2813.4800
 2818.5000  118.3000    94.6500  141.9000    66.14978 -49.59333   -49.66296   84.0000 2813.9800
 2819.0000  121.5000    85.0000  141.9000    66.1500   -49.6000   -49.6600    84.0000 2814.4800
 2819.5000  109.4000    76.5000  141.9000    66.15032  -49.6100   -49.65559   99.0000 2814.9800
 2820.0000  109.3500   111.8000  141.9000    66.15064  -49.6200   -49.65117  124.0000 2815.4800
 2820.5000  109.3000    72.6000  141.9000    66.15096  -49.6300   -49.64676  149.0000 2815.9800
 2821.0000   99.5500    33.4000  141.9000    66.15128  -49.6400   -49.64234  149.0000 2816.4800
 2821.5000   89.8000    52.3000  141.9000    66.1516   -49.6500   -49.63793  171.0000 2816.9800
 2822.0000   93.8000    67.4000  141.9000    66.15191  -49.6600   -49.63351  179.0000 2817.4800
 2822.5000  109.43333   91.9000  141.9000    66.15223  -49.6700   -49.6291   179.0000 2817.9800
 2823.0000  125.06667  108.7000  141.9000    66.15255  -49.6800   -49.62468  179.0000 2818.4800
 2823.5000  140.7000   109.7000  141.9000    66.15287  -49.6900   -49.62027  189.0000 2818.9800
 2824.0000  151.03333  100.3000  141.9000    66.15319  -49.7000   -49.61585  196.0000 2819.4800
 2824.5000  161.36667  123.0000  141.9000    66.15351  -49.7100   -49.61144  196.0000 2819.9800
 2825.0000  171.7000   148.8000  141.9000    66.15383  -49.7200   -49.60702  196.0000 2820.4800
 2825.5000  150.8500   106.4000  141.9000    66.15415  -49.7300   -49.60261  188.0000 2820.9800
 2826.0000  130.0000    70.7000  141.9000    66.15447  -49.7400   -49.59819  188.0000 2821.4800
 2826.5000  107.6000    55.6000  141.9000    66.15479  -49.7500   -49.59378  188.0000 2821.9800
 2827.0000  103.5500    43.2000  141.9000    66.15511  -49.7600   -49.58936  188.0000 2822.4800
 2827.5000   99.5000    35.3000  141.9000    66.15543  -49.7700   -49.58495  194.0000 2822.9800
 2828.0000   88.8000    21.0000  141.9000    66.15574  -49.7800   -49.58053  212.0000 2823.4800
 2828.5000   84.3500    16.7000  141.9000    66.15606  -49.7900   -49.57612  212.0000 2823.9700
 2829.0000   79.9000    16.7000  141.9000    66.15638  -49.8000   -49.5717   212.0000 2824.4700
 2829.5000   76.1000    26.3000  141.9000    66.1567   -49.8100   -49.56729  246.0000 2824.9700
 2830.0000   82.3000    26.2000  141.9000    66.15702  -49.8200   -49.56287  259.0000 2825.4700
 2830.5000   91.4000    30.1000  141.9000    66.15734  -49.8300   -49.55846  259.0000 2825.9700
 2831.0000  100.5000    35.5000  141.9000    66.15766  -49.8400   -49.55404  259.0000 2826.4700
 2831.5000  110.6000    40.9000  141.9000    66.15798  -49.8500   -49.54963  247.0000 2826.9700
 2832.0000  120.7000    77.8000  141.9000    66.1583   -49.8600   -49.54521  208.0000 2827.4700
 2832.5000  123.93333   83.7000  141.9000    66.15862  -49.8700   -49.5408   208.0000 2827.9700
 2833.0000  127.16667   89.6000  141.9000    66.15894  -49.8800   -49.53638  193.5000 2828.4700
 2833.5000  130.4000    86.3000  141.9000    66.15926  -49.8900   -49.53197  179.0000 2828.9700
 2834.0000  136.63333   94.8000  141.9000    66.15957  -49.9000   -49.52755  160.0000 2829.4700
 2834.5000  142.86667  113.1000  141.9000    66.15989  -49.9100   -49.52314  160.0000 2829.9700
 2835.0000  149.1000   107.3000  141.9000    66.16021  -49.9200   -49.51872  160.0000 2830.4700
 2835.5000  148.1500   122.6000  141.9000    66.16053  -49.9300   -49.51431  160.0000 2830.9700
 2836.0000  147.2000   116.6500  141.9000    66.16085  -49.9400   -49.50989  163.0000 2831.4700
 2836.5000  107.8000   110.7000  141.9000    66.16117  -49.9500   -49.50548  163.0000 2831.9700
 2837.0000   89.7000   104.7500  141.9000    66.16149  -49.9600   -49.50106  170.0000 2832.4700
 2837.5000  104.96667   98.8000  141.9000    66.16181  -49.9700   -49.49665  177.0000 2832.9700
 2838.0000  120.23333  115.8000  141.9000    66.16213  -49.9800   -49.49223  177.0000 2833.4700
 2838.5000  135.5000   137.7000  141.9000    66.16245  -49.9900   -49.48782  190.0000 2833.9700
 2839.0000  133.1500    96.8000  141.9000    66.16277  -50.0000   -49.4834   247.0000 2834.4700
 2839.5000  130.8000    49.7000  141.9000    66.16309  -50.0100   -49.47899  247.0000 2834.9700
