~VERSION INFORMATION
 VERS.                 2.0:   CWLS LOG ASCII STANDARD - VERSION 2.0
 WRAP.                  NO:   SINGLE LINE PER DEPTH STEP
 CREA.                 03/05/2017 12:39:08
#CREATED USING IP VERSION 4.2.2015.61 BY PANESSOR ON 03/05/2017 12:39:08
~WELL INFORMATION
#MNEM.UNIT       DATA                          DESCRIPTION MNEMONIC
#---------      ---------------------------   --------------------------
 STRT    .FT        500.0000                  : START DEPTH
 STOP    .FT        5430.0000                 : STOP DEPTH
 STEP    .FT        0.5000                    : STEP VALUE
 NULL    .      -999.0000                     : NULL VALUE
 DATE    .      03/05/2017                    : LAS file Creation Date
 WELL  .      REPOSO-1            : Well Name
 COMP  .      INTERCOL            : Company
 FLD   .      PITAL               : Field
 STATE .      CESAR               : State
 COUNT .      COLOMBIA            : Country
 API   .      REP00001            : API Number
 UWI   .      100000000366        : Unique Well Identifier (UWI)
 LOC   .      GAUSS ORIGIN BOGOTA : Location
 LATI  .      8.3469500001        : Latitude/Northing
 LONG  .      -73.7031            : Longitude/Easting
 RWS   .      -999                : Def_Rw
 WST   .      -999                : Def_Rwt
 PROV  .                          : Province
 SRVC  .      SCH                 : Contractor
~CURVE INFORMATION
#MNEM                 UNIT       API CODE     Description
#----------     --------------- ----------  --------------
 DEPTH         .FT                        : 
 CALI_IR       .IN                        : Caliper
 DRHO_E_IR     .G/C3                      : Density correction
 DT_IR         .US/F                      : Delta-T Compressional
 GR_IR         .GAPI                      : Gamma Ray
 RD_E_IR       .OHMM                      : Formation Deep Resitivity
 ROP_E_IR      .Ft/h                      : Rate of Penetration
 RS_E_IR       .OHMM                      : Shallow Resistivity
 SPC_IR        .MV                        : Spontaneous Potential
 TOTAL_GAS_IR  .Units                     : Total Gas from Mudlog
 BS_IR         .inch                      : Bit Size
 DT_E_IR       .US/F                      : Delta-T Compressional
 RHOB_E_IR     .G/C3                      : Bulk Density
 NPHI_E_IR     .dec                       : Neutron porosity
 LS_IR         .%                         : Mudlog LIMESTONE
 CLST_IR       .%                         : Mudlog CLAYSTONE
 SH_IR         .%                         : Mudlog SHALE
 SLST_IR       .%                         : Mudlog SILSTONE
 CGL_IR        .%                         : Mudlog CONGLOMERATE
 SS_IR         .%                         : Mudlog SANDSTONE
 COAL_IR       .%                         : Mudlog COAL
 Temp_IR       .F                         : Formation Temperature
 PHIE_IR       .Dec                       : Effective Porosity
 SW_IR         .Dec                       : Effective Water Saturation
 BVW_IR        .Dec                       : Bulk Volume water (Phie x SW)
 VSand_IR      .dec                       : Sand Volume
 VWCL_IR       .Dec                       : Volume wet Clay
 VLime_IR      .dec                       : Limestone Volume
 VDol_IR       .dec                       : Dolomite Volume
 Perm_IR       .md                        : Calculated Permeability
 K_PHI_IR      .                          : K/PHI RATIO
 ResFlag_IR    .                          : Net Reservoir
 PayFlag_IR    .                          : Net Pay
 ResFlagRT_IR  .                          : Net Reservoir Rock Type
 PayFlagRT_IR  .                          : Pay Flag Rock Type
 MUD_WEIGHT_IR .PPG                       : MUD WEIGHT
 Rock_Type_IR  .microns                   : Pore Throat Size - Rock Types
 BADHOLE_IR    .FLAG                      : Bad Hole Indicator
 TVD_IR        .FT                        : True vertical depth
 TVDSS_IR      .FT                        : True vertical depth subsea
~P Interactive Petrophysics parameters
#Name        Value                 Description
#----- --------------------------  -----------
#Logging Run 
 RUN  .     1          : Run Number
 DATE .     28-ABR-80  : Date                      | RUN[0]
 DFT  .     /          : Type of Fluid in Hole     | RUN[1]
~A  DEPTH  CALI_IR  DRHO_E_I~   DT_IR     GR_IR    RD_E_IR   ROP_E_IR  RS_E_IR    SPC_IR  TOTAL_GA~   BS_IR    DT_E_IR  RHOB_E_I~ NPHI_E_I~   LS_IR    CLST_IR    SH_IR    SLST_IR    CGL_IR    SS_IR    COAL_IR   Temp_IR   PHIE_IR    SW_IR     BVW_IR   VSand_IR  VWCL_IR   VLime_IR  VDol_IR   Perm_IR   K_PHI_IR ResFlag_~ PayFlag_~ ResFlagR~ PayFlagR~ MUD_WEIG~ Rock_Typ~ BADHOLE_~   TVD_IR   TVDSS_IR 
# ...
2480.0000 -999.0000 -999.0000 -999.0000  116.0820    1.8800   58.4813    2.1981  -26.5037   99.0080    8.5000 -999.0000 -999.0000 -999.0000    0.0000  100.0000    0.0000    0.0000    0.0000    0.0000    0.0000  113.7682 -999.0000 -999.0000 -999.0000 -999.0000 -999.0000 -999.0000 -999.0000    0.0000 -999.0000    0.0000    0.0000    0.0000    0.0000    9.4000 -999.0000 -999.0000 2479.7755 -2239.7755 
2480.5000 -999.0000 -999.0000 -999.0000  113.6230    1.8860   59.1999    2.2039  -26.5216   98.9440    8.5000 -999.0000 -999.0000 -999.0000    0.0000  100.0000    0.0000    0.0000    0.0000    0.0000    0.0000  113.7740 -999.0000 -999.0000 -999.0000 -999.0000 -999.0000 -999.0000 -999.0000    0.0000 -999.0000    0.0000    0.0000    0.0000    0.0000    9.4000 -999.0000 -999.0000 2480.2753 -2240.2753 
2481.0000 -999.0000 -999.0000 -999.0000  114.6710    1.8910   58.8201    2.2088  -26.4406   98.8770    8.5000 -999.0000 -999.0000 -999.0000    0.0000  100.0000    0.0000    0.0000    0.0000    0.0000    0.0000  113.7798 -999.0000 -999.0000 -999.0000 -999.0000 -999.0000 -999.0000 -999.0000    0.0000 -999.0000    0.0000    0.0000    0.0000    0.0000    9.4000 -999.0000 -999.0000 2480.7752 -2240.7752 
2481.5000 -999.0000 -999.0000 -999.0000  115.8680    1.8970   58.9740    2.2146  -26.3585   98.8100    8.5000 -999.0000 -999.0000 -999.0000    0.0000  100.0000    0.0000    0.0000    0.0000    0.0000    0.0000  113.7856 -999.0000 -999.0000 -999.0000 -999.0000 -999.0000 -999.0000 -999.0000    0.0000 -999.0000    0.0000    0.0000    0.0000    0.0000    9.4000 -999.0000 -999.0000 2481.2751 -2241.2751 
2482.0000 -999.0000 -999.0000 -999.0000  116.3170    1.9030   58.9909    2.2204  -26.3764   98.7430    8.5000 -999.0000 -999.0000 -999.0000    0.0000  100.0000    0.0000    0.0000    0.0000    0.0000    0.0000  113.7914 -999.0000 -999.0000 -999.0000 -999.0000 -999.0000 -999.0000 -999.0000    0.0000 -999.0000    0.0000    0.0000    0.0000    0.0000    9.4000 -999.0000 -999.0000 2481.7749 -2241.7749 
2482.5000 -999.0000 -999.0000 -999.0000  116.9160    1.9080   59.0209    2.2253  -26.3943   98.6760    8.5000 -999.0000 -999.0000 -999.0000    0.0000  100.0000    0.0000    0.0000    0.0000    0.0000    0.0000  113.7972 -999.0000 -999.0000 -999.0000 -999.0000 -999.0000 -999.0000 -999.0000    0.0000 -999.0000    0.0000    0.0000    0.0000    0.0000    9.4000 -999.0000 -999.0000 2482.2748 -2242.2748 
2483.0000 -999.0000 -999.0000 -999.0000  117.8140    1.9140   59.0474    2.2311  -26.6112   98.6090    8.5000 -999.0000 -999.0000 -999.0000    0.0000  100.0000    0.0000    0.0000    0.0000    0.0000    0.0000  113.8030 -999.0000 -999.0000 -999.0000 -999.0000 -999.0000 -999.0000 -999.0000    0.0000 -999.0000    0.0000    0.0000    0.0000    0.0000    9.4000 -999.0000 -999.0000 2482.7747 -2242.7747 
2483.5000 -999.0000 -999.0000 -999.0000  118.1140    1.9200   59.0739    2.2369  -26.6291   98.5430    8.5000 -999.0000 -999.0000 -999.0000    0.0000  100.0000    0.0000    0.0000    0.0000    0.0000    0.0000  113.8088 -999.0000 -999.0000 -999.0000 -999.0000 -999.0000 -999.0000 -999.0000    0.0000 -999.0000    0.0000    0.0000    0.0000    0.0000    9.4000 -999.0000 -999.0000 2483.2745 -2243.2745 
2484.0000 -999.0000 -999.0000 -999.0000  118.1140    1.9250   59.1004    2.2418  -26.8470   98.4760    8.5000 -999.0000 -999.0000 -999.0000    0.0000  100.0000    0.0000    0.0000    0.0000    0.0000    0.0000  113.8146 -999.0000 -999.0000 -999.0000 -999.0000 -999.0000 -999.0000 -999.0000    0.0000 -999.0000    0.0000    0.0000    0.0000    0.0000    9.4000 -999.0000 -999.0000 2483.7744 -2243.7744 
2484.5000 -999.0000 -999.0000 -999.0000  117.6650    1.9310   59.1269    2.2476  -27.1639   98.4100    8.5000 -999.0000 -999.0000 -999.0000    0.0000  100.0000    0.0000    0.0000    0.0000    0.0000    0.0000  113.8204 -999.0000 -999.0000 -999.0000 -999.0000 -999.0000 -999.0000 -999.0000    0.0000 -999.0000    0.0000    0.0000    0.0000    0.0000    9.4000 -999.0000 -999.0000 2484.2743 -2244.2743 
2485.0000 -999.0000 -999.0000 -999.0000  116.6170    1.9590   59.1534    2.2747  -27.6808   98.3410    8.5000 -999.0000 -999.0000 -999.0000    0.0000  100.0000    0.0000    0.0000    0.0000    0.0000    0.0000  113.8262 -999.0000 -999.0000 -999.0000 -999.0000 -999.0000 -999.0000 -999.0000    0.0000 -999.0000    0.0000    0.0000    0.0000    0.0000    9.4000 -999.0000 -999.0000 2484.7741 -2244.7741 
2485.5000 -999.0000 -999.0000 -999.0000  114.9700    2.0050   59.1799    2.3190  -28.5977   98.2520    8.5000 -999.0000 -999.0000 -999.0000    0.0000  100.0000    0.0000    0.0000    0.0000    0.0000    0.0000  113.8320 -999.0000 -999.0000 -999.0000 -999.0000 -999.0000 -999.0000 -999.0000    0.0000 -999.0000    0.0000    0.0000    0.0000    0.0000    9.4000 -999.0000 -999.0000 2485.2740 -2245.2740 
2486.0000 -999.0000 -999.0000 -999.0000  111.2870    2.0230   59.2063    2.3362  -29.3136   97.9310    8.5000 -999.0000 -999.0000 -999.0000    0.0000  100.0000    0.0000    0.0000    0.0000    0.0000    0.0000  113.8378 -999.0000 -999.0000 -999.0000 -999.0000 -999.0000 -999.0000 -999.0000    0.0000 -999.0000    0.0000    0.0000    0.0000    0.0000    9.4000 -999.0000 -999.0000 2485.7738 -2245.7738 
2486.5000 -999.0000 -999.0000 -999.0000  109.7310    2.0230   59.2328    2.3362  -28.8325   97.6550    8.5000 -999.0000 -999.0000 -999.0000    0.0000  100.0000    0.0000    0.0000    0.0000    0.0000    0.0000  113.8436 -999.0000 -999.0000 -999.0000 -999.0000 -999.0000 -999.0000 -999.0000    0.0000 -999.0000    0.0000    0.0000    0.0000    0.0000    9.4000 -999.0000 -999.0000 2486.2737 -2246.2737 
2487.0000 -999.0000 -999.0000 -999.0000  110.0300    2.0300   59.2593    2.3430  -27.6534   97.6650    8.5000 -999.0000 -999.0000 -999.0000    0.0000  100.0000    0.0000    0.0000    0.0000    0.0000    0.0000  113.8494 -999.0000 -999.0000 -999.0000 -999.0000 -999.0000 -999.0000 -999.0000    0.0000 -999.0000    0.0000    0.0000    0.0000    0.0000    9.4000 -999.0000 -999.0000 2486.7736 -2246.7736 
2487.5000 -999.0000 -999.0000 -999.0000  111.0780    2.0420   59.2858    2.3544  -27.6713   97.6670    8.5000 -999.0000 -999.0000 -999.0000    0.0000  100.0000    0.0000    0.0000    0.0000    0.0000    0.0000  113.8552 -999.0000 -999.0000 -999.0000 -999.0000 -999.0000 -999.0000 -999.0000    0.0000 -999.0000    0.0000    0.0000    0.0000    0.0000    9.4000 -999.0000 -999.0000 2487.2734 -2247.2734 
2488.0000 -999.0000 -999.0000 -999.0000  112.5750    2.0280   59.3123    2.3410  -28.4872   97.6630    8.5000 -999.0000 -999.0000 -999.0000    0.0000  100.0000    0.0000    0.0000    0.0000    0.0000    0.0000  113.8610 -999.0000 -999.0000 -999.0000 -999.0000 -999.0000 -999.0000 -999.0000    0.0000 -999.0000    0.0000    0.0000    0.0000    0.0000    9.4000 -999.0000 -999.0000 2487.7733 -2247.7733 
2488.5000 -999.0000 -999.0000 -999.0000  114.0720    2.0150   59.3388    2.3286  -28.6051   97.8020    8.5000 -999.0000 -999.0000 -999.0000    0.0000  100.0000    0.0000    0.0000    0.0000    0.0000    0.0000  113.8668 -999.0000 -999.0000 -999.0000 -999.0000 -999.0000 -999.0000 -999.0000    0.0000 -999.0000    0.0000    0.0000    0.0000    0.0000    9.4000 -999.0000 -999.0000 2488.2732 -2248.2732 
2489.0000 -999.0000 -999.0000 -999.0000  114.2220    2.0010   59.3653    2.3151  -28.6231   97.9970    8.5000 -999.0000 -999.0000 -999.0000    0.0000  100.0000    0.0000    0.0000    0.0000    0.0000    0.0000  113.8726 -999.0000 -999.0000 -999.0000 -999.0000 -999.0000 -999.0000 -999.0000    0.0000 -999.0000    0.0000    0.0000    0.0000    0.0000    9.4000 -999.0000 -999.0000 2488.7730 -2248.7730 
2489.5000 -999.0000 -999.0000 -999.0000  112.7250    1.9880   59.3917    2.3026  -28.9600   98.1940    8.5000 -999.0000 -999.0000 -999.0000    0.0000  100.0000    0.0000    0.0000    0.0000    0.0000    0.0000  113.8784 -999.0000 -999.0000 -999.0000 -999.0000 -999.0000 -999.0000 -999.0000    0.0000 -999.0000    0.0000    0.0000    0.0000    0.0000    9.4000 -999.0000 -999.0000 2489.2729 -2249.2729 
