~VERSION INFORMATION
 VERS.                 2.0:   CWLS LOG ASCII STANDARD - VERSION 2.0
 WRAP.                  NO:   SINGLE LINE PER DEPTH STEP
 CREA.                 03/05/2017 12:39:08
#CREATED USING IP VERSION 4.2.2015.61 BY PANESSOR ON 03/05/2017 12:39:08
~WELL INFORMATION
#MNEM.UNIT       DATA                          DESCRIPTION MNEMONIC
#---------      ---------------------------   --------------------------
 STRT    .FT        500.0000                  : START DEPTH
 STOP    .FT        5430.0000                 : STOP DEPTH
 STEP    .FT        0.5000                    : STEP VALUE
 NULL    .      -999.0000                     : NULL VALUE
 DATE    .      03/05/2017                    : LAS file Creation Date
 WELL  .      REPOSO-1            : Well Name
 COMP  .      INTERCOL            : Company
 FLD   .      PITAL               : Field
 STATE .      CESAR               : State
 COUNT .      COLOMBIA            : Country
 API   .      REP00001            : API Number
 UWI   .      100000000366        : Unique Well Identifier (UWI)
 LOC   .      GAUSS ORIGIN BOGOTA : Location
 LATI  .      8.3469500001        : Latitude/Northing
 LONG  .      -73.7031            : Longitude/Easting
 RWS   .      -999                : Def_Rw
 WST   .      -999                : Def_Rwt
 PROV  .                          : Province
 SRVC  .      SCH                 : Contractor
~CURVE INFORMATION
#MNEM                 UNIT       API CODE     Description
#----------     --------------- ----------  --------------
 DEPTH         .FT                        : 
 CALI_IR       .IN                        : Caliper
 DRHO_E_IR     .G/C3                      : Density correction
 DT_IR         .US/F                      : Delta-T Compressional
 GR_IR         .GAPI                      : Gamma Ray
 RD_E_IR       .OHMM                      : Formation Deep Resitivity
 ROP_E_IR      .Ft/h                      : Rate of Penetration
 RS_E_IR       .OHMM                      : Shallow Resistivity
 SPC_IR        .MV                        : Spontaneous Potential
 TOTAL_GAS_IR  .Units                     : Total Gas from Mudlog
 BS_IR         .inch                      : Bit Size
 DT_E_IR       .US/F                      : Delta-T Compressional
 RHOB_E_IR     .G/C3                      : Bulk Density
 NPHI_E_IR     .dec                       : Neutron porosity
 LS_IR         .%                         : Mudlog LIMESTONE
 CLST_IR       .%                         : Mudlog CLAYSTONE
 SH_IR         .%                         : Mudlog SHALE
 SLST_IR       .%                         : Mudlog SILSTONE
 CGL_IR        .%                         : Mudlog CONGLOMERATE
 SS_IR         .%                         : Mudlog SANDSTONE
 COAL_IR       .%                         : Mudlog COAL
 Temp_IR       .F                         : Formation Temperature
 PHIE_IR       .Dec                       : Effective Porosity
 SW_IR         .Dec                       : Effective Water Saturation
 BVW_IR        .Dec                       : Bulk Volume water (Phie x SW)
 VSand_IR      .dec                       : Sand Volume
 VWCL_IR       .Dec                       : Volume wet Clay
 VLime_IR      .dec                       : Limestone Volume
 VDol_IR       .dec                       : Dolomite Volume
 Perm_IR       .md                        : Calculated Permeability
 K_PHI_IR      .                          : K/PHI RATIO
 ResFlag_IR    .                          : Net Reservoir
 PayFlag_IR    .                          : Net Pay
 ResFlagRT_IR  .                          : Net Reservoir Rock Type
 PayFlagRT_IR  .                          : Pay Flag Rock Type
 MUD_WEIGHT_IR .PPG                       : MUD WEIGHT
 Rock_Type_IR  .microns                   : Pore Throat Size - Rock Types
 BADHOLE_IR    .FLAG                      : Bad Hole Indicator
 TVD_IR        .FT                        : True vertical depth
 TVDSS_IR      .FT                        : True vertical depth subsea
~P Interactive Petrophysics parameters
#Name        Value                 Description
#----- --------------------------  -----------
#Logging Run 
 RUN  .     1          : Run Number
 DATE .     28-ABR-80  : Date                      | RUN[0]
 DFT  .     /          : Type of Fluid in Hole     | RUN[1]
~A  DEPTH  CALI_IR  DRHO_E_I~   DT_IR     GR_IR    RD_E_IR   ROP_E_IR  RS_E_IR    SPC_IR  TOTAL_GA~   BS_IR    DT_E_IR  RHOB_E_I~ NPHI_E_I~   LS_IR    CLST_IR    SH_IR    SLST_IR    CGL_IR    SS_IR    COAL_IR   Temp_IR   PHIE_IR    SW_IR     BVW_IR   VSand_IR  VWCL_IR   VLime_IR  VDol_IR   Perm_IR   K_PHI_IR ResFlag_~ PayFlag_~ ResFlagR~ PayFlagR~ MUD_WEIG~ Rock_Typ~ BADHOLE_~   TVD_IR   TVDSS_IR 
# ...
1830.0000 -999.0000 -999.0000 -999.0000   75.1500    4.1850   72.3333    4.2236  -24.5490    0.7240 -999.0000 -999.0000 -999.0000 -999.0000    0.0000   70.0000    0.0000    0.0000   30.0000    0.0000    0.0000  106.2281 -999.0000 -999.0000 -999.0000 -999.0000 -999.0000 -999.0000 -999.0000    0.0000 -999.0000    0.0000    0.0000    0.0000    0.0000    9.4000 -999.0000 -999.0000 1829.9098 -1589.9098 
1830.5000 -999.0000 -999.0000 -999.0000   75.4490    4.1850   73.6667    4.2236  -25.0499    0.7150 -999.0000 -999.0000 -999.0000 -999.0000    0.0000   70.0000    0.0000    0.0000   30.0000    0.0000    0.0000  106.2339 -999.0000 -999.0000 -999.0000 -999.0000 -999.0000 -999.0000 -999.0000    0.0000 -999.0000    0.0000    0.0000    0.0000    0.0000    9.4000 -999.0000 -999.0000 1830.4097 -1590.4097 
1831.0000 -999.0000 -999.0000 -999.0000   73.3530    4.1850   73.4458    4.2236  -25.5507    0.7060 -999.0000 -999.0000 -999.0000 -999.0000    0.0000   70.0000    0.0000    0.0000   30.0000    0.0000    0.0000  106.2397 -999.0000 -999.0000 -999.0000 -999.0000 -999.0000 -999.0000 -999.0000    0.0000 -999.0000    0.0000    0.0000    0.0000    0.0000    9.4000 -999.0000 -999.0000 1830.9096 -1590.9096 
1831.5000 -999.0000 -999.0000 -999.0000   71.4070    4.1850   73.6713    4.2236  -25.6785    0.6970 -999.0000 -999.0000 -999.0000 -999.0000    0.0000   70.0000    0.0000    0.0000   30.0000    0.0000    0.0000  106.2455 -999.0000 -999.0000 -999.0000 -999.0000 -999.0000 -999.0000 -999.0000    0.0000 -999.0000    0.0000    0.0000    0.0000    0.0000    9.4000 -999.0000 -999.0000 1831.4096 -1591.4096 
1832.0000 -999.0000 -999.0000 -999.0000   70.8080    4.1850   73.5951    4.2236  -25.8173    0.6880 -999.0000 -999.0000 -999.0000 -999.0000    0.0000   70.0000    0.0000    0.0000   30.0000    0.0000    0.0000  106.2513 -999.0000 -999.0000 -999.0000 -999.0000 -999.0000 -999.0000 -999.0000    0.0000 -999.0000    0.0000    0.0000    0.0000    0.0000    9.4000 -999.0000 -999.0000 1831.9095 -1591.9095 
1832.5000 -999.0000 -999.0000 -999.0000   69.1620    4.1850   73.5362    4.2236  -25.9561    0.6790 -999.0000 -999.0000 -999.0000 -999.0000    0.0000   70.0000    0.0000    0.0000   30.0000    0.0000    0.0000  106.2571 -999.0000 -999.0000 -999.0000 -999.0000 -999.0000 -999.0000 -999.0000    0.0000 -999.0000    0.0000    0.0000    0.0000    0.0000    9.4000 -999.0000 -999.0000 1832.4094 -1592.4094 
1833.0000 -999.0000 -999.0000 -999.0000   67.3650    4.1850   73.4952    4.2236  -26.0950    0.6700 -999.0000 -999.0000 -999.0000 -999.0000    0.0000   70.0000    0.0000    0.0000   30.0000    0.0000    0.0000  106.2629 -999.0000 -999.0000 -999.0000 -999.0000 -999.0000 -999.0000 -999.0000    0.0000 -999.0000    0.0000    0.0000    0.0000    0.0000    9.4000 -999.0000 -999.0000 1832.9093 -1592.9093 
1833.5000 -999.0000 -999.0000 -999.0000   67.2160    4.1850   73.4556    4.2236  -26.2328    0.6610 -999.0000 -999.0000 -999.0000 -999.0000    0.0000   70.0000    0.0000    0.0000   30.0000    0.0000    0.0000  106.2687 -999.0000 -999.0000 -999.0000 -999.0000 -999.0000 -999.0000 -999.0000    0.0000 -999.0000    0.0000    0.0000    0.0000    0.0000    9.4000 -999.0000 -999.0000 1833.4093 -1593.4093 
1834.0000 -999.0000 -999.0000 -999.0000   68.4130    4.1850   73.4160    4.2236  -26.3606    0.6520 -999.0000 -999.0000 -999.0000 -999.0000    0.0000   70.0000    0.0000    0.0000   30.0000    0.0000    0.0000  106.2745 -999.0000 -999.0000 -999.0000 -999.0000 -999.0000 -999.0000 -999.0000    0.0000 -999.0000    0.0000    0.0000    0.0000    0.0000    9.4000 -999.0000 -999.0000 1833.9092 -1593.9092 
1834.5000 -999.0000 -999.0000 -999.0000   67.9640    4.1850   73.3765    4.2236  -26.1624    0.6430 -999.0000 -999.0000 -999.0000 -999.0000    0.0000   70.0000    0.0000    0.0000   30.0000    0.0000    0.0000  106.2803 -999.0000 -999.0000 -999.0000 -999.0000 -999.0000 -999.0000 -999.0000    0.0000 -999.0000    0.0000    0.0000    0.0000    0.0000    9.4000 -999.0000 -999.0000 1834.4091 -1594.4091 
1835.0000 -999.0000 -999.0000 -999.0000   65.8680    4.1850   73.3369    4.2236  -25.6702    0.6340 -999.0000 -999.0000 -999.0000 -999.0000    0.0000   70.0000    0.0000    0.0000   30.0000    0.0000    0.0000  106.2861 -999.0000 -999.0000 -999.0000 -999.0000 -999.0000 -999.0000 -999.0000    0.0000 -999.0000    0.0000    0.0000    0.0000    0.0000    9.4000 -999.0000 -999.0000 1834.9090 -1594.9090 
1835.5000 -999.0000 -999.0000 -999.0000   64.5210    4.1680   73.2973    4.2098  -25.2161    0.6250 -999.0000 -999.0000 -999.0000 -999.0000    0.0000   66.0000    0.0000    0.0000   34.0000    0.0000    0.0000  106.2919 -999.0000 -999.0000 -999.0000 -999.0000 -999.0000 -999.0000 -999.0000    0.0000 -999.0000    0.0000    0.0000    0.0000    0.0000    9.4000 -999.0000 -999.0000 1835.4090 -1595.4090 
1836.0000 -999.0000 -999.0000 -999.0000   64.5210    4.1500   73.2578    4.1953  -24.7619    0.6160 -999.0000 -999.0000 -999.0000 -999.0000    0.0000   62.0000    0.0000    0.0000   38.0000    0.0000    0.0000  106.2977 -999.0000 -999.0000 -999.0000 -999.0000 -999.0000 -999.0000 -999.0000    0.0000 -999.0000    0.0000    0.0000    0.0000    0.0000    9.4000 -999.0000 -999.0000 1835.9089 -1595.9089 
1836.5000 -999.0000 -999.0000 -999.0000   66.1680    4.1310   73.2182    4.1799  -24.2737    0.6070 -999.0000 -999.0000 -999.0000 -999.0000    0.0000   58.0000    0.0000    0.0000   42.0000    0.0000    0.0000  106.3035 -999.0000 -999.0000 -999.0000 -999.0000 -999.0000 -999.0000 -999.0000    0.0000 -999.0000    0.0000    0.0000    0.0000    0.0000    9.4000 -999.0000 -999.0000 1836.4088 -1596.4088 
1837.0000 -999.0000 -999.0000 -999.0000   68.8850    4.1130   73.1786    4.1654  -23.9465    0.5970 -999.0000 -999.0000 -999.0000 -999.0000    0.0000   54.0000    0.0000    0.0000   46.0000    0.0000    0.0000  106.3093 -999.0000 -999.0000 -999.0000 -999.0000 -999.0000 -999.0000 -999.0000    0.0000 -999.0000    0.0000    0.0000    0.0000    0.0000    9.4000 -999.0000 -999.0000 1836.9087 -1596.9087 
1837.5000 -999.0000 -999.0000 -999.0000   71.6860    4.0940   73.1118    4.1500  -23.8773    0.5880 -999.0000 -999.0000 -999.0000 -999.0000    0.0000   50.0000    0.0000    0.0000   50.0000    0.0000    0.0000  106.3151 -999.0000 -999.0000 -999.0000 -999.0000 -999.0000 -999.0000 -999.0000    0.0000 -999.0000    0.0000    0.0000    0.0000    0.0000    9.4000 -999.0000 -999.0000 1837.4087 -1597.4087 
1838.0000 -999.0000 -999.0000 -999.0000   74.4860    4.0760   73.0775    4.1354  -23.8082    0.5790 -999.0000 -999.0000 -999.0000 -999.0000    0.0000   46.0000    0.0000    0.0000   54.0000    0.0000    0.0000  106.3209 -999.0000 -999.0000 -999.0000 -999.0000 -999.0000 -999.0000 -999.0000    0.0000 -999.0000    0.0000    0.0000    0.0000    0.0000    9.4000 -999.0000 -999.0000 1837.9086 -1597.9086 
1838.5000 -999.0000 -999.0000 -999.0000   77.2870    4.0710   73.0599    4.1313  -23.7820    0.5700 -999.0000 -999.0000 -999.0000 -999.0000    0.0000   42.0000    0.0000    0.0000   58.0000    0.0000    0.0000  106.3267 -999.0000 -999.0000 -999.0000 -999.0000 -999.0000 -999.0000 -999.0000    0.0000 -999.0000    0.0000    0.0000    0.0000    0.0000    9.4000 -999.0000 -999.0000 1838.4085 -1598.4085 
1839.0000 -999.0000 -999.0000 -999.0000   79.6270    4.1090   73.0203    4.1621  -23.7838    0.5610 -999.0000 -999.0000 -999.0000 -999.0000    0.0000   38.0000    0.0000    0.0000   62.0000    0.0000    0.0000  106.3325 -999.0000 -999.0000 -999.0000 -999.0000 -999.0000 -999.0000 -999.0000    0.0000 -999.0000    0.0000    0.0000    0.0000    0.0000    9.4000 -999.0000 -999.0000 1838.9085 -1598.9085 
1839.5000 -999.0000 -999.0000 -999.0000   80.9880    4.1470   73.0000    4.1929  -23.7856    0.5520 -999.0000 -999.0000 -999.0000 -999.0000    0.0000   34.0000    0.0000    0.0000   66.0000    0.0000    0.0000  106.3383 -999.0000 -999.0000 -999.0000 -999.0000 -999.0000 -999.0000 -999.0000    0.0000 -999.0000    0.0000    0.0000    0.0000    0.0000    9.4000 -999.0000 -999.0000 1839.4084 -1599.4084 
