~VERSION INFORMATION
 VERS.                 2.0:   CWLS LOG ASCII STANDARD - VERSION 2.0
 WRAP.                  NO:   SINGLE LINE PER DEPTH STEP
 CREA.                 03/05/2017 12:39:08
#CREATED USING IP VERSION 4.2.2015.61 BY PANESSOR ON 03/05/2017 12:39:08
~WELL INFORMATION
#MNEM.UNIT       DATA                          DESCRIPTION MNEMONIC
#---------      ---------------------------   --------------------------
 STRT    .FT        500.0000                  : START DEPTH
 STOP    .FT        5430.0000                 : STOP DEPTH
 STEP    .FT        0.5000                    : STEP VALUE
 NULL    .      -999.0000                     : NULL VALUE
 DATE    .      03/05/2017                    : LAS file Creation Date
 WELL  .      REPOSO-1            : Well Name
 COMP  .      INTERCOL            : Company
 FLD   .      PITAL               : Field
 STATE .      CESAR               : State
 COUNT .      COLOMBIA            : Country
 API   .      REP00001            : API Number
 UWI   .      100000000366        : Unique Well Identifier (UWI)
 LOC   .      GAUSS ORIGIN BOGOTA : Location
 LATI  .      8.3469500001        : Latitude/Northing
 LONG  .      -73.7031            : Longitude/Easting
 RWS   .      -999                : Def_Rw
 WST   .      -999                : Def_Rwt
 PROV  .                          : Province
 SRVC  .      SCH                 : Contractor
~CURVE INFORMATION
#MNEM                 UNIT       API CODE     Description
#----------     --------------- ----------  --------------
 DEPTH         .FT                        : 
 CALI_IR       .IN                        : Caliper
 DRHO_E_IR     .G/C3                      : Density correction
 DT_IR         .US/F                      : Delta-T Compressional
 GR_IR         .GAPI                      : Gamma Ray
 RD_E_IR       .OHMM                      : Formation Deep Resitivity
 ROP_E_IR      .Ft/h                      : Rate of Penetration
 RS_E_IR       .OHMM                      : Shallow Resistivity
 SPC_IR        .MV                        : Spontaneous Potential
 TOTAL_GAS_IR  .Units                     : Total Gas from Mudlog
 BS_IR         .inch                      : Bit Size
 DT_E_IR       .US/F                      : Delta-T Compressional
 RHOB_E_IR     .G/C3                      : Bulk Density
 NPHI_E_IR     .dec                       : Neutron porosity
 LS_IR         .%                         : Mudlog LIMESTONE
 CLST_IR       .%                         : Mudlog CLAYSTONE
 SH_IR         .%                         : Mudlog SHALE
 SLST_IR       .%                         : Mudlog SILSTONE
 CGL_IR        .%                         : Mudlog CONGLOMERATE
 SS_IR         .%                         : Mudlog SANDSTONE
 COAL_IR       .%                         : Mudlog COAL
 Temp_IR       .F                         : Formation Temperature
 PHIE_IR       .Dec                       : Effective Porosity
 SW_IR         .Dec                       : Effective Water Saturation
 BVW_IR        .Dec                       : Bulk Volume water (Phie x SW)
 VSand_IR      .dec                       : Sand Volume
 VWCL_IR       .Dec                       : Volume wet Clay
 VLime_IR      .dec                       : Limestone Volume
 VDol_IR       .dec                       : Dolomite Volume
 Perm_IR       .md                        : Calculated Permeability
 K_PHI_IR      .                          : K/PHI RATIO
 ResFlag_IR    .                          : Net Reservoir
 PayFlag_IR    .                          : Net Pay
 ResFlagRT_IR  .                          : Net Reservoir Rock Type
 PayFlagRT_IR  .                          : Pay Flag Rock Type
 MUD_WEIGHT_IR .PPG                       : MUD WEIGHT
 Rock_Type_IR  .microns                   : Pore Throat Size - Rock Types
 BADHOLE_IR    .FLAG                      : Bad Hole Indicator
 TVD_IR        .FT                        : True vertical depth
 TVDSS_IR      .FT                        : True vertical depth subsea
~P Interactive Petrophysics parameters
#Name        Value                 Description
#----- --------------------------  -----------
#Logging Run 
 RUN  .     1          : Run Number
 DATE .     28-ABR-80  : Date                      | RUN[0]
 DFT  .     /          : Type of Fluid in Hole     | RUN[1]
~A  DEPTH  CALI_IR  DRHO_E_I~   DT_IR     GR_IR    RD_E_IR   ROP_E_IR  RS_E_IR    SPC_IR  TOTAL_GA~   BS_IR    DT_E_IR  RHOB_E_I~ NPHI_E_I~   LS_IR    CLST_IR    SH_IR    SLST_IR    CGL_IR    SS_IR    COAL_IR   Temp_IR   PHIE_IR    SW_IR     BVW_IR   VSand_IR  VWCL_IR   VLime_IR  VDol_IR   Perm_IR   K_PHI_IR ResFlag_~ PayFlag_~ ResFlagR~ PayFlagR~ MUD_WEIG~ Rock_Typ~ BADHOLE_~   TVD_IR   TVDSS_IR 
# ...
3460.0000    9.4179    0.0582   82.6420  143.6889   15.9600   38.7464   17.0238  -43.3713   28.4970    8.5000   82.6420    2.4701    0.2067   10.0000    0.0000   90.0000    0.0000    0.0000    0.0000    0.0000  125.1363    0.0281    1.0000    0.0281    0.0000    0.5916    0.3803    0.0000    0.0004    0.0127    0.0000    0.0000    0.0000    0.0000   10.7000    0.0118    0.0000 3456.4686 -3216.4686 
3460.5000    9.4204    0.0490   85.1000  148.8453   14.8260   39.4352   17.0874  -43.1915   28.6500    8.5000   85.1000    2.4717    0.2204   10.0000    0.0000   90.0000    0.0000    0.0000    0.0000    0.0000  125.1421    0.0221    1.0000    0.0221    0.0000    0.6304    0.3475    0.0000    0.0001    0.0051    0.0000    0.0000    0.0000    0.0000   10.7000    0.0070    0.0000 3456.9580 -3216.9580 
3461.0000    9.4229    0.0327   85.9000  151.4231   13.5220   38.9756   18.7202  -43.0126   28.8700    8.5000   85.9000    2.4728    0.2447   10.0000    0.0000   90.0000    0.0000    0.0000    0.0000    0.0000  125.1479    0.0189    1.0000    0.0189    0.0000    0.6498    0.2690    0.0623    0.0001    0.0028    0.0000    0.0000    0.0000    0.0000   10.7000    0.0050    0.0000 3457.4474 -3217.4474 
3461.5000    9.4254    0.0136   83.7000  148.0375   12.7950   39.0627   21.5212  -42.8338   29.0660    8.5000   83.7000    2.4732    0.2557   10.0000    0.0000   90.0000    0.0000    0.0000    0.0000    0.0000  125.1537    0.0218    1.0000    0.0218    0.0000    0.6243    0.2806    0.0732    0.0001    0.0049    0.0000    0.0000    0.0000    0.0000   10.7000    0.0068    0.0000 3457.9368 -3217.9368 
3462.0000    9.4279   -0.0002   79.3000  139.8138   22.6480   38.9436   24.5248  -42.5520   29.4240    8.5000   79.3000    2.4808    0.2377   10.0000    0.0000   90.0000    0.0000    0.0000    0.0000    0.0000  125.1595    0.0244    1.0000    0.0244    0.0000    0.5625    0.3757    0.0374    0.0002    0.0075    0.0000    0.0000    0.0000    0.0000   10.7000    0.0087    0.0000 3458.4262 -3218.4262 
3462.5000    9.4304   -0.0022   75.0000  129.8248   34.0520   38.8448   26.1042  -42.5371   29.7920    8.5000   75.0000    2.4835    0.1987   10.0000    0.0000   90.0000    0.0000    0.0000    0.0000    0.0000  125.1653    0.0320    1.0000    0.0320    0.0000    0.4874    0.4806    0.0000    0.0007    0.0209    0.0000    0.0000    0.0000    0.0000   10.7000    0.0158    0.0000 3458.9155 -3218.9155 
3463.0000    9.4329    0.0066   72.9000  124.3311   45.1890   38.7519   24.4635  -42.5223   30.1670    8.5000   72.9000    2.4793    0.1690   10.0000    0.0000   90.0000    0.0000    0.0000    0.0000    0.0000  125.1711    0.0401    1.0000    0.0401    0.0000    0.4461    0.5138    0.0000    0.0020    0.0491    0.0000    0.0000    0.0000    0.0000   10.7000    0.0258    0.0000 3459.4048 -3219.4048 
3463.5000    9.4349    0.0093   74.1000  125.7532   76.3890   38.6541   21.2215  -42.5075   30.5440    8.5000   74.1000    2.4490    0.1561   10.0000    0.0000   90.0000    0.0000    0.0000    0.0000    0.0000  125.1769    0.0561    0.7978    0.0448    0.0000    0.4568    0.4871    0.0000    0.0155    0.2770    0.0000    0.0000    0.0000    0.0000   10.7000    0.0694    0.0000 3459.8942 -3219.8942 
3464.0000    9.4439    0.0041   76.8000  133.4425   49.8970   38.6228   20.0208  -42.4927   30.9200    8.5000   76.8000    2.4264    0.1606   10.0000    0.0000   90.0000    0.0000    0.0000    0.0000    0.0000  125.1827    0.0649    0.8554    0.0555    0.0000    0.5146    0.4205    0.0000    0.0272    0.4185    0.0000    0.0000    0.0000    0.0000   10.7000    0.0882    0.0000 3460.3835 -3220.3835 
3464.5000    9.4600    0.0039   79.0000  144.1015   32.5890   38.4888   23.2008  -42.4778   31.2970    8.5000   79.0000    2.4526    0.1794   10.0000    0.0000   90.0000    0.0000    0.0000    0.0000    0.0000  125.1885    0.0396    1.0000    0.0396    0.0000    0.5947    0.3656    0.0000    0.0019    0.0471    0.0000    0.0000    0.0000    0.0000   10.7000    0.0251    0.0000 3460.8727 -3220.8727 
3465.0000    9.4773    0.0124   80.6000  150.6684   29.0420   39.1304   28.4499  -42.4630   31.6730    8.5000   80.6000    2.4753    0.2010   10.0000    0.0000   90.0000    0.0000    0.0000    0.0000    0.0000  125.1943    0.0179    1.0000    0.0179    0.0000    0.6441    0.3380    0.0000    0.0000    0.0023    0.0000    0.0000    0.0000    0.0000   10.7000    0.0044    0.0000 3461.3620 -3221.3620 
3465.5000    9.5052    0.0363   82.3000  152.9595   29.0420   43.1438   33.1307  -42.4482   32.0480    8.5000   82.3000    2.4882    0.2226    9.0000    0.0000   91.0000    0.0000    0.0000    0.0000    0.0000  125.2001    0.0069    1.0000    0.0069    0.0000    0.6613    0.3294    0.0024    0.0000    0.0001    0.0000    0.0000    0.0000    0.0000   10.7000    0.0005    0.0000 3461.8513 -3221.8513 
3466.0000    9.5422    0.0326   85.0500  153.0165   27.8630   43.1438   34.8187  -42.4333   32.4230    8.5000   85.0500    2.4694    0.2461    8.0000    0.0000   92.0000    0.0000    0.0000    0.0000    0.0000  125.2059    0.0197    1.0000    0.0197    0.0000    0.6618    0.2801    0.0384    0.0001    0.0033    0.0000    0.0000    0.0000    0.0000   10.7000    0.0055    0.0000 3462.3405 -3222.3405 
3466.5000    9.5778    0.0117   87.1440  151.2955   26.0080   43.1438   32.3727  -42.4185   32.7980    8.5000   87.1440    2.4372    0.2744    7.0000    0.0000   93.0000    0.0000    0.0000    0.0000    0.0000  125.2117    0.0434    1.0000    0.0434    0.0000    0.6488    0.2548    0.0529    0.0029    0.0663    0.0000    0.0000    0.0000    0.0000   10.7000    0.0306    0.0000 3462.8297 -3222.8297 
3467.0000    9.6141    0.0146   88.3000  147.7666   22.0350   43.1438   28.2193  -42.4037   33.2080    8.5000   88.3000    2.4387    0.2964    6.0000    0.0000   94.0000    0.0000    0.0000    0.0000    0.0000  125.2175    0.0457    1.0000    0.0457    0.0000    0.6223    0.1968    0.1352    0.0037    0.0807    0.0000    0.0000    0.0000    0.0000   10.7000    0.0343    0.0000 3463.3189 -3223.3189 
3467.5000    9.6262    0.0158   88.5000  143.3841   19.3660   43.1438   23.8755  -42.3888   33.5410    8.5000   88.5000    2.4276    0.2971    5.0000    0.0000   95.0000    0.0000    0.0000    0.0000    0.0000  125.2233    0.0574    1.0000    0.0574    0.0000    0.5894    0.2202    0.1330    0.0111    0.1925    0.0000    0.0000    0.0000    0.0000   10.7000    0.0566    0.0000 3463.8081 -3223.8081 
3468.0000    9.6160    0.0213   88.1000  139.9471   18.0730   43.1438   20.6336  -42.3740   33.9130    8.5000   88.1000    2.4101    0.2775    4.0000    0.0000   96.0000    0.0000    0.0000    0.0000    0.0000  125.2291    0.0726    1.0000    0.0726    0.0000    0.5635    0.3105    0.0534    0.0342    0.4704    0.0000    0.0000    0.0000    0.0000   10.7000    0.0946    0.0000 3464.2973 -3224.2973 
3468.5000    9.6067    0.0221   87.9000  137.6522   16.2570   43.1438   18.3700  -42.1612   34.4140    8.5000   87.9000    2.3982    0.2608    3.0000    0.0000   97.0000    0.0000    0.0000    0.0000    0.0000  125.2349    0.0829    1.0000    0.0829    0.0000    0.5463    0.3708    0.0000    0.0646    0.7789    0.0000    0.0000    0.0000    0.0000   10.7000    0.1266    0.0000 3464.7864 -3224.7864 
3469.0000    9.5960    0.0228   87.7000  136.7316   15.2420   43.1438   16.0609  -42.1464   34.7610    8.5000   87.7000    2.3969    0.2588    2.0000    0.0000   98.0000    0.0000    0.0000    0.0000    0.0000  125.2407    0.0847    1.0000    0.0847    0.0000    0.5393    0.3760    0.0000    0.0715    0.8435    0.0000    0.0000    0.0000    0.0000   10.7000    0.1325    0.0000 3465.2756 -3225.2756 
3469.5000    9.6095    0.0241   87.5000  138.1613   15.3830   43.1438   14.8352  -42.1315   35.0560    8.5000   87.5000    2.3953    0.2518    1.0000    0.0000   99.0000    0.0000    0.0000    0.0000    0.0000  125.2465    0.0844    1.0000    0.0844    0.0000    0.5501    0.3655    0.0000    0.0704    0.8338    0.0000    0.0000    0.0000    0.0000   10.7000    0.1316    0.0000 3465.7647 -3225.7647 
