~VERSION INFORMATION
 VERS.                 2.0:   CWLS LOG ASCII STANDARD - VERSION 2.0
 WRAP.                  NO:   SINGLE LINE PER DEPTH STEP
 CREA.                 03/05/2017 12:39:08
#CREATED USING IP VERSION 4.2.2015.61 BY PANESSOR ON 03/05/2017 12:39:08
~WELL INFORMATION
#MNEM.UNIT       DATA                          DESCRIPTION MNEMONIC
#---------      ---------------------------   --------------------------
 STRT    .FT        500.0000                  : START DEPTH
 STOP    .FT        5430.0000                 : STOP DEPTH
 STEP    .FT        0.5000                    : STEP VALUE
 NULL    .      -999.0000                     : NULL VALUE
 DATE    .      03/05/2017                    : LAS file Creation Date
 WELL  .      REPOSO-1            : Well Name
 COMP  .      INTERCOL            : Company
 FLD   .      PITAL               : Field
 STATE .      CESAR               : State
 COUNT .      COLOMBIA            : Country
 API   .      REP00001            : API Number
 UWI   .      100000000366        : Unique Well Identifier (UWI)
 LOC   .      GAUSS ORIGIN BOGOTA : Location
 LATI  .      8.3469500001        : Latitude/Northing
 LONG  .      -73.7031            : Longitude/Easting
 RWS   .      -999                : Def_Rw
 WST   .      -999                : Def_Rwt
 PROV  .                          : Province
 SRVC  .      SCH                 : Contractor
~CURVE INFORMATION
#MNEM                 UNIT       API CODE     Description
#----------     --------------- ----------  --------------
 DEPTH         .FT                        : 
 CALI_IR       .IN                        : Caliper
 DRHO_E_IR     .G/C3                      : Density correction
 DT_IR         .US/F                      : Delta-T Compressional
 GR_IR         .GAPI                      : Gamma Ray
 RD_E_IR       .OHMM                      : Formation Deep Resitivity
 ROP_E_IR      .Ft/h                      : Rate of Penetration
 RS_E_IR       .OHMM                      : Shallow Resistivity
 SPC_IR        .MV                        : Spontaneous Potential
 TOTAL_GAS_IR  .Units                     : Total Gas from Mudlog
 BS_IR         .inch                      : Bit Size
 DT_E_IR       .US/F                      : Delta-T Compressional
 RHOB_E_IR     .G/C3                      : Bulk Density
 NPHI_E_IR     .dec                       : Neutron porosity
 LS_IR         .%                         : Mudlog LIMESTONE
 CLST_IR       .%                         : Mudlog CLAYSTONE
 SH_IR         .%                         : Mudlog SHALE
 SLST_IR       .%                         : Mudlog SILSTONE
 CGL_IR        .%                         : Mudlog CONGLOMERATE
 SS_IR         .%                         : Mudlog SANDSTONE
 COAL_IR       .%                         : Mudlog COAL
 Temp_IR       .F                         : Formation Temperature
 PHIE_IR       .Dec                       : Effective Porosity
 SW_IR         .Dec                       : Effective Water Saturation
 BVW_IR        .Dec                       : Bulk Volume water (Phie x SW)
 VSand_IR      .dec                       : Sand Volume
 VWCL_IR       .Dec                       : Volume wet Clay
 VLime_IR      .dec                       : Limestone Volume
 VDol_IR       .dec                       : Dolomite Volume
 Perm_IR       .md                        : Calculated Permeability
 K_PHI_IR      .                          : K/PHI RATIO
 ResFlag_IR    .                          : Net Reservoir
 PayFlag_IR    .                          : Net Pay
 ResFlagRT_IR  .                          : Net Reservoir Rock Type
 PayFlagRT_IR  .                          : Pay Flag Rock Type
 MUD_WEIGHT_IR .PPG                       : MUD WEIGHT
 Rock_Type_IR  .microns                   : Pore Throat Size - Rock Types
 BADHOLE_IR    .FLAG                      : Bad Hole Indicator
 TVD_IR        .FT                        : True vertical depth
 TVDSS_IR      .FT                        : True vertical depth subsea
~P Interactive Petrophysics parameters
#Name        Value                 Description
#----- --------------------------  -----------
#Logging Run 
 RUN  .     1          : Run Number
 DATE .     28-ABR-80  : Date                      | RUN[0]
 DFT  .     /          : Type of Fluid in Hole     | RUN[1]
~A  DEPTH  CALI_IR  DRHO_E_I~   DT_IR     GR_IR    RD_E_IR   ROP_E_IR  RS_E_IR    SPC_IR  TOTAL_GA~   BS_IR    DT_E_IR  RHOB_E_I~ NPHI_E_I~   LS_IR    CLST_IR    SH_IR    SLST_IR    CGL_IR    SS_IR    COAL_IR   Temp_IR   PHIE_IR    SW_IR     BVW_IR   VSand_IR  VWCL_IR   VLime_IR  VDol_IR   Perm_IR   K_PHI_IR ResFlag_~ PayFlag_~ ResFlagR~ PayFlagR~ MUD_WEIG~ Rock_Typ~ BADHOLE_~   TVD_IR   TVDSS_IR 
# ...
1180.0000 -999.0000 -999.0000 -999.0000   74.3220    8.2680   69.2308    7.2046  -21.3403 -999.0000 -999.0000 -999.0000 -999.0000 -999.0000    0.0000   80.0000    0.0000    0.0000   20.0000    0.0000    0.0000   98.6881 -999.0000 -999.0000 -999.0000 -999.0000 -999.0000 -999.0000 -999.0000    0.0000 -999.0000    0.0000    0.0000    0.0000    0.0000    9.4000 -999.0000 -999.0000 1179.9758 -939.9758 
1180.5000 -999.0000 -999.0000 -999.0000   70.6590    8.0060   69.8997    7.0281  -21.6567 -999.0000 -999.0000 -999.0000 -999.0000 -999.0000    0.0000   80.0000    0.0000    0.0000   20.0000    0.0000    0.0000   98.6939 -999.0000 -999.0000 -999.0000 -999.0000 -999.0000 -999.0000 -999.0000    0.0000 -999.0000    0.0000    0.0000    0.0000    0.0000    9.4000 -999.0000 -999.0000 1180.4758 -940.4758 
1181.0000 -999.0000 -999.0000 -999.0000   69.0120    7.7880   69.8997    6.8800  -21.9731 -999.0000 -999.0000 -999.0000 -999.0000 -999.0000    0.0000   80.0000    0.0000    0.0000   20.0000    0.0000    0.0000   98.6997 -999.0000 -999.0000 -999.0000 -999.0000 -999.0000 -999.0000 -999.0000    0.0000 -999.0000    0.0000    0.0000    0.0000    0.0000    9.4000 -999.0000 -999.0000 1180.9758 -940.9758 
1181.5000 -999.0000 -999.0000 -999.0000   69.0120    7.5760   69.8997    6.7348  -22.2645 -999.0000 -999.0000 -999.0000 -999.0000 -999.0000    0.0000   80.0000    0.0000    0.0000   20.0000    0.0000    0.0000   98.7055 -999.0000 -999.0000 -999.0000 -999.0000 -999.0000 -999.0000 -999.0000    0.0000 -999.0000    0.0000    0.0000    0.0000    0.0000    9.4000 -999.0000 -999.0000 1181.4757 -941.4757 
1182.0000 -999.0000 -999.0000 -999.0000   68.7130    7.5410   69.8997    6.7107  -21.7689 -999.0000 -999.0000 -999.0000 -999.0000 -999.0000    0.0000   80.0000    0.0000    0.0000   20.0000    0.0000    0.0000   98.7113 -999.0000 -999.0000 -999.0000 -999.0000 -999.0000 -999.0000 -999.0000    0.0000 -999.0000    0.0000    0.0000    0.0000    0.0000    9.4000 -999.0000 -999.0000 1181.9757 -941.9757 
1182.5000 -999.0000 -999.0000 -999.0000   68.7130    7.5410   69.8997    6.7107  -20.8973 -999.0000 -999.0000 -999.0000 -999.0000 -999.0000    0.0000   80.0000    0.0000    0.0000   20.0000    0.0000    0.0000   98.7171 -999.0000 -999.0000 -999.0000 -999.0000 -999.0000 -999.0000 -999.0000    0.0000 -999.0000    0.0000    0.0000    0.0000    0.0000    9.4000 -999.0000 -999.0000 1182.4757 -942.4757 
1183.0000 -999.0000 -999.0000 -999.0000   70.2100    7.5790   69.8997    6.7368  -22.0357 -999.0000 -999.0000 -999.0000 -999.0000 -999.0000    0.0000   80.0000    0.0000    0.0000   20.0000    0.0000    0.0000   98.7229 -999.0000 -999.0000 -999.0000 -999.0000 -999.0000 -999.0000 -999.0000    0.0000 -999.0000    0.0000    0.0000    0.0000    0.0000    9.4000 -999.0000 -999.0000 1182.9756 -942.9756 
1183.5000 -999.0000 -999.0000 -999.0000   73.5740    7.6560   69.8997    6.7897  -22.2711 -999.0000 -999.0000 -999.0000 -999.0000 -999.0000    0.0000   80.0000    0.0000    0.0000   20.0000    0.0000    0.0000   98.7287 -999.0000 -999.0000 -999.0000 -999.0000 -999.0000 -999.0000 -999.0000    0.0000 -999.0000    0.0000    0.0000    0.0000    0.0000    9.4000 -999.0000 -999.0000 1183.4756 -943.4756 
1184.0000 -999.0000 -999.0000 -999.0000   77.5790    7.7330   69.8997    6.8424  -21.3435 -999.0000 -999.0000 -999.0000 -999.0000 -999.0000    0.0000   80.0000    0.0000    0.0000   20.0000    0.0000    0.0000   98.7345 -999.0000 -999.0000 -999.0000 -999.0000 -999.0000 -999.0000 -999.0000    0.0000 -999.0000    0.0000    0.0000    0.0000    0.0000    9.4000 -999.0000 -999.0000 1183.9756 -943.9756 
1184.5000 -999.0000 -999.0000 -999.0000   81.5840    7.8240   69.8997    6.9045  -21.5189 -999.0000 -999.0000 -999.0000 -999.0000 -999.0000    0.0000   80.0000    0.0000    0.0000   20.0000    0.0000    0.0000   98.7403 -999.0000 -999.0000 -999.0000 -999.0000 -999.0000 -999.0000 -999.0000    0.0000 -999.0000    0.0000    0.0000    0.0000    0.0000    9.4000 -999.0000 -999.0000 1184.4755 -944.4755 
1185.0000 -999.0000 -999.0000 -999.0000   85.5890    7.6810   79.2642    6.8068  -22.1723 -999.0000 -999.0000 -999.0000 -999.0000 -999.0000    0.0000   80.0000    0.0000    0.0000   20.0000    0.0000    0.0000   98.7461 -999.0000 -999.0000 -999.0000 -999.0000 -999.0000 -999.0000 -999.0000    0.0000 -999.0000    0.0000    0.0000    0.0000    0.0000    9.4000 -999.0000 -999.0000 1184.9755 -944.9755 
1185.5000 -999.0000 -999.0000 -999.0000   89.0720    7.2570   80.8402    6.5141  -22.1047 -999.0000 -999.0000 -999.0000 -999.0000 -999.0000    0.0000   80.0000    0.0000    0.0000   20.0000    0.0000    0.0000   98.7519 -999.0000 -999.0000 -999.0000 -999.0000 -999.0000 -999.0000 -999.0000    0.0000 -999.0000    0.0000    0.0000    0.0000    0.0000    9.4000 -999.0000 -999.0000 1185.4755 -945.4755 
1186.0000 -999.0000 -999.0000 -999.0000   90.2690    6.8660   81.1630    6.2399  -22.0381 -999.0000 -999.0000 -999.0000 -999.0000 -999.0000    0.0000   80.0000    0.0000    0.0000   20.0000    0.0000    0.0000   98.7577 -999.0000 -999.0000 -999.0000 -999.0000 -999.0000 -999.0000 -999.0000    0.0000 -999.0000    0.0000    0.0000    0.0000    0.0000    9.4000 -999.0000 -999.0000 1185.9754 -945.9754 
1186.5000 -999.0000 -999.0000 -999.0000   89.0720    6.4750   81.3092    5.9613  -21.8095 -999.0000 -999.0000 -999.0000 -999.0000 -999.0000    0.0000   80.0000    0.0000    0.0000   20.0000    0.0000    0.0000   98.7635 -999.0000 -999.0000 -999.0000 -999.0000 -999.0000 -999.0000 -999.0000    0.0000 -999.0000    0.0000    0.0000    0.0000    0.0000    9.4000 -999.0000 -999.0000 1186.4754 -946.4754 
1187.0000 -999.0000 -999.0000 -999.0000   87.1260    6.0830   81.1796    5.6773  -21.4385 -999.0000 -999.0000 -999.0000 -999.0000 -999.0000    0.0000   80.0000    0.0000    0.0000   20.0000    0.0000    0.0000   98.7693 -999.0000 -999.0000 -999.0000 -999.0000 -999.0000 -999.0000 -999.0000    0.0000 -999.0000    0.0000    0.0000    0.0000    0.0000    9.4000 -999.0000 -999.0000 1186.9754 -946.9754 
1187.5000 -999.0000 -999.0000 -999.0000   82.9560    5.6920   80.9590    5.3891  -21.5370 -999.0000 -999.0000 -999.0000 -999.0000 -999.0000    0.0000   80.0000    0.0000    0.0000   20.0000    0.0000    0.0000   98.7751 -999.0000 -999.0000 -999.0000 -999.0000 -999.0000 -999.0000 -999.0000    0.0000 -999.0000    0.0000    0.0000    0.0000    0.0000    9.4000 -999.0000 -999.0000 1187.4754 -947.4754 
1188.0000 -999.0000 -999.0000 -999.0000   78.5700    5.2680   80.7217    5.0704  -21.6424 -999.0000 -999.0000 -999.0000 -999.0000 -999.0000    0.0000   80.0000    0.0000    0.0000   20.0000    0.0000    0.0000   98.7809 -999.0000 -999.0000 -999.0000 -999.0000 -999.0000 -999.0000 -999.0000    0.0000 -999.0000    0.0000    0.0000    0.0000    0.0000    9.4000 -999.0000 -999.0000 1187.9753 -947.9753 
1188.5000 -999.0000 -999.0000 -999.0000   74.1840    5.0310   80.3651    4.8893  -21.2469 -999.0000 -999.0000 -999.0000 -999.0000 -999.0000    0.0000   80.0000    0.0000    0.0000   20.0000    0.0000    0.0000   98.7867 -999.0000 -999.0000 -999.0000 -999.0000 -999.0000 -999.0000 -999.0000    0.0000 -999.0000    0.0000    0.0000    0.0000    0.0000    9.4000 -999.0000 -999.0000 1188.4753 -948.4753 
1189.0000 -999.0000 -999.0000 -999.0000   71.7070    4.9390   80.6132    4.8184  -20.5183 -999.0000 -999.0000 -999.0000 -999.0000 -999.0000    0.0000   80.0000    0.0000    0.0000   20.0000    0.0000    0.0000   98.7925 -999.0000 -999.0000 -999.0000 -999.0000 -999.0000 -999.0000 -999.0000    0.0000 -999.0000    0.0000    0.0000    0.0000    0.0000    9.4000 -999.0000 -999.0000 1188.9753 -948.9753 
1189.5000 -999.0000 -999.0000 -999.0000   70.8080    4.8940   79.3713    4.7836  -20.3108 -999.0000 -999.0000 -999.0000 -999.0000 -999.0000    0.0000   80.0000    0.0000    0.0000   20.0000    0.0000    0.0000   98.7983 -999.0000 -999.0000 -999.0000 -999.0000 -999.0000 -999.0000 -999.0000    0.0000 -999.0000    0.0000    0.0000    0.0000    0.0000    9.4000 -999.0000 -999.0000 1189.4752 -949.4752 
