~VERSION INFORMATION
 VERS.                 2.0:   CWLS LOG ASCII STANDARD - VERSION 2.0
 WRAP.                  NO:   SINGLE LINE PER DEPTH STEP
 CREA.                 03/05/2017 12:39:08
#CREATED USING IP VERSION 4.2.2015.61 BY PANESSOR ON 03/05/2017 12:39:08
~WELL INFORMATION
#MNEM.UNIT       DATA                          DESCRIPTION MNEMONIC
#---------      ---------------------------   --------------------------
 STRT    .FT        500.0000                  : START DEPTH
 STOP    .FT        5430.0000                 : STOP DEPTH
 STEP    .FT        0.5000                    : STEP VALUE
 NULL    .      -999.0000                     : NULL VALUE
 DATE    .      03/05/2017                    : LAS file Creation Date
 WELL  .      REPOSO-1            : Well Name
 COMP  .      INTERCOL            : Company
 FLD   .      PITAL               : Field
 STATE .      CESAR               : State
 COUNT .      COLOMBIA            : Country
 API   .      REP00001            : API Number
 UWI   .      100000000366        : Unique Well Identifier (UWI)
 LOC   .      GAUSS ORIGIN BOGOTA : Location
 LATI  .      8.3469500001        : Latitude/Northing
 LONG  .      -73.7031            : Longitude/Easting
 RWS   .      -999                : Def_Rw
 WST   .      -999                : Def_Rwt
 PROV  .                          : Province
 SRVC  .      SCH                 : Contractor
~CURVE INFORMATION
#MNEM                 UNIT       API CODE     Description
#----------     --------------- ----------  --------------
 DEPTH         .FT                        : 
 CALI_IR       .IN                        : Caliper
 DRHO_E_IR     .G/C3                      : Density correction
 DT_IR         .US/F                      : Delta-T Compressional
 GR_IR         .GAPI                      : Gamma Ray
 RD_E_IR       .OHMM                      : Formation Deep Resitivity
 ROP_E_IR      .Ft/h                      : Rate of Penetration
 RS_E_IR       .OHMM                      : Shallow Resistivity
 SPC_IR        .MV                        : Spontaneous Potential
 TOTAL_GAS_IR  .Units                     : Total Gas from Mudlog
 BS_IR         .inch                      : Bit Size
 DT_E_IR       .US/F                      : Delta-T Compressional
 RHOB_E_IR     .G/C3                      : Bulk Density
 NPHI_E_IR     .dec                       : Neutron porosity
 LS_IR         .%                         : Mudlog LIMESTONE
 CLST_IR       .%                         : Mudlog CLAYSTONE
 SH_IR         .%                         : Mudlog SHALE
 SLST_IR       .%                         : Mudlog SILSTONE
 CGL_IR        .%                         : Mudlog CONGLOMERATE
 SS_IR         .%                         : Mudlog SANDSTONE
 COAL_IR       .%                         : Mudlog COAL
 Temp_IR       .F                         : Formation Temperature
 PHIE_IR       .Dec                       : Effective Porosity
 SW_IR         .Dec                       : Effective Water Saturation
 BVW_IR        .Dec                       : Bulk Volume water (Phie x SW)
 VSand_IR      .dec                       : Sand Volume
 VWCL_IR       .Dec                       : Volume wet Clay
 VLime_IR      .dec                       : Limestone Volume
 VDol_IR       .dec                       : Dolomite Volume
 Perm_IR       .md                        : Calculated Permeability
 K_PHI_IR      .                          : K/PHI RATIO
 ResFlag_IR    .                          : Net Reservoir
 PayFlag_IR    .                          : Net Pay
 ResFlagRT_IR  .                          : Net Reservoir Rock Type
 PayFlagRT_IR  .                          : Pay Flag Rock Type
 MUD_WEIGHT_IR .PPG                       : MUD WEIGHT
 Rock_Type_IR  .microns                   : Pore Throat Size - Rock Types
 BADHOLE_IR    .FLAG                      : Bad Hole Indicator
 TVD_IR        .FT                        : True vertical depth
 TVDSS_IR      .FT                        : True vertical depth subsea
~P Interactive Petrophysics parameters
#Name        Value                 Description
#----- --------------------------  -----------
#Logging Run 
 RUN  .     1          : Run Number
 DATE .     28-ABR-80  : Date                      | RUN[0]
 DFT  .     /          : Type of Fluid in Hole     | RUN[1]
~A  DEPTH  CALI_IR  DRHO_E_I~   DT_IR     GR_IR    RD_E_IR   ROP_E_IR  RS_E_IR    SPC_IR  TOTAL_GA~   BS_IR    DT_E_IR  RHOB_E_I~ NPHI_E_I~   LS_IR    CLST_IR    SH_IR    SLST_IR    CGL_IR    SS_IR    COAL_IR   Temp_IR   PHIE_IR    SW_IR     BVW_IR   VSand_IR  VWCL_IR   VLime_IR  VDol_IR   Perm_IR   K_PHI_IR ResFlag_~ PayFlag_~ ResFlagR~ PayFlagR~ MUD_WEIG~ Rock_Typ~ BADHOLE_~   TVD_IR   TVDSS_IR 
# ...
 530.0000 -999.0000 -999.0000 -999.0000   53.7990   14.3240  145.3020   10.9270  -16.2719 -999.0000 -999.0000 -999.0000 -999.0000 -999.0000    0.0000   20.0000    0.0000    0.0000   80.0000    0.0000    0.0000   91.1480 -999.0000 -999.0000 -999.0000 -999.0000 -999.0000 -999.0000 -999.0000    0.0000 -999.0000    0.0000    0.0000    0.0000    0.0000    9.4000 -999.0000 -999.0000  529.9978 -289.9978 
 530.5000 -999.0000 -999.0000 -999.0000   54.0420   15.2850  259.3960   11.4684  -16.8879 -999.0000 -999.0000 -999.0000 -999.0000 -999.0000    0.0000   20.0000    0.0000    0.0000   80.0000    0.0000    0.0000   91.1538 -999.0000 -999.0000 -999.0000 -999.0000 -999.0000 -999.0000 -999.0000    0.0000 -999.0000    0.0000    0.0000    0.0000    0.0000    9.4000 -999.0000 -999.0000  530.4978 -290.4978 
 531.0000 -999.0000 -999.0000 -999.0000   55.8380   16.2460  259.3960   11.9992  -17.4869 -999.0000 -999.0000 -999.0000 -999.0000 -999.0000    0.0000   20.0000    0.0000    0.0000   80.0000    0.0000    0.0000   91.1596 -999.0000 -999.0000 -999.0000 -999.0000 -999.0000 -999.0000 -999.0000    0.0000 -999.0000    0.0000    0.0000    0.0000    0.0000    9.4000 -999.0000 -999.0000  530.9978 -290.9978 
 531.5000 -999.0000 -999.0000 -999.0000   57.3350   16.6380  259.4390   12.2128  -17.5369 -999.0000 -999.0000 -999.0000 -999.0000 -999.0000    0.0000   20.0000    0.0000    0.0000   80.0000    0.0000    0.0000   91.1654 -999.0000 -999.0000 -999.0000 -999.0000 -999.0000 -999.0000 -999.0000    0.0000 -999.0000    0.0000    0.0000    0.0000    0.0000    9.4000 -999.0000 -999.0000  531.4978 -291.4978 
 532.0000 -999.0000 -999.0000 -999.0000   57.6350   16.6380  259.4790   12.2128  -17.9359 -999.0000 -999.0000 -999.0000 -999.0000 -999.0000    0.0000   20.0000    0.0000    0.0000   80.0000    0.0000    0.0000   91.1712 -999.0000 -999.0000 -999.0000 -999.0000 -999.0000 -999.0000 -999.0000    0.0000 -999.0000    0.0000    0.0000    0.0000    0.0000    9.4000 -999.0000 -999.0000  531.9978 -291.9978 
 532.5000 -999.0000 -999.0000 -999.0000   57.1860   15.8900  259.5190   11.8037  -17.8359 -999.0000 -999.0000 -999.0000 -999.0000 -999.0000    0.0000   20.0000    0.0000    0.0000   80.0000    0.0000    0.0000   91.1770 -999.0000 -999.0000 -999.0000 -999.0000 -999.0000 -999.0000 -999.0000    0.0000 -999.0000    0.0000    0.0000    0.0000    0.0000    9.4000 -999.0000 -999.0000  532.4978 -292.4978 
 533.0000 -999.0000 -999.0000 -999.0000   56.4370   14.9680  259.5589   11.2910  -17.7369 -999.0000 -999.0000 -999.0000 -999.0000 -999.0000    0.0000   20.0000    0.0000    0.0000   80.0000    0.0000    0.0000   91.1828 -999.0000 -999.0000 -999.0000 -999.0000 -999.0000 -999.0000 -999.0000    0.0000 -999.0000    0.0000    0.0000    0.0000    0.0000    9.4000 -999.0000 -999.0000  532.9978 -292.9978 
 533.5000 -999.0000 -999.0000 -999.0000   56.2870   14.0340  259.5989   10.7614  -18.5349 -999.0000 -999.0000 -999.0000 -999.0000 -999.0000    0.0000   20.0000    0.0000    0.0000   80.0000    0.0000    0.0000   91.1886 -999.0000 -999.0000 -999.0000 -999.0000 -999.0000 -999.0000 -999.0000    0.0000 -999.0000    0.0000    0.0000    0.0000    0.0000    9.4000 -999.0000 -999.0000  533.4978 -293.4978 
 534.0000 -999.0000 -999.0000 -999.0000   58.2340   13.4030  259.6389   10.3974  -18.5349 -999.0000 -999.0000 -999.0000 -999.0000 -999.0000    0.0000   20.0000    0.0000    0.0000   80.0000    0.0000    0.0000   91.1944 -999.0000 -999.0000 -999.0000 -999.0000 -999.0000 -999.0000 -999.0000    0.0000 -999.0000    0.0000    0.0000    0.0000    0.0000    9.4000 -999.0000 -999.0000  533.9978 -293.9978 
 534.5000 -999.0000 -999.0000 -999.0000   59.1320   13.0980  259.6788   10.2195  -18.9339 -999.0000 -999.0000 -999.0000 -999.0000 -999.0000    0.0000   20.0000    0.0000    0.0000   80.0000    0.0000    0.0000   91.2002 -999.0000 -999.0000 -999.0000 -999.0000 -999.0000 -999.0000 -999.0000    0.0000 -999.0000    0.0000    0.0000    0.0000    0.0000    9.4000 -999.0000 -999.0000  534.4978 -294.4978 
 535.0000 -999.0000 -999.0000 -999.0000   59.7310   13.4650  259.7188   10.4334  -19.3329 -999.0000 -999.0000 -999.0000 -999.0000 -999.0000    0.0000   20.0000    0.0000    0.0000   80.0000    0.0000    0.0000   91.2060 -999.0000 -999.0000 -999.0000 -999.0000 -999.0000 -999.0000 -999.0000    0.0000 -999.0000    0.0000    0.0000    0.0000    0.0000    9.4000 -999.0000 -999.0000  534.9977 -294.9977 
 535.5000 -999.0000 -999.0000 -999.0000   59.7310   13.8420  259.7588   10.6512  -19.3329 -999.0000 -999.0000 -999.0000 -999.0000 -999.0000    0.0000   20.0000    0.0000    0.0000   80.0000    0.0000    0.0000   91.2118 -999.0000 -999.0000 -999.0000 -999.0000 -999.0000 -999.0000 -999.0000    0.0000 -999.0000    0.0000    0.0000    0.0000    0.0000    9.4000 -999.0000 -999.0000  535.4977 -295.4977 
 536.0000 -999.0000 -999.0000 -999.0000   58.5330   14.3610  259.7987   10.9480  -19.3329 -999.0000 -999.0000 -999.0000 -999.0000 -999.0000    0.0000   20.0000    0.0000    0.0000   80.0000    0.0000    0.0000   91.2176 -999.0000 -999.0000 -999.0000 -999.0000 -999.0000 -999.0000 -999.0000    0.0000 -999.0000    0.0000    0.0000    0.0000    0.0000    9.4000 -999.0000 -999.0000  535.9977 -295.9977 
 536.5000 -999.0000 -999.0000 -999.0000   56.8860   15.0370  259.8387   11.3297  -19.9319 -999.0000 -999.0000 -999.0000 -999.0000 -999.0000    0.0000   20.0000    0.0000    0.0000   80.0000    0.0000    0.0000   91.2234 -999.0000 -999.0000 -999.0000 -999.0000 -999.0000 -999.0000 -999.0000    0.0000 -999.0000    0.0000    0.0000    0.0000    0.0000    9.4000 -999.0000 -999.0000  536.4977 -296.4977 
 537.0000 -999.0000 -999.0000 -999.0000   56.1380   15.9190  259.9352   11.8197  -20.4189 -999.0000 -999.0000 -999.0000 -999.0000 -999.0000    0.0000   20.0000    0.0000    0.0000   80.0000    0.0000    0.0000   91.2292 -999.0000 -999.0000 -999.0000 -999.0000 -999.0000 -999.0000 -999.0000    0.0000 -999.0000    0.0000    0.0000    0.0000    0.0000    9.4000 -999.0000 -999.0000  536.9977 -296.9977 
 537.5000 -999.0000 -999.0000 -999.0000   56.1380   16.9520  260.0234   12.3828  -20.9389 -999.0000 -999.0000 -999.0000 -999.0000 -999.0000    0.0000   20.0000    0.0000    0.0000   80.0000    0.0000    0.0000   91.2350 -999.0000 -999.0000 -999.0000 -999.0000 -999.0000 -999.0000 -999.0000    0.0000 -999.0000    0.0000    0.0000    0.0000    0.0000    9.4000 -999.0000 -999.0000  537.4977 -297.4977 
 538.0000 -999.0000 -999.0000 -999.0000   58.5190   17.9860  259.9586   12.9356  -21.4839 -999.0000 -999.0000 -999.0000 -999.0000 -999.0000    0.0000   20.0000    0.0000    0.0000   80.0000    0.0000    0.0000   91.2408 -999.0000 -999.0000 -999.0000 -999.0000 -999.0000 -999.0000 -999.0000    0.0000 -999.0000    0.0000    0.0000    0.0000    0.0000    9.4000 -999.0000 -999.0000  537.9977 -297.9977 
 538.5000 -999.0000 -999.0000 -999.0000   61.5270   19.0190  259.9986   13.4777  -22.0279 -999.0000 -999.0000 -999.0000 -999.0000 -999.0000    0.0000   20.0000    0.0000    0.0000   80.0000    0.0000    0.0000   91.2466 -999.0000 -999.0000 -999.0000 -999.0000 -999.0000 -999.0000 -999.0000    0.0000 -999.0000    0.0000    0.0000    0.0000    0.0000    9.4000 -999.0000 -999.0000  538.4977 -298.4977 
 539.0000 -999.0000 -999.0000 -999.0000   63.4090   20.1850  260.0386   14.0782  -22.5269 -999.0000 -999.0000 -999.0000 -999.0000 -999.0000    0.0000   20.0000    0.0000    0.0000   80.0000    0.0000    0.0000   91.2524 -999.0000 -999.0000 -999.0000 -999.0000 -999.0000 -999.0000 -999.0000    0.0000 -999.0000    0.0000    0.0000    0.0000    0.0000    9.4000 -999.0000 -999.0000  538.9977 -298.9977 
 539.5000 -999.0000 -999.0000 -999.0000   65.4620   20.3710  213.0872   14.1730  -22.9259 -999.0000 -999.0000 -999.0000 -999.0000 -999.0000    0.0000   20.0000    0.0000    0.0000   80.0000    0.0000    0.0000   91.2582 -999.0000 -999.0000 -999.0000 -999.0000 -999.0000 -999.0000 -999.0000    0.0000 -999.0000    0.0000    0.0000    0.0000    0.0000    9.4000 -999.0000 -999.0000  539.4977 -299.4977 
