~VERSION INFORMATION
 VERS.                 2.0:   CWLS LOG ASCII STANDARD - VERSION 2.0
 WRAP.                  NO:   SINGLE LINE PER DEPTH STEP
 CREA.                 03/05/2017 12:39:08
#CREATED USING IP VERSION 4.2.2015.61 BY PANESSOR ON 03/05/2017 12:39:08
~WELL INFORMATION
#MNEM.UNIT       DATA                          DESCRIPTION MNEMONIC
#---------      ---------------------------   --------------------------
 STRT    .FT        500.0000                  : START DEPTH
 STOP    .FT        5430.0000                 : STOP DEPTH
 STEP    .FT        0.5000                    : STEP VALUE
 NULL    .      -999.0000                     : NULL VALUE
 DATE    .      03/05/2017                    : LAS file Creation Date
 WELL  .      REPOSO-1            : Well Name
 COMP  .      INTERCOL            : Company
 FLD   .      PITAL               : Field
 STATE .      CESAR               : State
 COUNT .      COLOMBIA            : Country
 API   .      REP00001            : API Number
 UWI   .      100000000366        : Unique Well Identifier (UWI)
 LOC   .      GAUSS ORIGIN BOGOTA : Location
 LATI  .      8.3469500001        : Latitude/Northing
 LONG  .      -73.7031            : Longitude/Easting
 RWS   .      -999                : Def_Rw
 WST   .      -999                : Def_Rwt
 PROV  .                          : Province
 SRVC  .      SCH                 : Contractor
~CURVE INFORMATION
#MNEM                 UNIT       API CODE     Description
#----------     --------------- ----------  --------------
 DEPTH         .FT                        : 
 CALI_IR       .IN                        : Caliper
 DRHO_E_IR     .G/C3                      : Density correction
 DT_IR         .US/F                      : Delta-T Compressional
 GR_IR         .GAPI                      : Gamma Ray
 RD_E_IR       .OHMM                      : Formation Deep Resitivity
 ROP_E_IR      .Ft/h                      : Rate of Penetration
 RS_E_IR       .OHMM                      : Shallow Resistivity
 SPC_IR        .MV                        : Spontaneous Potential
 TOTAL_GAS_IR  .Units                     : Total Gas from Mudlog
 BS_IR         .inch                      : Bit Size
 DT_E_IR       .US/F                      : Delta-T Compressional
 RHOB_E_IR     .G/C3                      : Bulk Density
 NPHI_E_IR     .dec                       : Neutron porosity
 LS_IR         .%                         : Mudlog LIMESTONE
 CLST_IR       .%                         : Mudlog CLAYSTONE
 SH_IR         .%                         : Mudlog SHALE
 SLST_IR       .%                         : Mudlog SILSTONE
 CGL_IR        .%                         : Mudlog CONGLOMERATE
 SS_IR         .%                         : Mudlog SANDSTONE
 COAL_IR       .%                         : Mudlog COAL
 Temp_IR       .F                         : Formation Temperature
 PHIE_IR       .Dec                       : Effective Porosity
 SW_IR         .Dec                       : Effective Water Saturation
 BVW_IR        .Dec                       : Bulk Volume water (Phie x SW)
 VSand_IR      .dec                       : Sand Volume
 VWCL_IR       .Dec                       : Volume wet Clay
 VLime_IR      .dec                       : Limestone Volume
 VDol_IR       .dec                       : Dolomite Volume
 Perm_IR       .md                        : Calculated Permeability
 K_PHI_IR      .                          : K/PHI RATIO
 ResFlag_IR    .                          : Net Reservoir
 PayFlag_IR    .                          : Net Pay
 ResFlagRT_IR  .                          : Net Reservoir Rock Type
 PayFlagRT_IR  .                          : Pay Flag Rock Type
 MUD_WEIGHT_IR .PPG                       : MUD WEIGHT
 Rock_Type_IR  .microns                   : Pore Throat Size - Rock Types
 BADHOLE_IR    .FLAG                      : Bad Hole Indicator
 TVD_IR        .FT                        : True vertical depth
 TVDSS_IR      .FT                        : True vertical depth subsea
~P Interactive Petrophysics parameters
#Name        Value                 Description
#----- --------------------------  -----------
#Logging Run 
 RUN  .     1          : Run Number
 DATE .     28-ABR-80  : Date                      | RUN[0]
 DFT  .     /          : Type of Fluid in Hole     | RUN[1]
~A  DEPTH  CALI_IR  DRHO_E_I~   DT_IR     GR_IR    RD_E_IR   ROP_E_IR  RS_E_IR    SPC_IR  TOTAL_GA~   BS_IR    DT_E_IR  RHOB_E_I~ NPHI_E_I~   LS_IR    CLST_IR    SH_IR    SLST_IR    CGL_IR    SS_IR    COAL_IR   Temp_IR   PHIE_IR    SW_IR     BVW_IR   VSand_IR  VWCL_IR   VLime_IR  VDol_IR   Perm_IR   K_PHI_IR ResFlag_~ PayFlag_~ ResFlagR~ PayFlagR~ MUD_WEIG~ Rock_Typ~ BADHOLE_~   TVD_IR   TVDSS_IR 
# ...
4110.0000   12.8750    0.1548   84.0200  175.0170    5.0240   55.9003    4.4220  -30.7155   12.3970    8.5000   84.0200    2.4065    0.3598    0.0000    0.0000  100.0000    0.0000    0.0000    0.0000    0.0000  132.6763    0.0091    1.0000    0.0091    0.0000    0.8272    0.1637    0.0000    0.0000    0.0002    0.0000    0.0000    0.0000    0.0000   10.7000    0.0023    1.0000 4067.7239 -3827.7239 
4110.5000   12.7725    0.1978   80.9000  175.2371    5.1170   55.9404    4.4220  -30.7145   12.5360    8.5000   80.9000    2.4445    0.3547    0.0000    0.0000  100.0000    0.0000    0.0000    0.0000    0.0000  132.6821    0.0087    1.0000    0.0087    0.0000    0.8289    0.1624    0.0000    0.0000    0.0002    0.0000    0.0000    0.0000    0.0000   10.7000    0.0021    1.0000 4068.1779 -3828.1779 
4111.0000   12.9658    0.1812   80.9000  176.1478    5.2360   55.9805    4.4220  -30.7135   12.6180    8.5000   80.9000    2.4385    0.3320    0.0000    0.0000  100.0000    0.0000    0.0000    0.0000    0.0000  132.6879    0.0076    1.0000    0.0076    0.0000    0.8357    0.1567    0.0000    0.0000    0.0001    0.0000    0.0000    0.0000    0.0000   10.7000    0.0016    1.0000 4068.6320 -3828.6320 
4111.5000   13.2205    0.1200   79.7000  177.0085    5.1170   56.0206    4.4610  -30.9635   12.7030    8.5000   79.7000    2.4131    0.2965    0.0000    0.0000  100.0000    0.0000    0.0000    0.0000    0.0000  132.6937    0.0001    1.0000    0.0001    0.0000    0.8422    0.1577    0.0000    0.0000    0.0000    0.0000    0.0000    0.0000    0.0000   10.7000    0.0000    1.0000 4069.0861 -3829.0861 
4112.0000   13.3430    0.1182   84.1460  176.4342    4.9090   56.0607    4.5329  -31.2124   12.7330    8.5000   84.1460    2.3858    0.2867    0.0000    0.0000  100.0000    0.0000    0.0000    0.0000    0.0000  132.6995    0.0001    1.0000    0.0001    0.0000    0.8379    0.1620    0.0000    0.0000    0.0000    0.0000    0.0000    0.0000    0.0000   10.7000    0.0000    1.0000 4069.5402 -3829.5402 
4112.5000   13.2517    0.1429   88.8000  178.1708    5.2850   56.1008    4.6039  -31.4624   12.8730    8.5000   88.8000    2.3588    0.2918    0.0000    0.0000  100.0000    0.0000    0.0000    0.0000    0.0000  132.7053    0.0001    1.0000    0.0001    0.0000    0.8509    0.1490    0.0000    0.0000    0.0000    0.0000    0.0000    0.0000    0.0000   10.7000    0.0000    1.0000 4069.9942 -3829.9942 
4113.0000   13.1810    0.1368   89.7000  182.1823    6.9350   56.1409    4.6749  -31.7114   12.9520    8.5000   89.7000    2.3143    0.2974    0.0000    0.0000  100.0000    0.0000    0.0000    0.0000    0.0000  132.7111    0.0001    1.0000    0.0001    0.0000    0.8811    0.1188    0.0000    0.0000    0.0000    0.0000    0.0000    0.0000    0.0000   10.7000    0.0000    1.0000 4070.4483 -3830.4483 
4113.5000   13.8665    0.1168   94.3000  186.3010    6.6840   56.1810    4.8212  -31.9614   13.0130    8.5000   94.3000    2.2629    0.3147    0.0000    0.0000  100.0000    0.0000    0.0000    0.0000    0.0000  132.7169    0.0001    1.0000    0.0001    0.0000    0.9120    0.0879    0.0000    0.0000    0.0000    0.0000    0.0000    0.0000    0.0000   10.7000    0.0000    1.0000 4070.9024 -3830.9024 
4114.0000   14.1905    0.1087   97.3000  187.6490    7.0640   56.2212    5.0311  -32.2114   13.1990    8.5000   97.3000    2.2169    0.3326    0.0000    0.0000  100.0000    0.0000    0.0000    0.0000    0.0000  132.7227    0.0008    1.0000    0.0008    0.0000    0.9222    0.0770    0.0000    0.0000    0.0000    0.0000    0.0000    0.0000    0.0000   10.7000    0.0000    1.0000 4071.3565 -3831.3565 
4114.5000   13.9792    0.1477   90.4310  187.6490    7.2950   56.2290    5.3486  -32.4604   13.3820    8.5000   90.4310    2.1577    0.3513    0.0000    0.0000  100.0000    0.0000    0.0000    0.0000    0.0000  132.7285    0.0008    1.0000    0.0008    0.0000    0.9222    0.0770    0.0000    0.0000    0.0000    0.0000    0.0000    0.0000    0.0000   10.7000    0.0000    1.0000 4071.8105 -3831.8105 
4115.0000   13.7596    0.1382   87.7000  187.6490    6.0140   60.2694    5.8412  -32.6894   13.4840    8.5000   87.7000    2.1138    0.3707    0.0000    0.0000  100.0000    0.0000    0.0000    0.0000    0.0000  132.7343    0.0008    1.0000    0.0008    0.0000    0.9222    0.0770    0.0000    0.0000    0.0000    0.0000    0.0000    0.0000    0.0000   10.7000    0.0000    1.0000 4072.2646 -3832.2646 
4115.5000   13.7387    0.0972   88.3000  188.9670    4.6670   60.2694    6.2526  -32.8874   13.6290    8.5000   88.3000    2.1308    0.3687    0.0000    0.0000  100.0000    0.0000    0.0000    0.0000    0.0000  132.7401    0.0006    1.0000    0.0006    0.0000    0.9321    0.0673    0.0000    0.0000    0.0000    0.0000    0.0000    0.0000    0.0000   10.7000    0.0000    1.0000 4072.7187 -3832.7187 
4116.0000   13.5612    0.1330   87.7000  190.1683    4.3550   60.3249    6.2505  -32.8864   13.6840    8.5000   87.7000    2.2376    0.3751    0.0000    0.0000  100.0000    0.0000    0.0000    0.0000    0.0000  132.7459    0.0004    1.0000    0.0004    0.0000    0.9411    0.0585    0.0000    0.0000    0.0000    0.0000    0.0000    0.0000    0.0000   10.7000    0.0000    1.0000 4073.1728 -3833.1728 
4116.5000   13.6314    0.1269   88.3000  188.5927    4.7540   60.3990    5.9144  -32.8854   13.9940    8.5000   88.3000    2.3101    0.3560    0.0000    0.0000  100.0000    0.0000    0.0000    0.0000    0.0000  132.7517    0.0006    1.0000    0.0006    0.0000    0.9293    0.0701    0.0000    0.0000    0.0000    0.0000    0.0000    0.0000    0.0000   10.7000    0.0000    1.0000 4073.6268 -3833.6268 
4117.0000   13.6006    0.1335   86.1000  188.1763    5.2850   60.4731    5.5559  -32.8844   14.4700    8.5000   86.1000    2.3508    0.3549    0.0000    0.0000  100.0000    0.0000    0.0000    0.0000    0.0000  132.7575    0.0007    1.0000    0.0007    0.0000    0.9261    0.0731    0.0000    0.0000    0.0000    0.0000    0.0000    0.0000    0.0000   10.7000    0.0000    1.0000 4074.0809 -3834.0809 
4117.5000   13.4606    0.1668   84.6000  192.6342    4.9090   60.5472    5.3325  -32.8834   14.8730    8.5000   84.6000    2.3703    0.3636    0.0000    0.0000  100.0000    0.0000    0.0000    0.0000    0.0000  132.7633    0.0002    1.0000    0.0002    0.0000    0.9597    0.0401    0.0000    0.0000    0.0000    0.0000    0.0000    0.0000    0.0000   10.7000    0.0000    1.0000 4074.5350 -3834.5350 
4118.0000   12.8801    0.1582   83.9000  194.6629    5.9030   60.6213    5.2854  -32.8824   15.4230    8.5000   83.9000    2.3293    0.3550    0.0000    0.0000  100.0000    0.0000    0.0000    0.0000    0.0000  132.7691    0.0001    1.0000    0.0001    0.0000    0.9749    0.0250    0.0000    0.0000    0.0000    0.0000    0.0000    0.0000    0.0000   10.7000    0.0000    1.0000 4074.9891 -3834.9891 
4118.5000   12.5908    0.1129   83.7000  191.6488    6.5920   60.6954    5.3441  -32.8814   15.9890    8.5000   83.7000    2.2898    0.3444    0.0000    0.0000  100.0000    0.0000    0.0000    0.0000    0.0000  132.7749    0.0003    1.0000    0.0003    0.0000    0.9522    0.0475    0.0000    0.0000    0.0000    0.0000    0.0000    0.0000    0.0000   10.7000    0.0000    1.0000 4075.4432 -3835.4432 
4119.0000   12.6495    0.0785   84.3000  189.5455   13.0620   60.7695    5.4191  -32.8804   16.7370    8.5000   84.3000    2.2803    0.3499    0.0000    0.0000  100.0000    0.0000    0.0000    0.0000    0.0000  132.7807    0.0005    1.0000    0.0005    0.0000    0.9364    0.0631    0.0000    0.0000    0.0000    0.0000    0.0000    0.0000    0.0000   10.7000    0.0000    1.0000 4075.8972 -3835.8972 
4119.5000   12.3800    0.1024   84.8000  188.9135   23.4050   60.8436    5.4577  -32.8793   17.3730    8.5000   84.8000    2.2575    0.3633    0.0000    0.0000  100.0000    0.0000    0.0000    0.0000    0.0000  132.7865    0.0006    1.0000    0.0006    0.0000    0.9317    0.0677    0.0000    0.0000    0.0000    0.0000    0.0000    0.0000    0.0000   10.7000    0.0000    1.0000 4076.3513 -3836.3513 
