~VERSION INFORMATION
 VERS.                 2.0:   CWLS LOG ASCII STANDARD - VERSION 2.0
 WRAP.                  NO:   SINGLE LINE PER DEPTH STEP
 CREA.                 03/05/2017 12:39:08
#CREATED USING IP VERSION 4.2.2015.61 BY PANESSOR ON 03/05/2017 12:39:08
~WELL INFORMATION
#MNEM.UNIT       DATA                          DESCRIPTION MNEMONIC
#---------      ---------------------------   --------------------------
 STRT    .FT        500.0000                  : START DEPTH
 STOP    .FT        5430.0000                 : STOP DEPTH
 STEP    .FT        0.5000                    : STEP VALUE
 NULL    .      -999.0000                     : NULL VALUE
 DATE    .      03/05/2017                    : LAS file Creation Date
 WELL  .      REPOSO-1            : Well Name
 COMP  .      INTERCOL            : Company
 FLD   .      PITAL               : Field
 STATE .      CESAR               : State
 COUNT .      COLOMBIA            : Country
 API   .      REP00001            : API Number
 UWI   .      100000000366        : Unique Well Identifier (UWI)
 LOC   .      GAUSS ORIGIN BOGOTA : Location
 LATI  .      8.3469500001        : Latitude/Northing
 LONG  .      -73.7031            : Longitude/Easting
 RWS   .      -999                : Def_Rw
 WST   .      -999                : Def_Rwt
 PROV  .                          : Province
 SRVC  .      SCH                 : Contractor
~CURVE INFORMATION
#MNEM                 UNIT       API CODE     Description
#----------     --------------- ----------  --------------
 DEPTH         .FT                        : 
 CALI_IR       .IN                        : Caliper
 DRHO_E_IR     .G/C3                      : Density correction
 DT_IR         .US/F                      : Delta-T Compressional
 GR_IR         .GAPI                      : Gamma Ray
 RD_E_IR       .OHMM                      : Formation Deep Resitivity
 ROP_E_IR      .Ft/h                      : Rate of Penetration
 RS_E_IR       .OHMM                      : Shallow Resistivity
 SPC_IR        .MV                        : Spontaneous Potential
 TOTAL_GAS_IR  .Units                     : Total Gas from Mudlog
 BS_IR         .inch                      : Bit Size
 DT_E_IR       .US/F                      : Delta-T Compressional
 RHOB_E_IR     .G/C3                      : Bulk Density
 NPHI_E_IR     .dec                       : Neutron porosity
 LS_IR         .%                         : Mudlog LIMESTONE
 CLST_IR       .%                         : Mudlog CLAYSTONE
 SH_IR         .%                         : Mudlog SHALE
 SLST_IR       .%                         : Mudlog SILSTONE
 CGL_IR        .%                         : Mudlog CONGLOMERATE
 SS_IR         .%                         : Mudlog SANDSTONE
 COAL_IR       .%                         : Mudlog COAL
 Temp_IR       .F                         : Formation Temperature
 PHIE_IR       .Dec                       : Effective Porosity
 SW_IR         .Dec                       : Effective Water Saturation
 BVW_IR        .Dec                       : Bulk Volume water (Phie x SW)
 VSand_IR      .dec                       : Sand Volume
 VWCL_IR       .Dec                       : Volume wet Clay
 VLime_IR      .dec                       : Limestone Volume
 VDol_IR       .dec                       : Dolomite Volume
 Perm_IR       .md                        : Calculated Permeability
 K_PHI_IR      .                          : K/PHI RATIO
 ResFlag_IR    .                          : Net Reservoir
 PayFlag_IR    .                          : Net Pay
 ResFlagRT_IR  .                          : Net Reservoir Rock Type
 PayFlagRT_IR  .                          : Pay Flag Rock Type
 MUD_WEIGHT_IR .PPG                       : MUD WEIGHT
 Rock_Type_IR  .microns                   : Pore Throat Size - Rock Types
 BADHOLE_IR    .FLAG                      : Bad Hole Indicator
 TVD_IR        .FT                        : True vertical depth
 TVDSS_IR      .FT                        : True vertical depth subsea
~P Interactive Petrophysics parameters
#Name        Value                 Description
#----- --------------------------  -----------
#Logging Run 
 RUN  .     1          : Run Number
 DATE .     28-ABR-80  : Date                      | RUN[0]
 DFT  .     /          : Type of Fluid in Hole     | RUN[1]
~A  DEPTH  CALI_IR  DRHO_E_I~   DT_IR     GR_IR    RD_E_IR   ROP_E_IR  RS_E_IR    SPC_IR  TOTAL_GA~   BS_IR    DT_E_IR  RHOB_E_I~ NPHI_E_I~   LS_IR    CLST_IR    SH_IR    SLST_IR    CGL_IR    SS_IR    COAL_IR   Temp_IR   PHIE_IR    SW_IR     BVW_IR   VSand_IR  VWCL_IR   VLime_IR  VDol_IR   Perm_IR   K_PHI_IR ResFlag_~ PayFlag_~ ResFlagR~ PayFlagR~ MUD_WEIG~ Rock_Typ~ BADHOLE_~   TVD_IR   TVDSS_IR 
# ...
1510.0000 -999.0000 -999.0000 -999.0000   78.7430    5.1950   43.8127    5.0148  -28.3741 -999.0000 -999.0000 -999.0000 -999.0000 -999.0000    0.0000   30.0000    0.0000    0.0000   40.0000    0.0000   30.0000  102.5161 -999.0000 -999.0000 -999.0000 -999.0000 -999.0000 -999.0000 -999.0000    0.0000 -999.0000    0.0000    0.0000    0.0000    0.0000    9.4000 -999.0000 -999.0000 1509.9493 -1269.9493 
1510.5000 -999.0000 -999.0000 -999.0000   79.9400    4.8860   86.6221    4.7774  -28.3759 -999.0000 -999.0000 -999.0000 -999.0000 -999.0000    0.0000   30.0000    0.0000    0.0000   40.0000    0.0000   30.0000  102.5219 -999.0000 -999.0000 -999.0000 -999.0000 -999.0000 -999.0000 -999.0000    0.0000 -999.0000    0.0000    0.0000    0.0000    0.0000    9.4000 -999.0000 -999.0000 1510.4493 -1270.4493 
1511.0000 -999.0000 -999.0000 -999.0000   80.5390    4.5680   85.9773    4.5289  -27.8787 -999.0000 -999.0000 -999.0000 -999.0000 -999.0000    0.0000   30.0000    0.0000    0.0000   40.0000    0.0000   30.0000  102.5277 -999.0000 -999.0000 -999.0000 -999.0000 -999.0000 -999.0000 -999.0000    0.0000 -999.0000    0.0000    0.0000    0.0000    0.0000    9.4000 -999.0000 -999.0000 1510.9492 -1270.9492 
1511.5000 -999.0000 -999.0000 -999.0000   76.9300    4.3420   86.0763    4.3496  -28.0806 -999.0000 -999.0000 -999.0000 -999.0000 -999.0000    0.0000   30.0000    0.0000    0.0000   40.0000    0.0000   30.0000  102.5335 -999.0000 -999.0000 -999.0000 -999.0000 -999.0000 -999.0000 -999.0000    0.0000 -999.0000    0.0000    0.0000    0.0000    0.0000    9.4000 -999.0000 -999.0000 1511.4492 -1271.4492 
1512.0000 -999.0000 -999.0000 -999.0000   73.0540    4.3420   86.1752    4.3496  -29.1804 -999.0000 -999.0000 -999.0000 -999.0000 -999.0000    0.0000   30.0000    0.0000    0.0000   40.0000    0.0000   30.0000  102.5393 -999.0000 -999.0000 -999.0000 -999.0000 -999.0000 -999.0000 -999.0000    0.0000 -999.0000    0.0000    0.0000    0.0000    0.0000    9.4000 -999.0000 -999.0000 1511.9491 -1271.9491 
1512.5000 -999.0000 -999.0000 -999.0000   69.1770    4.6100   86.2742    4.5620  -31.5912 -999.0000 -999.0000 -999.0000 -999.0000 -999.0000    0.0000   30.0000    0.0000    0.0000   40.0000    0.0000   30.0000  102.5451 -999.0000 -999.0000 -999.0000 -999.0000 -999.0000 -999.0000 -999.0000    0.0000 -999.0000    0.0000    0.0000    0.0000    0.0000    9.4000 -999.0000 -999.0000 1512.4491 -1272.4491 
1513.0000 -999.0000 -999.0000 -999.0000   65.8680    4.7610   86.3732    4.6802  -33.8170 -999.0000 -999.0000 -999.0000 -999.0000 -999.0000    0.0000   30.0000    0.0000    0.0000   40.0000    0.0000   30.0000  102.5509 -999.0000 -999.0000 -999.0000 -999.0000 -999.0000 -999.0000 -999.0000    0.0000 -999.0000    0.0000    0.0000    0.0000    0.0000    9.4000 -999.0000 -999.0000 1512.9490 -1272.9490 
1513.5000 -999.0000 -999.0000 -999.0000   63.0240    4.8490   86.4722    4.7487  -36.0438 -999.0000 -999.0000 -999.0000 -999.0000 -999.0000    0.0000   30.0000    0.0000    0.0000   40.0000    0.0000   30.0000  102.5567 -999.0000 -999.0000 -999.0000 -999.0000 -999.0000 -999.0000 -999.0000    0.0000 -999.0000    0.0000    0.0000    0.0000    0.0000    9.4000 -999.0000 -999.0000 1513.4490 -1273.4490 
1514.0000 -999.0000 -999.0000 -999.0000   62.1260    4.9620   86.5712    4.8362  -38.0197 -999.0000 -999.0000 -999.0000 -999.0000 -999.0000    0.0000   30.0000    0.0000    0.0000   40.0000    0.0000   30.0000  102.5625 -999.0000 -999.0000 -999.0000 -999.0000 -999.0000 -999.0000 -999.0000    0.0000 -999.0000    0.0000    0.0000    0.0000    0.0000    9.4000 -999.0000 -999.0000 1513.9489 -1273.9489 
1514.5000 -999.0000 -999.0000 -999.0000   61.8260    5.1480   86.6221    4.9790  -39.0415 -999.0000 -999.0000 -999.0000 -999.0000 -999.0000    0.0000   30.0000    0.0000    0.0000   40.0000    0.0000   30.0000  102.5683 -999.0000 -999.0000 -999.0000 -999.0000 -999.0000 -999.0000 -999.0000    0.0000 -999.0000    0.0000    0.0000    0.0000    0.0000    9.4000 -999.0000 -999.0000 1514.4489 -1274.4489 
1515.0000 -999.0000 -999.0000 -999.0000   60.3290    5.3900   85.2843    5.1628  -39.5093 -999.0000 -999.0000 -999.0000 -999.0000 -999.0000    0.0000   30.0000    0.0000    0.0000   40.0000    0.0000   30.0000  102.5741 -999.0000 -999.0000 -999.0000 -999.0000 -999.0000 -999.0000 -999.0000    0.0000 -999.0000    0.0000    0.0000    0.0000    0.0000    9.4000 -999.0000 -999.0000 1514.9488 -1274.9488 
1515.5000 -999.0000 -999.0000 -999.0000   57.6350    5.9060   54.5150    5.5475  -39.9771 -999.0000 -999.0000 -999.0000 -999.0000 -999.0000    0.0000   30.0000    0.0000    0.0000   40.0000    0.0000   30.0000  102.5799 -999.0000 -999.0000 -999.0000 -999.0000 -999.0000 -999.0000 -999.0000    0.0000 -999.0000    0.0000    0.0000    0.0000    0.0000    9.4000 -999.0000 -999.0000 1515.4488 -1275.4488 
1516.0000 -999.0000 -999.0000 -999.0000   57.3350    6.4410   54.5150    5.9369  -40.3729 -999.0000 -999.0000 -999.0000 -999.0000 -999.0000    0.0000   30.0000    0.0000    0.0000   40.0000    0.0000   30.0000  102.5857 -999.0000 -999.0000 -999.0000 -999.0000 -999.0000 -999.0000 -999.0000    0.0000 -999.0000    0.0000    0.0000    0.0000    0.0000    9.4000 -999.0000 -999.0000 1515.9487 -1275.9487 
1516.5000 -999.0000 -999.0000 -999.0000   58.8320    6.8780   53.8462    6.2484  -40.5738 -999.0000 -999.0000 -999.0000 -999.0000 -999.0000    0.0000   30.0000    0.0000    0.0000   40.0000    0.0000   30.0000  102.5915 -999.0000 -999.0000 -999.0000 -999.0000 -999.0000 -999.0000 -999.0000    0.0000 -999.0000    0.0000    0.0000    0.0000    0.0000    9.4000 -999.0000 -999.0000 1516.4487 -1276.4487 
1517.0000 -999.0000 -999.0000 -999.0000   62.8740    7.0710   53.8462    6.3842  -40.5756 -999.0000 -999.0000 -999.0000 -999.0000 -999.0000    0.0000   30.0000    0.0000    0.0000   40.0000    0.0000   30.0000  102.5973 -999.0000 -999.0000 -999.0000 -999.0000 -999.0000 -999.0000 -999.0000    0.0000 -999.0000    0.0000    0.0000    0.0000    0.0000    9.4000 -999.0000 -999.0000 1516.9486 -1276.9486 
1517.5000 -999.0000 -999.0000 -999.0000   66.9160    7.0710   53.7549    6.3842  -39.7374 -999.0000 -999.0000 -999.0000 -999.0000 -999.0000    0.0000   30.0000    0.0000    0.0000   40.0000    0.0000   30.0000  102.6031 -999.0000 -999.0000 -999.0000 -999.0000 -999.0000 -999.0000 -999.0000    0.0000 -999.0000    0.0000    0.0000    0.0000    0.0000    9.4000 -999.0000 -999.0000 1517.4486 -1277.4486 
1518.0000 -999.0000 -999.0000 -999.0000   68.1140    6.8150   53.5482    6.2038  -37.9742 -999.0000 -999.0000 -999.0000 -999.0000 -999.0000    0.0000   30.0000    0.0000    0.0000   40.0000    0.0000   30.0000  102.6089 -999.0000 -999.0000 -999.0000 -999.0000 -999.0000 -999.0000 -999.0000    0.0000 -999.0000    0.0000    0.0000    0.0000    0.0000    9.4000 -999.0000 -999.0000 1517.9485 -1277.9485 
1518.5000 -999.0000 -999.0000 -999.0000   69.0120    6.6300   53.3414    6.0723  -36.2550 -999.0000 -999.0000 -999.0000 -999.0000 -999.0000    0.0000   30.0000    0.0000    0.0000   40.0000    0.0000   30.0000  102.6147 -999.0000 -999.0000 -999.0000 -999.0000 -999.0000 -999.0000 -999.0000    0.0000 -999.0000    0.0000    0.0000    0.0000    0.0000    9.4000 -999.0000 -999.0000 1518.4485 -1278.4485 
1519.0000 -999.0000 -999.0000 -999.0000   70.2100    6.5090   53.1773    5.9857  -34.5889 -999.0000 -999.0000 -999.0000 -999.0000 -999.0000    0.0000   30.0000    0.0000    0.0000   40.0000    0.0000   30.0000  102.6205 -999.0000 -999.0000 -999.0000 -999.0000 -999.0000 -999.0000 -999.0000    0.0000 -999.0000    0.0000    0.0000    0.0000    0.0000    9.4000 -999.0000 -999.0000 1518.9484 -1278.9484 
1519.5000 -999.0000 -999.0000 -999.0000   71.1080    6.2160   52.5084    5.7742  -32.9237 -999.0000 -999.0000 -999.0000 -999.0000 -999.0000    0.0000   30.0000    0.0000    0.0000   40.0000    0.0000   30.0000  102.6263 -999.0000 -999.0000 -999.0000 -999.0000 -999.0000 -999.0000 -999.0000    0.0000 -999.0000    0.0000    0.0000    0.0000    0.0000    9.4000 -999.0000 -999.0000 1519.4484 -1279.4484 
