~VERSION INFORMATION
 VERS.                 2.0:   CWLS LOG ASCII STANDARD - VERSION 2.0
 WRAP.                  NO:   SINGLE LINE PER DEPTH STEP
 CREA.                 03/05/2017 12:39:08
#CREATED USING IP VERSION 4.2.2015.61 BY PANESSOR ON 03/05/2017 12:39:08
~WELL INFORMATION
#MNEM.UNIT       DATA                          DESCRIPTION MNEMONIC
#---------      ---------------------------   --------------------------
 STRT    .FT        500.0000                  : START DEPTH
 STOP    .FT        5430.0000                 : STOP DEPTH
 STEP    .FT        0.5000                    : STEP VALUE
 NULL    .      -999.0000                     : NULL VALUE
 DATE    .      03/05/2017                    : LAS file Creation Date
 WELL  .      REPOSO-1            : Well Name
 COMP  .      INTERCOL            : Company
 FLD   .      PITAL               : Field
 STATE .      CESAR               : State
 COUNT .      COLOMBIA            : Country
 API   .      REP00001            : API Number
 UWI   .      100000000366        : Unique Well Identifier (UWI)
 LOC   .      GAUSS ORIGIN BOGOTA : Location
 LATI  .      8.3469500001        : Latitude/Northing
 LONG  .      -73.7031            : Longitude/Easting
 RWS   .      -999                : Def_Rw
 WST   .      -999                : Def_Rwt
 PROV  .                          : Province
 SRVC  .      SCH                 : Contractor
~CURVE INFORMATION
#MNEM                 UNIT       API CODE     Description
#----------     --------------- ----------  --------------
 DEPTH         .FT                        : 
 CALI_IR       .IN                        : Caliper
 DRHO_E_IR     .G/C3                      : Density correction
 DT_IR         .US/F                      : Delta-T Compressional
 GR_IR         .GAPI                      : Gamma Ray
 RD_E_IR       .OHMM                      : Formation Deep Resitivity
 ROP_E_IR      .Ft/h                      : Rate of Penetration
 RS_E_IR       .OHMM                      : Shallow Resistivity
 SPC_IR        .MV                        : Spontaneous Potential
 TOTAL_GAS_IR  .Units                     : Total Gas from Mudlog
 BS_IR         .inch                      : Bit Size
 DT_E_IR       .US/F                      : Delta-T Compressional
 RHOB_E_IR     .G/C3                      : Bulk Density
 NPHI_E_IR     .dec                       : Neutron porosity
 LS_IR         .%                         : Mudlog LIMESTONE
 CLST_IR       .%                         : Mudlog CLAYSTONE
 SH_IR         .%                         : Mudlog SHALE
 SLST_IR       .%                         : Mudlog SILSTONE
 CGL_IR        .%                         : Mudlog CONGLOMERATE
 SS_IR         .%                         : Mudlog SANDSTONE
 COAL_IR       .%                         : Mudlog COAL
 Temp_IR       .F                         : Formation Temperature
 PHIE_IR       .Dec                       : Effective Porosity
 SW_IR         .Dec                       : Effective Water Saturation
 BVW_IR        .Dec                       : Bulk Volume water (Phie x SW)
 VSand_IR      .dec                       : Sand Volume
 VWCL_IR       .Dec                       : Volume wet Clay
 VLime_IR      .dec                       : Limestone Volume
 VDol_IR       .dec                       : Dolomite Volume
 Perm_IR       .md                        : Calculated Permeability
 K_PHI_IR      .                          : K/PHI RATIO
 ResFlag_IR    .                          : Net Reservoir
 PayFlag_IR    .                          : Net Pay
 ResFlagRT_IR  .                          : Net Reservoir Rock Type
 PayFlagRT_IR  .                          : Pay Flag Rock Type
 MUD_WEIGHT_IR .PPG                       : MUD WEIGHT
 Rock_Type_IR  .microns                   : Pore Throat Size - Rock Types
 BADHOLE_IR    .FLAG                      : Bad Hole Indicator
 TVD_IR        .FT                        : True vertical depth
 TVDSS_IR      .FT                        : True vertical depth subsea
~P Interactive Petrophysics parameters
#Name        Value                 Description
#----- --------------------------  -----------
#Logging Run 
 RUN  .     1          : Run Number
 DATE .     28-ABR-80  : Date                      | RUN[0]
 DFT  .     /          : Type of Fluid in Hole     | RUN[1]
~A  DEPTH  CALI_IR  DRHO_E_I~   DT_IR     GR_IR    RD_E_IR   ROP_E_IR  RS_E_IR    SPC_IR  TOTAL_GA~   BS_IR    DT_E_IR  RHOB_E_I~ NPHI_E_I~   LS_IR    CLST_IR    SH_IR    SLST_IR    CGL_IR    SS_IR    COAL_IR   Temp_IR   PHIE_IR    SW_IR     BVW_IR   VSand_IR  VWCL_IR   VLime_IR  VDol_IR   Perm_IR   K_PHI_IR ResFlag_~ PayFlag_~ ResFlagR~ PayFlagR~ MUD_WEIG~ Rock_Typ~ BADHOLE_~   TVD_IR   TVDSS_IR 
# ...
5080.0000    8.4743    0.0132 -999.0000  172.2225    6.2380   29.2076    5.7902  -19.8930   17.9180    8.5000   80.7864    2.5569    0.3019   10.0000    0.0000   90.0000    0.0000    0.0000    0.0000    0.0000  143.9284    0.0482    1.0000    0.0482    0.0000    0.7071    0.2447    0.0000    0.0048    0.0991    0.0000    0.0000    0.0000    0.0000   11.0000    0.0599    0.0000 4980.0214 -4740.0214 
5080.5000    8.4546    0.0188 -999.0000  175.7835    6.2940   29.0566    5.8308  -19.7881   17.8480    8.5000   79.2825    2.5755    0.2996   10.0000    0.0000   90.0000    0.0000    0.0000    0.0000    0.0000  143.9342    0.0329    1.0000    0.0329    0.0000    0.7475    0.2195    0.0000    0.0008    0.0233    0.0000    0.0000    0.0000    0.0000   11.0000    0.0284    0.0000 4980.5070 -4740.5070 
5081.0000    8.4452    0.0225 -999.0000  176.7331    6.3390   29.1246    5.8633  -19.6832   17.7790    8.5000   78.7408    2.5822    0.3062   10.0000    0.0000   90.0000    0.0000    0.0000    0.0000    0.0000  143.9400    0.0315    1.0000    0.0315    0.0000    0.7583    0.2101    0.0000    0.0006    0.0197    0.0000    0.0000    0.0000    0.0000   11.0000    0.0261    0.0000 4980.9925 -4740.9925 
5081.5000    8.4421    0.0160 -999.0000  175.7401    6.4470   29.1246    5.9412  -19.5793   17.7090    8.5000   78.6033    2.5839    0.3160   10.0000    0.0000   90.0000    0.0000    0.0000    0.0000    0.0000  143.9458    0.0390    1.0000    0.0390    0.0000    0.7470    0.2138    0.0002    0.0017    0.0441    0.0000    0.0000    0.0000    0.0000   11.0000    0.0395    0.0000 4981.4781 -4741.4781 
5082.0000    8.4435   -0.0002 -999.0000  174.7841    6.5830   29.1246    6.0387  -19.4814   17.6390    8.5000   81.1502    2.5524    0.3283   10.0000    0.0000   90.0000    0.0000    0.0000    0.0000    0.0000  143.9516    0.0460    1.0000    0.0460    0.0000    0.7362    0.2178    0.0000    0.0038    0.0829    0.0000    0.0000    0.0000    0.0000   11.0000    0.0546    0.0000 4981.9638 -4741.9638 
5082.5000    8.4445   -0.0036 -999.0000  175.5014    6.7200   29.1246    6.1364  -19.7665   17.5690    8.5000   83.2524    2.5264    0.3409   10.0000    0.0000   90.0000    0.0000    0.0000    0.0000    0.0000  143.9574    0.0406    1.0000    0.0406    0.0000    0.7443    0.2150    0.0000    0.0021    0.0518    0.0000    0.0000    0.0000    0.0000   11.0000    0.0428    0.0000 4982.4494 -4742.4494 
5083.0000    8.4461    0.0085 -999.0000  176.6820    6.8720   29.1246    6.2441  -20.0526   17.4990    8.5000   81.1825    2.5520    0.3454   10.0000    0.0000   90.0000    0.0000    0.0000    0.0000    0.0000  143.9632    0.0329    1.0000    0.0329    0.0000    0.7578    0.2018    0.0076    0.0008    0.0231    0.0000    0.0000    0.0000    0.0000   11.0000    0.0282    0.0000 4982.9350 -4742.9350 
5083.5000    8.4475    0.0112 -999.0000  176.5209    6.9670   29.1246    6.3111  -20.1677   17.4290    8.5000   79.6383    2.5711    0.3490   10.0000    0.0000   90.0000    0.0000    0.0000    0.0000    0.0000  143.9690    0.0338    1.0000    0.0338    0.0000    0.7559    0.1797    0.0306    0.0009    0.0258    0.0000    0.0000    0.0000    0.0000   11.0000    0.0299    0.0000 4983.4206 -4743.4206 
5084.0000    8.4485    0.0112 -999.0000  175.9499    6.7680   29.1246    6.1705  -20.2958   17.3590    8.5000   78.7408    2.5822    0.3486   10.0000    0.0000   90.0000    0.0000    0.0000    0.0000    0.0000  143.9748    0.0375    1.0000    0.0375    0.0000    0.7494    0.1709    0.0421    0.0014    0.0383    0.0000    0.0000    0.0000    0.0000   11.0000    0.0367    0.0000 4983.9063 -4743.9063 
5084.5000    8.4501    0.0070 -999.0000  176.2043    6.6270   29.1246    6.0701  -20.4229   17.3200    8.5000   78.9025    2.5802    0.3398   10.0000    0.0000   90.0000    0.0000    0.0000    0.0000    0.0000  143.9806    0.0359    1.0000    0.0359    0.0000    0.7523    0.1840    0.0279    0.0012    0.0322    0.0000    0.0000    0.0000    0.0000   11.0000    0.0335    0.0000 4984.3919 -4744.3919 
5085.0000    8.4515   -0.0006 -999.0000  176.9901    6.4420   29.1246    5.9376  -20.5510   17.3210    8.5000   80.0829    2.5656    0.3315   10.0000    0.0000   90.0000    0.0000    0.0000    0.0000    0.0000  143.9864    0.0310    1.0000    0.0310    0.0000    0.7613    0.2077    0.0000    0.0006    0.0185    0.0000    0.0000    0.0000    0.0000   11.0000    0.0252    0.0000 4984.8776 -4744.8776 
5085.5000    8.4525   -0.0036 -999.0000  177.5323    6.2410   29.1246    5.7924  -20.6781   17.3210    8.5000   80.1961    2.5642    0.3303   11.0000    0.0000   89.0000    0.0000    0.0000    0.0000    0.0000  143.9922    0.0280    1.0000    0.0280    0.0000    0.7674    0.2046    0.0000    0.0004    0.0125    0.0000    0.0000    0.0000    0.0000   11.0000    0.0206    0.0000 4985.3633 -4745.3633 
5086.0000    8.4535   -0.0077 -999.0000  178.7046    6.0440   29.1246    5.6488  -20.7932   17.3210    8.5000   80.4064    2.5616    0.3372   12.0000    0.0000   88.0000    0.0000    0.0000    0.0000    0.0000  143.9980    0.0222    1.0000    0.0222    0.0000    0.7807    0.1971    0.0000    0.0001    0.0052    0.0000    0.0000    0.0000    0.0000   11.0000    0.0131    0.0000 4985.8489 -4745.8489 
5086.5000    8.4551   -0.0084 -999.0000  180.4976    5.8520   29.1246    5.5076  -20.8723   17.3210    8.5000   80.9562    2.5548    0.3486   13.0000    0.0000   87.0000    0.0000    0.0000    0.0000    0.0000  144.0038    0.0153    1.0000    0.0153    0.0000    0.8011    0.1836    0.0000    0.0000    0.0013    0.0000    0.0000    0.0000    0.0000   11.0000    0.0063    0.0000 4986.3346 -4746.3346 
5087.0000    8.4565   -0.0113 -999.0000  181.5900    5.6590   29.1246    5.3645  -20.9514   17.3210    8.5000   81.7970    2.5444    0.3687   14.0000    0.0000   86.0000    0.0000    0.0000    0.0000    0.0000  144.0096    0.0120    1.0000    0.0120    0.0000    0.8135    0.1705    0.0040    0.0000    0.0005    0.0000    0.0000    0.0000    0.0000   11.0000    0.0039    0.0000 4986.8203 -4746.8203 
5087.5000    8.4575   -0.0053 -999.0000  181.5816    5.4830   29.1246    5.2328  -21.0295   17.3210    8.5000   81.6515    2.5462    0.3778   15.0000    0.0000   85.0000    0.0000    0.0000    0.0000    0.0000  144.0154    0.0120    1.0000    0.0120    0.0000    0.8134    0.1571    0.0175    0.0000    0.0005    0.0000    0.0000    0.0000    0.0000   11.0000    0.0039    0.0000 4987.3060 -4747.3060 
5088.0000    8.4591    0.0116 -999.0000  182.3424    5.3670   29.1302    5.1454  -21.1166   17.3210    8.5000   80.4549    2.5610    0.3796   16.0000    0.0000   84.0000    0.0000    0.0000    0.0000    0.0000  144.0212    0.0101    1.0000    0.0101    0.0000    0.8221    0.1463    0.0215    0.0000    0.0003    0.0000    0.0000    0.0000    0.0000   11.0000    0.0028    0.0000 4987.7918 -4747.7918 
5088.5000    8.4605    0.0185 -999.0000  183.4352    5.2600   29.1246    5.0643  -21.1747   17.3210    8.5000   79.3633    2.5745    0.3882   17.0000    0.0000   83.0000    0.0000    0.0000    0.0000    0.0000  144.0270    0.0078    1.0000    0.0078    0.0000    0.8345    0.1412    0.0166    0.0000    0.0001    0.0000    0.0000    0.0000    0.0000   11.0000    0.0017    0.0000 4988.2775 -4748.2775 
5089.0000    8.4615    0.0223 -999.0000  182.8071    5.1530   29.1246    4.9828  -21.2398   17.3210    8.5000   78.9267    2.5799    0.3980   18.0000    0.0000   82.0000    0.0000    0.0000    0.0000    0.0000  144.0328    0.0090    1.0000    0.0090    0.0000    0.8274    0.1453    0.0183    0.0000    0.0002    0.0000    0.0000    0.0000    0.0000   11.0000    0.0022    0.0000 4988.7632 -4748.7632 
5089.5000    8.4631    0.0163 -999.0000  179.0679    5.0450   29.1246    4.9001  -21.3039   17.3460    8.5000   78.7812    2.5817    0.4019   19.0000    0.0000   81.0000    0.0000    0.0000    0.0000    0.0000  144.0386    0.0206    1.0000    0.0206    0.0000    0.7849    0.1615    0.0330    0.0001    0.0039    0.0000    0.0000    0.0000    0.0000   11.0000    0.0114    0.0000 4989.2490 -4749.2490 
