~VERSION INFORMATION
 VERS.                 2.0:   CWLS LOG ASCII STANDARD - VERSION 2.0
 WRAP.                  NO:   SINGLE LINE PER DEPTH STEP
 CREA.                 03/05/2017 12:39:08
#CREATED USING IP VERSION 4.2.2015.61 BY PANESSOR ON 03/05/2017 12:39:08
~WELL INFORMATION
#MNEM.UNIT       DATA                          DESCRIPTION MNEMONIC
#---------      ---------------------------   --------------------------
 STRT    .FT        500.0000                  : START DEPTH
 STOP    .FT        5430.0000                 : STOP DEPTH
 STEP    .FT        0.5000                    : STEP VALUE
 NULL    .      -999.0000                     : NULL VALUE
 DATE    .      03/05/2017                    : LAS file Creation Date
 WELL  .      REPOSO-1            : Well Name
 COMP  .      INTERCOL            : Company
 FLD   .      PITAL               : Field
 STATE .      CESAR               : State
 COUNT .      COLOMBIA            : Country
 API   .      REP00001            : API Number
 UWI   .      100000000366        : Unique Well Identifier (UWI)
 LOC   .      GAUSS ORIGIN BOGOTA : Location
 LATI  .      8.3469500001        : Latitude/Northing
 LONG  .      -73.7031            : Longitude/Easting
 RWS   .      -999                : Def_Rw
 WST   .      -999                : Def_Rwt
 PROV  .                          : Province
 SRVC  .      SCH                 : Contractor
~CURVE INFORMATION
#MNEM                 UNIT       API CODE     Description
#----------     --------------- ----------  --------------
 DEPTH         .FT                        : 
 CALI_IR       .IN                        : Caliper
 DRHO_E_IR     .G/C3                      : Density correction
 DT_IR         .US/F                      : Delta-T Compressional
 GR_IR         .GAPI                      : Gamma Ray
 RD_E_IR       .OHMM                      : Formation Deep Resitivity
 ROP_E_IR      .Ft/h                      : Rate of Penetration
 RS_E_IR       .OHMM                      : Shallow Resistivity
 SPC_IR        .MV                        : Spontaneous Potential
 TOTAL_GAS_IR  .Units                     : Total Gas from Mudlog
 BS_IR         .inch                      : Bit Size
 DT_E_IR       .US/F                      : Delta-T Compressional
 RHOB_E_IR     .G/C3                      : Bulk Density
 NPHI_E_IR     .dec                       : Neutron porosity
 LS_IR         .%                         : Mudlog LIMESTONE
 CLST_IR       .%                         : Mudlog CLAYSTONE
 SH_IR         .%                         : Mudlog SHALE
 SLST_IR       .%                         : Mudlog SILSTONE
 CGL_IR        .%                         : Mudlog CONGLOMERATE
 SS_IR         .%                         : Mudlog SANDSTONE
 COAL_IR       .%                         : Mudlog COAL
 Temp_IR       .F                         : Formation Temperature
 PHIE_IR       .Dec                       : Effective Porosity
 SW_IR         .Dec                       : Effective Water Saturation
 BVW_IR        .Dec                       : Bulk Volume water (Phie x SW)
 VSand_IR      .dec                       : Sand Volume
 VWCL_IR       .Dec                       : Volume wet Clay
 VLime_IR      .dec                       : Limestone Volume
 VDol_IR       .dec                       : Dolomite Volume
 Perm_IR       .md                        : Calculated Permeability
 K_PHI_IR      .                          : K/PHI RATIO
 ResFlag_IR    .                          : Net Reservoir
 PayFlag_IR    .                          : Net Pay
 ResFlagRT_IR  .                          : Net Reservoir Rock Type
 PayFlagRT_IR  .                          : Pay Flag Rock Type
 MUD_WEIGHT_IR .PPG                       : MUD WEIGHT
 Rock_Type_IR  .microns                   : Pore Throat Size - Rock Types
 BADHOLE_IR    .FLAG                      : Bad Hole Indicator
 TVD_IR        .FT                        : True vertical depth
 TVDSS_IR      .FT                        : True vertical depth subsea
~P Interactive Petrophysics parameters
#Name        Value                 Description
#----- --------------------------  -----------
#Logging Run 
 RUN  .     1          : Run Number
 DATE .     28-ABR-80  : Date                      | RUN[0]
 DFT  .     /          : Type of Fluid in Hole     | RUN[1]
~A  DEPTH  CALI_IR  DRHO_E_I~   DT_IR     GR_IR    RD_E_IR   ROP_E_IR  RS_E_IR    SPC_IR  TOTAL_GA~   BS_IR    DT_E_IR  RHOB_E_I~ NPHI_E_I~   LS_IR    CLST_IR    SH_IR    SLST_IR    CGL_IR    SS_IR    COAL_IR   Temp_IR   PHIE_IR    SW_IR     BVW_IR   VSand_IR  VWCL_IR   VLime_IR  VDol_IR   Perm_IR   K_PHI_IR ResFlag_~ PayFlag_~ ResFlagR~ PayFlagR~ MUD_WEIG~ Rock_Typ~ BADHOLE_~   TVD_IR   TVDSS_IR 
# ...
4760.0000    9.6155    0.0578   99.0520  167.7606    4.3150   41.8048    7.2338  -25.8264   47.5110    8.5000   99.0520    2.4854    0.2395   10.0000    0.0000   90.0000    0.0000    0.0000    0.0000    0.0000  140.2164    0.0308    1.0000    0.0308    0.3128    0.6564    0.0000    0.0000    0.0006    0.0181    0.0000    0.0000    0.0000    0.0000   10.7000    0.0249    0.0000 4671.6505 -4431.6505 
4760.5000    9.1114    0.0639  102.9300  172.6936    4.2510   41.9239    8.3106  -26.3003   47.8070    8.5000  102.9300    2.5082    0.3281   10.0000    0.0000   90.0000    0.0000    0.0000    0.0000    0.0000  140.2222    0.0389    1.0000    0.0389    0.1063    0.7124    0.1424    0.0000    0.0017    0.0437    0.0000    0.0000    0.0000    0.0000   10.7000    0.0393    0.0000 4672.1275 -4432.1275 
4761.0000    9.0859    0.0548  106.5000  172.9392    3.7140   41.9228    7.6834  -26.5752   48.2560    8.5000  106.5000    2.4806    0.3738   10.0000    0.0000   90.0000    0.0000    0.0000    0.0000    0.0000  140.2280    0.0620    1.0000    0.0620    0.0004    0.7152    0.1639    0.0584    0.0160    0.2582    0.0000    0.0000    0.0000    0.0000   10.7000    0.0981    0.0000 4672.6044 -4432.6044 
4761.5000    9.2132    0.0752  109.5000  178.0275    3.1780   41.9747    5.6311  -27.2481   48.5710    8.5000  109.5000    2.4711    0.3927   10.0000    0.0000   90.0000    0.0000    0.0000    0.0000    0.0000  140.2337    0.0254    1.0000    0.0254    0.0042    0.7730    0.1634    0.0339    0.0002    0.0087    0.0000    0.0000    0.0000    0.0000   10.7000    0.0171    0.0000 4673.0814 -4433.0814 
4762.0000    9.2601    0.1110  112.1000  183.3592    2.6410   42.0177    3.8720  -27.7220   48.5860    8.5000  112.1000    2.4596    0.3952   10.0000    0.0000   90.0000    0.0000    0.0000    0.0000    0.0000  140.2395    0.0079    1.0000    0.0079    0.0699    0.8336    0.0885    0.0000    0.0000    0.0001    0.0000    0.0000    0.0000    0.0000   10.7000    0.0017    0.0000 4673.5584 -4433.5584 
4762.5000    9.1939    0.1328  113.8000  184.0328    2.2650   42.0667    2.9167  -27.9970   48.5880    8.5000  113.8000    2.4318    0.3881   10.0000    0.0000   90.0000    0.0000    0.0000    0.0000    0.0000  140.2453    0.0067    1.0000    0.0067    0.1500    0.8413    0.0021    0.0000    0.0000    0.0001    0.0000    0.0000    0.0000    0.0000   10.7000    0.0013    0.0000 4674.0353 -4434.0353 
4763.0000    9.1037    0.0897  113.9000  183.2363    1.8070   42.0977    2.5078  -28.2729   48.5800    8.5000  113.9000    2.4025    0.4101   10.0000    0.0000   90.0000    0.0000    0.0000    0.0000    0.0000  140.2512    0.0081    1.0000    0.0081    0.0000    0.8322    0.1596    0.0000    0.0000    0.0001    0.0000    0.0000    0.0000    0.0000   10.7000    0.0018    0.0000 4674.5123 -4434.5123 
4763.5000    9.0257    0.0678  113.7000  183.2977    1.7260   42.2244    2.3108  -28.5488   48.3810    8.5000  113.7000    2.4390    0.4476   10.0000    0.0000   90.0000    0.0000    0.0000    0.0000    0.0000  140.2570    0.0080    1.0000    0.0080    0.0000    0.8329    0.0404    0.1186    0.0000    0.0001    0.0000    0.0000    0.0000    0.0000   10.7000    0.0018    0.0000 4674.9894 -4434.9894 
4764.0000    8.9980    0.1056  113.5000  184.3091    1.6410   42.0375    2.1138  -28.5937   48.1870    8.5000  113.5000    2.5101    0.4551   10.0000    0.0000   90.0000    0.0000    0.0000    0.0000    0.0000  140.2628    0.0062    1.0000    0.0062    0.0745    0.8444    0.0000    0.0749    0.0000    0.0000    0.0000    0.0000    0.0000    0.0000   10.7000    0.0011    0.0000 4675.4664 -4435.4664 
4764.5000    9.0088    0.0991  113.3000  185.5046    1.6110   42.4233    1.9867  -28.6876   47.4780    8.5000  113.3000    2.5048    0.4336   10.0000    0.0000   90.0000    0.0000    0.0000    0.0000    0.0000  140.2686    0.0046    1.0000    0.0046    0.0648    0.8580    0.0000    0.0726    0.0000    0.0000    0.0000    0.0000    0.0000    0.0000   10.7000    0.0006    0.0000 4675.9434 -4435.9434 
4765.0000    9.0018    0.0398  112.9000  188.6308    1.6260   24.7240    1.9448  -28.7815   46.7430    8.5000  112.9000    2.4564    0.4200   10.0000    0.0000   90.0000    0.0000    0.0000    0.0000    0.0000  140.2744    0.0019    1.0000    0.0019    0.0000    0.8935    0.1046    0.0000    0.0000    0.0000    0.0000    0.0000    0.0000    0.0000   10.7000    0.0001    0.0000 4676.4205 -4436.4205 
4765.5000    8.9557    0.0042  112.3380  192.3746    1.6260   25.0588    1.9265  -28.8744   45.0720    8.5000  112.3380    2.4408    0.4287   10.0000    0.0000   90.0000    0.0000    0.0000    0.0000    0.0000  140.2802    0.0005    1.0000    0.0005    0.0000    0.9361    0.0634    0.0000    0.0000    0.0000    0.0000    0.0000    0.0000    0.0000   10.7000    0.0000    0.0000 4676.8976 -4436.8976 
4766.0000    8.9226    0.0048  112.1000  195.1273    1.5960   24.9220    1.9233  -28.9684   43.7220    8.5000  112.1000    2.4478    0.4352   10.0000    0.0000   90.0000    0.0000    0.0000    0.0000    0.0000  140.2859    0.0001    1.0000    0.0001    0.0000    0.9674    0.0325    0.0000    0.0000    0.0000    0.0000    0.0000    0.0000    0.0000   10.7000    0.0000    0.0000 4677.3746 -4437.3746 
4766.5000    8.9180    0.0085  112.2000  201.1082    1.5810   24.9879    1.9323  -29.0113   42.5410    8.5000  112.2000    2.4575    0.4327   10.0000    0.0000   90.0000    0.0000    0.0000    0.0000    0.0000  140.2917    0.0001    1.0000    0.0001    0.0000    1.0000   -0.0001    0.0000    0.0000    0.0000    0.0000    0.0000    0.0000    0.0000   10.7000    0.0000    0.0000 4677.8517 -4437.8517 
4767.0000    8.9288    0.0214  110.8000  211.8307    1.5960   25.0445    1.9423  -28.9892   41.3440    8.5000  110.8000    2.4700    0.4363   10.0000    0.0000   90.0000    0.0000    0.0000    0.0000    0.0000  140.2975    0.0001    1.0000    0.0001    0.0000    1.0000   -0.0001    0.0000    0.0000    0.0000    0.0000    0.0000    0.0000    0.0000   10.7000    0.0000    0.0000 4678.3289 -4438.3289 
4767.5000    8.9488    0.0406  109.5000  229.5151    1.6590   25.0873    1.9513  -28.9671   40.1810    8.5000  109.5000    2.4760    0.4376   10.0000    0.0000   90.0000    0.0000    0.0000    0.0000    0.0000  140.3033    0.0001    1.0000    0.0001    0.0000    1.0000   -0.0001    0.0000    0.0000    0.0000    0.0000    0.0000    0.0000    0.0000   10.7000    0.0000    0.0000 4678.8060 -4438.8060 
4768.0000    8.9715    0.0399  109.6000  245.1787    1.7500   25.1383    1.9705  -28.9450   38.6910    8.5000  109.6000    2.4631    0.4270   10.0000    0.0000   90.0000    0.0000    0.0000    0.0000    0.0000  140.3091    0.0001    1.0000    0.0001    0.0000    1.0000   -0.0001    0.0000    0.0000    0.0000    0.0000    0.0000    0.0000    0.0000   10.7000    0.0000    0.0000 4679.2831 -4439.2831 
4768.5000    9.0018    0.0265  110.2000  245.8674    1.8240   25.2637    2.0000  -28.5259   37.2410    8.5000  110.2000    2.4380    0.4128   10.0000    0.0000   90.0000    0.0000    0.0000    0.0000    0.0000  140.3150    0.0001    1.0000    0.0001    0.0000    1.0000   -0.0001    0.0000    0.0000    0.0000    0.0000    0.0000    0.0000    0.0000   10.7000    0.0000    0.0000 4679.7603 -4439.7603 
4769.0000    9.0395    0.0242  111.6450  237.8482    1.9100   25.0045    2.0562  -28.5038   36.0240    8.5000  111.6450    2.4314    0.3980   10.0000    0.0000   90.0000    0.0000    0.0000    0.0000    0.0000  140.3208    0.0001    1.0000    0.0001    0.0000    1.0000   -0.0001    0.0000    0.0000    0.0000    0.0000    0.0000    0.0000    0.0000   10.7000    0.0000    0.0000 4680.2374 -4440.2374 
4769.5000    9.0742    0.0286  113.3000  236.0106    1.9730   25.6562    2.1731  -28.2838   35.0200    8.5000  113.3000    2.4295    0.3973   10.0000    0.0000   90.0000    0.0000    0.0000    0.0000    0.0000  140.3266    0.0001    1.0000    0.0001    0.0000    1.0000   -0.0001    0.0000    0.0000    0.0000    0.0000    0.0000    0.0000    0.0000   10.7000    0.0000    0.0000 4680.7146 -4440.7146 
