~VERSION INFORMATION
 VERS.                 2.0:   CWLS LOG ASCII STANDARD - VERSION 2.0
 WRAP.                  NO:   SINGLE LINE PER DEPTH STEP
 CREA.                 03/05/2017 12:39:08
#CREATED USING IP VERSION 4.2.2015.61 BY PANESSOR ON 03/05/2017 12:39:08
~WELL INFORMATION
#MNEM.UNIT       DATA                          DESCRIPTION MNEMONIC
#---------      ---------------------------   --------------------------
 STRT    .FT        500.0000                  : START DEPTH
 STOP    .FT        5430.0000                 : STOP DEPTH
 STEP    .FT        0.5000                    : STEP VALUE
 NULL    .      -999.0000                     : NULL VALUE
 DATE    .      03/05/2017                    : LAS file Creation Date
 WELL  .      REPOSO-1            : Well Name
 COMP  .      INTERCOL            : Company
 FLD   .      PITAL               : Field
 STATE .      CESAR               : State
 COUNT .      COLOMBIA            : Country
 API   .      REP00001            : API Number
 UWI   .      100000000366        : Unique Well Identifier (UWI)
 LOC   .      GAUSS ORIGIN BOGOTA : Location
 LATI  .      8.3469500001        : Latitude/Northing
 LONG  .      -73.7031            : Longitude/Easting
 RWS   .      -999                : Def_Rw
 WST   .      -999                : Def_Rwt
 PROV  .                          : Province
 SRVC  .      SCH                 : Contractor
~CURVE INFORMATION
#MNEM                 UNIT       API CODE     Description
#----------     --------------- ----------  --------------
 DEPTH         .FT                        : 
 CALI_IR       .IN                        : Caliper
 DRHO_E_IR     .G/C3                      : Density correction
 DT_IR         .US/F                      : Delta-T Compressional
 GR_IR         .GAPI                      : Gamma Ray
 RD_E_IR       .OHMM                      : Formation Deep Resitivity
 ROP_E_IR      .Ft/h                      : Rate of Penetration
 RS_E_IR       .OHMM                      : Shallow Resistivity
 SPC_IR        .MV                        : Spontaneous Potential
 TOTAL_GAS_IR  .Units                     : Total Gas from Mudlog
 BS_IR         .inch                      : Bit Size
 DT_E_IR       .US/F                      : Delta-T Compressional
 RHOB_E_IR     .G/C3                      : Bulk Density
 NPHI_E_IR     .dec                       : Neutron porosity
 LS_IR         .%                         : Mudlog LIMESTONE
 CLST_IR       .%                         : Mudlog CLAYSTONE
 SH_IR         .%                         : Mudlog SHALE
 SLST_IR       .%                         : Mudlog SILSTONE
 CGL_IR        .%                         : Mudlog CONGLOMERATE
 SS_IR         .%                         : Mudlog SANDSTONE
 COAL_IR       .%                         : Mudlog COAL
 Temp_IR       .F                         : Formation Temperature
 PHIE_IR       .Dec                       : Effective Porosity
 SW_IR         .Dec                       : Effective Water Saturation
 BVW_IR        .Dec                       : Bulk Volume water (Phie x SW)
 VSand_IR      .dec                       : Sand Volume
 VWCL_IR       .Dec                       : Volume wet Clay
 VLime_IR      .dec                       : Limestone Volume
 VDol_IR       .dec                       : Dolomite Volume
 Perm_IR       .md                        : Calculated Permeability
 K_PHI_IR      .                          : K/PHI RATIO
 ResFlag_IR    .                          : Net Reservoir
 PayFlag_IR    .                          : Net Pay
 ResFlagRT_IR  .                          : Net Reservoir Rock Type
 PayFlagRT_IR  .                          : Pay Flag Rock Type
 MUD_WEIGHT_IR .PPG                       : MUD WEIGHT
 Rock_Type_IR  .microns                   : Pore Throat Size - Rock Types
 BADHOLE_IR    .FLAG                      : Bad Hole Indicator
 TVD_IR        .FT                        : True vertical depth
 TVDSS_IR      .FT                        : True vertical depth subsea
~P Interactive Petrophysics parameters
#Name        Value                 Description
#----- --------------------------  -----------
#Logging Run 
 RUN  .     1          : Run Number
 DATE .     28-ABR-80  : Date                      | RUN[0]
 DFT  .     /          : Type of Fluid in Hole     | RUN[1]
~A  DEPTH  CALI_IR  DRHO_E_I~   DT_IR     GR_IR    RD_E_IR   ROP_E_IR  RS_E_IR    SPC_IR  TOTAL_GA~   BS_IR    DT_E_IR  RHOB_E_I~ NPHI_E_I~   LS_IR    CLST_IR    SH_IR    SLST_IR    CGL_IR    SS_IR    COAL_IR   Temp_IR   PHIE_IR    SW_IR     BVW_IR   VSand_IR  VWCL_IR   VLime_IR  VDol_IR   Perm_IR   K_PHI_IR ResFlag_~ PayFlag_~ ResFlagR~ PayFlagR~ MUD_WEIG~ Rock_Typ~ BADHOLE_~   TVD_IR   TVDSS_IR 
# ...
4430.0000   11.0570    0.0125   84.0580  192.3792    4.1750   37.7517    4.5102  -23.5051   10.7870    8.5000   84.0580    2.5212    0.3058    0.0000    0.0000  100.0000    0.0000    0.0000    0.0000    0.0000  136.3883    0.0002    1.0000    0.0002    0.0000    0.9577    0.0420    0.0000    0.0000    0.0000    0.0000    0.0000    0.0000    0.0000   10.7000    0.0000    1.0000 4360.2656 -4120.2656 
4430.5000   10.9525    0.0183   83.2000  195.2303    4.3150   37.7517    4.4980  -22.9075   10.8010    8.5000   83.2000    2.5437    0.3056    0.0000    0.0000  100.0000    0.0000    0.0000    0.0000    0.0000  136.3941    0.0001    1.0000    0.0001    0.0000    0.9792    0.0207    0.0000    0.0000    0.0000    0.0000    0.0000    0.0000    0.0000   10.7000    0.0000    1.0000 4360.7299 -4120.7299 
4431.0000   10.8122    0.0104   82.4000  197.6673    4.2370   37.7517    4.4809  -23.1029   10.8160    8.5000   82.4000    2.5238    0.2873    0.0000    0.0000  100.0000    0.0000    0.0000    0.0000    0.0000  136.3999    0.0001    1.0000    0.0001    0.0000    0.9975    0.0024    0.0000    0.0000    0.0000    0.0000    0.0000    0.0000    0.0000   10.7000    0.0000    1.0000 4361.1943 -4121.1943 
4431.5000   10.8755    0.0030   81.3000  198.6886    4.1590   37.7517    4.4624  -23.9933   10.8340    8.5000   81.3000    2.5200    0.2773    0.0000    0.0000  100.0000    0.0000    0.0000    0.0000    0.0000  136.4057    0.0001    1.0000    0.0001    0.0000    1.0000   -0.0001    0.0000    0.0000    0.0000    0.0000    0.0000    0.0000    0.0000   10.7000    0.0000    1.0000 4361.6587 -4121.6587 
4432.0000   10.8985    0.0054   81.6000  199.4828    4.1590   37.7517    4.4444  -24.2887   10.8560    8.5000   81.6000    2.5353    0.2835    0.0000    0.0000  100.0000    0.0000    0.0000    0.0000    0.0000  136.4115    0.0001    1.0000    0.0001    0.0000    1.0000   -0.0001    0.0000    0.0000    0.0000    0.0000    0.0000    0.0000    0.0000   10.7000    0.0000    1.0000 4362.1231 -4122.1231 
4432.5000   10.8754    0.0136   80.9000  199.6020    4.8430   37.7517    4.4285  -24.0871   10.8780    8.5000   80.9000    2.5380    0.2848    0.0000    0.0000  100.0000    0.0000    0.0000    0.0000    0.0000  136.4173    0.0001    1.0000    0.0001    0.0000    1.0000   -0.0001    0.0000    0.0000    0.0000    0.0000    0.0000    0.0000    0.0000   10.7000    0.0000    1.0000 4362.5876 -4122.5876 
4433.0000   10.8710    0.0099   80.2000  198.9299    5.3830   37.7517    4.4220  -23.8265   10.9000    8.5000   80.2000    2.5279    0.2864    0.0000    0.0000  100.0000    0.0000    0.0000    0.0000    0.0000  136.4231    0.0001    1.0000    0.0001    0.0000    1.0000   -0.0001    0.0000    0.0000    0.0000    0.0000    0.0000    0.0000    0.0000   10.7000    0.0000    1.0000 4363.0521 -4123.0521 
4433.5000   10.8870    0.0090   80.0000  197.4664    6.7150   37.7517    4.4658  -23.5858   10.9220    8.5000   80.0000    2.5109    0.2864    0.0000    0.0000  100.0000    0.0000    0.0000    0.0000    0.0000  136.4289    0.0001    1.0000    0.0001    0.0000    0.9960    0.0039    0.0000    0.0000    0.0000    0.0000    0.0000    0.0000    0.0000   10.7000    0.0000    1.0000 4363.5166 -4123.5166 
4434.0000   10.8574    0.0165   81.1000  196.5445    7.2280   37.7517    4.5558  -23.3452   10.9430    8.5000   81.1000    2.5440    0.2883    0.0000    0.0000  100.0000    0.0000    0.0000    0.0000    0.0000  136.4347    0.0001    1.0000    0.0001    0.0000    0.9891    0.0108    0.0000    0.0000    0.0000    0.0000    0.0000    0.0000    0.0000   10.7000    0.0000    1.0000 4363.9812 -4123.9812 
4434.5000   10.8177    0.0255   81.6000  199.7316    7.2950   37.8123    4.6624  -23.2836   10.9650    8.5000   81.6000    2.5677    0.2877    0.0000    0.0000  100.0000    0.0000    0.0000    0.0000    0.0000  136.4405    0.0001    1.0000    0.0001    0.0000    1.0000   -0.0001    0.0000    0.0000    0.0000    0.0000    0.0000    0.0000    0.0000   10.7000    0.0000    1.0000 4364.4458 -4124.4458 
4435.0000   10.8442    0.0328   81.3000  200.0680    7.2280   36.6602    4.7358  -23.2810   10.9890    8.5000   81.3000    2.5735    0.2829    0.0000    0.0000  100.0000    0.0000    0.0000    0.0000    0.0000  136.4463    0.0001    1.0000    0.0001    0.0000    1.0000   -0.0001    0.0000    0.0000    0.0000    0.0000    0.0000    0.0000    0.0000   10.7000    0.0000    1.0000 4364.9104 -4124.9104 
4435.5000   10.8180    0.0266   81.1000  197.0392    6.9350   33.8045    4.7749  -23.7744   11.0180    8.5000   81.1000    2.5575    0.2777    0.0000    0.0000  100.0000    0.0000    0.0000    0.0000    0.0000  136.4521    0.0001    1.0000    0.0001    0.0000    0.9928    0.0071    0.0000    0.0000    0.0000    0.0000    0.0000    0.0000    0.0000   10.7000    0.0000    1.0000 4365.3751 -4125.3751 
4436.0000   10.7946    0.0184   81.3000  195.7596    6.5320   33.6920    4.8036  -24.0688   11.0510    8.5000   81.3000    2.5507    0.2726    0.0000    0.0000  100.0000    0.0000    0.0000    0.0000    0.0000  136.4579    0.0001    1.0000    0.0001    0.0000    0.9832    0.0167    0.0000    0.0000    0.0000    0.0000    0.0000    0.0000    0.0000   10.7000    0.0000    1.0000 4365.8397 -4125.8397 
4436.5000   10.7746    0.0399   81.1000  194.9656    6.0680   33.8095    4.8189  -23.8682   11.0830    8.5000   81.1000    2.5721    0.2689    0.0000    0.0000  100.0000    0.0000    0.0000    0.0000    0.0000  136.4637    0.0001    1.0000    0.0001    0.0000    0.9772    0.0227    0.0000    0.0000    0.0000    0.0000    0.0000    0.0000    0.0000   10.7000    0.0000    1.0000 4366.3045 -4126.3045 
4437.0000   10.7221    0.0703   80.9000  193.5218    6.0120   33.8437    4.8314  -22.8736   11.1160    8.5000   80.9000    2.5900    0.2662    0.0000    0.0000  100.0000    0.0000    0.0000    0.0000    0.0000  136.4695    0.0001    1.0000    0.0001    0.0000    0.9663    0.0336    0.0000    0.0000    0.0000    0.0000    0.0000    0.0000    0.0000   10.7000    0.0000    1.0000 4366.7692 -4126.7692 
4437.5000   10.7378    0.0736   81.7000  194.5206    6.1810   33.8926    4.8434  -20.2919   11.1490    8.5000   81.7000    2.5808    0.2649    0.0000    0.0000  100.0000    0.0000    0.0000    0.0000    0.0000  136.4753    0.0001    1.0000    0.0001    0.0000    0.9738    0.0261    0.0000    0.0000    0.0000    0.0000    0.0000    0.0000    0.0000   10.7000    0.0000    1.0000 4367.2340 -4127.2340 
4438.0000   10.8305    0.0528   83.1000  195.7138    6.5320   33.9416    4.8554  -19.4953   11.1810    8.5000   83.1000    2.5489    0.2678    0.0000    0.0000  100.0000    0.0000    0.0000    0.0000    0.0000  136.4811    0.0001    1.0000    0.0001    0.0000    0.9828    0.0171    0.0000    0.0000    0.0000    0.0000    0.0000    0.0000    0.0000   10.7000    0.0000    1.0000 4367.6988 -4127.6988 
4438.5000   10.9467    0.0512   83.9000  195.0371    6.8400   33.9905    4.8674  -18.8682   11.2140    8.5000   83.9000    2.5155    0.2731    0.0000    0.0000  100.0000    0.0000    0.0000    0.0000    0.0000  136.4869    0.0001    1.0000    0.0001    0.0000    0.9777    0.0222    0.0000    0.0000    0.0000    0.0000    0.0000    0.0000    0.0000   10.7000    0.0000    1.0000 4368.1636 -4128.1636 
4439.0000   11.0973    0.0936   82.7700  194.8210    7.2950   34.0394    4.8799  -17.8821   11.2470    8.5000   82.7700    2.5242    0.2773    0.0000    0.0000  100.0000    0.0000    0.0000    0.0000    0.0000  136.4927    0.0001    1.0000    0.0001    0.0000    0.9761    0.0238    0.0000    0.0000    0.0000    0.0000    0.0000    0.0000    0.0000   10.7000    0.0000    1.0000 4368.6285 -4128.6285 
4439.5000   11.9710    0.1853   81.4500  196.7268    7.6390   34.0056    4.9154  -17.8600   11.2800    8.5000   81.4500    2.5870    0.2710    0.0000    0.0000  100.0000    0.0000    0.0000    0.0000    0.0000  136.4985    0.0001    1.0000    0.0001    0.0000    0.9904    0.0095    0.0000    0.0000    0.0000    0.0000    0.0000    0.0000    0.0000   10.7000    0.0000    1.0000 4369.0934 -4129.0934 
