~VERSION INFORMATION
 VERS.                 2.0:   CWLS LOG ASCII STANDARD - VERSION 2.0
 WRAP.                  NO:   SINGLE LINE PER DEPTH STEP
 CREA.                 03/05/2017 12:39:08
#CREATED USING IP VERSION 4.2.2015.61 BY PANESSOR ON 03/05/2017 12:39:08
~WELL INFORMATION
#MNEM.UNIT       DATA                          DESCRIPTION MNEMONIC
#---------      ---------------------------   --------------------------
 STRT    .FT        500.0000                  : START DEPTH
 STOP    .FT        5430.0000                 : STOP DEPTH
 STEP    .FT        0.5000                    : STEP VALUE
 NULL    .      -999.0000                     : NULL VALUE
 DATE    .      03/05/2017                    : LAS file Creation Date
 WELL  .      REPOSO-1            : Well Name
 COMP  .      INTERCOL            : Company
 FLD   .      PITAL               : Field
 STATE .      CESAR               : State
 COUNT .      COLOMBIA            : Country
 API   .      REP00001            : API Number
 UWI   .      100000000366        : Unique Well Identifier (UWI)
 LOC   .      GAUSS ORIGIN BOGOTA : Location
 LATI  .      8.3469500001        : Latitude/Northing
 LONG  .      -73.7031            : Longitude/Easting
 RWS   .      -999                : Def_Rw
 WST   .      -999                : Def_Rwt
 PROV  .                          : Province
 SRVC  .      SCH                 : Contractor
~CURVE INFORMATION
#MNEM                 UNIT       API CODE     Description
#----------     --------------- ----------  --------------
 DEPTH         .FT                        : 
 CALI_IR       .IN                        : Caliper
 DRHO_E_IR     .G/C3                      : Density correction
 DT_IR         .US/F                      : Delta-T Compressional
 GR_IR         .GAPI                      : Gamma Ray
 RD_E_IR       .OHMM                      : Formation Deep Resitivity
 ROP_E_IR      .Ft/h                      : Rate of Penetration
 RS_E_IR       .OHMM                      : Shallow Resistivity
 SPC_IR        .MV                        : Spontaneous Potential
 TOTAL_GAS_IR  .Units                     : Total Gas from Mudlog
 BS_IR         .inch                      : Bit Size
 DT_E_IR       .US/F                      : Delta-T Compressional
 RHOB_E_IR     .G/C3                      : Bulk Density
 NPHI_E_IR     .dec                       : Neutron porosity
 LS_IR         .%                         : Mudlog LIMESTONE
 CLST_IR       .%                         : Mudlog CLAYSTONE
 SH_IR         .%                         : Mudlog SHALE
 SLST_IR       .%                         : Mudlog SILSTONE
 CGL_IR        .%                         : Mudlog CONGLOMERATE
 SS_IR         .%                         : Mudlog SANDSTONE
 COAL_IR       .%                         : Mudlog COAL
 Temp_IR       .F                         : Formation Temperature
 PHIE_IR       .Dec                       : Effective Porosity
 SW_IR         .Dec                       : Effective Water Saturation
 BVW_IR        .Dec                       : Bulk Volume water (Phie x SW)
 VSand_IR      .dec                       : Sand Volume
 VWCL_IR       .Dec                       : Volume wet Clay
 VLime_IR      .dec                       : Limestone Volume
 VDol_IR       .dec                       : Dolomite Volume
 Perm_IR       .md                        : Calculated Permeability
 K_PHI_IR      .                          : K/PHI RATIO
 ResFlag_IR    .                          : Net Reservoir
 PayFlag_IR    .                          : Net Pay
 ResFlagRT_IR  .                          : Net Reservoir Rock Type
 PayFlagRT_IR  .                          : Pay Flag Rock Type
 MUD_WEIGHT_IR .PPG                       : MUD WEIGHT
 Rock_Type_IR  .microns                   : Pore Throat Size - Rock Types
 BADHOLE_IR    .FLAG                      : Bad Hole Indicator
 TVD_IR        .FT                        : True vertical depth
 TVDSS_IR      .FT                        : True vertical depth subsea
~P Interactive Petrophysics parameters
#Name        Value                 Description
#----- --------------------------  -----------
#Logging Run 
 RUN  .     1          : Run Number
 DATE .     28-ABR-80  : Date                      | RUN[0]
 DFT  .     /          : Type of Fluid in Hole     | RUN[1]
~A  DEPTH  CALI_IR  DRHO_E_I~   DT_IR     GR_IR    RD_E_IR   ROP_E_IR  RS_E_IR    SPC_IR  TOTAL_GA~   BS_IR    DT_E_IR  RHOB_E_I~ NPHI_E_I~   LS_IR    CLST_IR    SH_IR    SLST_IR    CGL_IR    SS_IR    COAL_IR   Temp_IR   PHIE_IR    SW_IR     BVW_IR   VSand_IR  VWCL_IR   VLime_IR  VDol_IR   Perm_IR   K_PHI_IR ResFlag_~ PayFlag_~ ResFlagR~ PayFlagR~ MUD_WEIG~ Rock_Typ~ BADHOLE_~   TVD_IR   TVDSS_IR 
# ...
3780.0000    8.8739    0.0466   59.3000   93.8352 2773.5120   21.8121  451.2551  -60.3366   13.6890    8.5000   59.3000    2.6279    0.0685   20.0000    0.0000   80.0000    0.0000    0.0000    0.0000    0.0000  128.8483    0.0001    1.0000    0.0001    0.0000    0.2168    0.7831    0.0000    0.0000    0.0000    0.0000    0.0000    0.0000    0.0000   10.7000    0.0000    0.0000 3762.7118 -3522.7118 
3780.5000    8.9904    0.0688   57.9000   91.4359 2710.4080   21.8121  481.0599  -60.1898   13.6560    8.5000   57.9000    2.6289    0.0545   20.0000    0.0000   80.0000    0.0000    0.0000    0.0000    0.0000  128.8541    0.0001    1.0000    0.0001    0.0000    0.1988    0.8011    0.0000    0.0000    0.0000    0.0000    0.0000    0.0000    0.0000   10.7000    0.0000    0.0000 3763.1820 -3523.1820 
3781.0000    9.0145    0.0924   61.0670   97.1803 2472.5500   21.8121  423.0345  -60.0420   13.7740    8.5000   61.0670    2.6145    0.0583   20.0000    0.0000   80.0000    0.0000    0.0000    0.0000    0.0000  128.8599    0.0001    1.0000    0.0001    0.0354    0.2420    0.7225    0.0000    0.0000    0.0000    0.0000    0.0000    0.0000    0.0000   10.7000    0.0000    0.0000 3763.6522 -3523.6522 
3781.5000    8.9156    0.0727   64.3000  108.8920 2133.2151   21.8121  398.3379  -59.8952   14.0150    8.5000   64.3000    2.5660    0.0706   20.0000    0.0000   80.0000    0.0000    0.0000    0.0000    0.0000  128.8657    0.0259    0.3184    0.0083    0.0492    0.3300    0.5948    0.0000    0.0024    0.0927    0.0000    0.0000    0.0000    0.0000   10.7000    0.0683    0.0000 3764.1224 -3524.1224 
3782.0000    8.7970    0.0208   64.6350  120.0153 1884.0990   21.8121  407.4348  -59.6623   14.3650    8.5000   64.6350    2.5126    0.0933   20.0000    0.0000   80.0000    0.0000    0.0000    0.0000    0.0000  128.8715    0.0530    0.1675    0.0089    0.0000    0.4136    0.5333    0.0000    0.2684    5.0635    0.0000    0.0000    0.0000    0.0000   10.7000    0.5892    0.0000 3764.5926 -3524.5926 
3782.5000    8.8276    0.0148   63.7000  122.1007 1678.9380   21.8121  403.5679  -59.4015   14.8020    8.5000   63.7000    2.5062    0.1218   20.0000    0.0000   80.0000    0.0000    0.0000    0.0000    0.0000  128.8773    0.0563    0.1673    0.0094    0.0000    0.4293    0.5144    0.0000    0.3591    6.3790    0.0000    0.0000    0.0000    0.0000   10.7000    0.6639    0.0000 3765.0627 -3525.0627 
3783.0000    8.9164    0.0418   61.7300  111.6217 1545.5090   21.8121  381.3968  -59.1407   15.1760    8.5000   61.7300    2.5407    0.1338   20.0000    0.0000   80.0000    0.0000    0.0000    0.0000    0.0000  128.8831    0.0393    0.2482    0.0098    0.0000    0.3505    0.6101    0.0000    0.0292    0.7426    0.0000    0.0000    0.0000    0.0000   10.7000    0.2069    0.0000 3765.5329 -3525.5329 
3783.5000    8.8815    0.0290   60.3000   98.1586 1099.9310   21.8121  351.9278  -58.8788   15.9630    8.5000   60.3000    2.5484    0.1084   20.0000    0.0000   80.0000    0.0000    0.0000    0.0000    0.0000  128.8889    0.0370    0.3124    0.0116    0.0000    0.2493    0.7137    0.0000    0.0138    0.3716    1.0000    1.0000    1.0000    1.0000   10.7000    0.1401    0.0000 3766.0030 -3526.0030 
3784.0000    8.8046    0.0058   60.6510   93.4550  566.8970   21.8121  322.4588  -58.5970   16.5400    8.5000   60.6510    2.5579    0.0841   20.0000    0.0000   80.0000    0.0000    0.0000    0.0000    0.0000  128.8947    0.0335    0.4793    0.0161    0.0000    0.2139    0.7525    0.0000    0.0036    0.1087    1.0000    1.0000    0.0000    0.0000   10.7000    0.0699    0.0000 3766.4732 -3526.4732 
3784.5000    8.8193    0.0043   60.7000   95.7753  167.1210   21.8121  292.9898  -58.5822   17.6350    8.5000   60.7000    2.5916    0.0914   20.0000    0.0000   80.0000    0.0000    0.0000    0.0000    0.0000  128.9005    0.0155    1.0000    0.0155    0.0000    0.2314    0.7531    0.0000    0.0000    0.0013    0.0000    0.0000    0.0000    0.0000   10.7000    0.0065    0.0000 3766.9433 -3526.9433 
3785.0000    8.9062    0.0095   59.8000   99.4877   84.1460   21.8121  264.1805  -58.3694   17.9770    8.5000   59.8000    2.6054    0.0992   20.0000    0.0000   80.0000    0.0000    0.0000    0.0000    0.0000  128.9063    0.0055    1.0000    0.0055    0.0000    0.2593    0.7351    0.0000    0.0000    0.0000    0.0000    0.0000    0.0000    0.0000   10.7000    0.0009    0.0000 3767.4134 -3527.4134 
3785.5000    8.9480    0.0172   59.5000  103.7290   85.7320   21.8121  235.6580  -58.3545   17.3280    8.5000   59.5000    2.6009    0.0881   22.0000    0.0000   78.0000    0.0000    0.0000    0.0000    0.0000  128.9121    0.0081    1.0000    0.0081    0.0000    0.2912    0.7007    0.0000    0.0000    0.0001    0.0000    0.0000    0.0000    0.0000   10.7000    0.0018    0.0000 3767.8835 -3527.8835 
3786.0000    8.9131    0.0198   61.5350  111.6482  106.4620   21.8121  187.3013  -58.3397   16.6300    8.5000   61.5350    2.5887    0.0747   24.0000    0.0000   76.0000    0.0000    0.0000    0.0000    0.0000  128.9179    0.0154    1.0000    0.0154    0.0000    0.3507    0.6339    0.0000    0.0000    0.0013    0.0000    0.0000    0.0000    0.0000   10.7000    0.0064    0.0000 3768.3536 -3528.3536 
3786.5000    8.8594    0.0091   63.8000  121.5237  157.2160   21.8121  134.9467  -58.3249   16.1330    8.5000   63.8000    2.5662    0.0795   26.0000    0.0000   74.0000    0.0000    0.0000    0.0000    0.0000  128.9237    0.0295    1.0000    0.0295    0.0000    0.4250    0.5455    0.0000    0.0005    0.0154    0.0000    0.0000    0.0000    0.0000   10.7000    0.0229    0.0000 3768.8237 -3528.8237 
3787.0000    8.8390    0.0061   64.7000  122.6931  200.9230   21.8121  117.0177  -58.1120   15.8400    8.5000   64.7000    2.5673    0.1028   28.0000    0.0000   72.0000    0.0000    0.0000    0.0000    0.0000  128.9295    0.0282    0.9539    0.0269    0.0000    0.4338    0.5380    0.0000    0.0004    0.0143    0.0000    0.0000    0.0000    0.0000   10.7000    0.0222    0.0000 3769.2938 -3529.2938 
3787.5000    8.8508    0.0214   63.7000  114.6161 1566.8590   21.8121  126.2025  -58.0522   15.4840    8.5000   63.7000    2.5978    0.1253   30.0000    0.0000   70.0000    0.0000    0.0000    0.0000    0.0000  128.9353    0.0088    1.0000    0.0088    0.0000    0.3731    0.6181    0.0000    0.0000    0.0002    0.0000    0.0000    0.0000    0.0000   10.7000    0.0021    0.0000 3769.7639 -3529.7639 
3788.0000    8.8590    0.0377   61.8000  110.9302 1790.7490   21.8171  142.1364  -57.9284   15.2660    8.5000   61.8000    2.6266    0.1167   32.0000    0.0000   68.0000    0.0000    0.0000    0.0000    0.0000  128.9411    0.0001    1.0000    0.0001    0.0000    0.3453    0.6546    0.0000    0.0000    0.0000    0.0000    0.0000    0.0000    0.0000   10.7000    0.0000    0.0000 3770.2339 -3530.2339 
3788.5000    8.8703    0.0299   61.2000  115.0085 1901.2100   21.7875  141.4623  -57.8055   15.1490    8.5000   61.2000    2.6182    0.0916   34.0000    0.0000   66.0000    0.0000    0.0000    0.0000    0.0000  128.9469    0.0001    1.0000    0.0001    0.0000    0.3760    0.6239    0.0000    0.0000    0.0000    0.0000    0.0000    0.0000    0.0000   10.7000    0.0000    0.0000 3770.7040 -3530.7040 
3789.0000    8.8548    0.0335   62.9000  114.8709 1815.6410   21.9033  121.3067  -57.6827   15.1510    8.5000   62.9000    2.6120    0.0799   36.0000    0.0000   64.0000    0.0000    0.0000    0.0000    0.0000  128.9527    0.0001    1.0000    0.0001    0.0000    0.3750    0.6249    0.0000    0.0000    0.0000    0.0000    0.0000    0.0000    0.0000   10.7000    0.0000    0.0000 3771.1741 -3531.1741 
3789.5000    8.8031    0.0366   63.2000  108.4996 1892.4940   21.6652  104.2343  -57.5599   15.1440    8.5000   63.2000    2.6268    0.0814   38.0000    0.0000   62.0000    0.0000    0.0000    0.0000    0.0000  128.9585    0.0001    1.0000    0.0001    0.0194    0.3271    0.6534    0.0000    0.0000    0.0000    0.0000    0.0000    0.0000    0.0000   10.7000    0.0000    0.0000 3771.6441 -3531.6441 
