~VERSION INFORMATION
 VERS.                 2.0:   CWLS LOG ASCII STANDARD - VERSION 2.0
 WRAP.                  NO:   SINGLE LINE PER DEPTH STEP
 CREA.                 03/05/2017 12:39:08
#CREATED USING IP VERSION 4.2.2015.61 BY PANESSOR ON 03/05/2017 12:39:08
~WELL INFORMATION
#MNEM.UNIT       DATA                          DESCRIPTION MNEMONIC
#---------      ---------------------------   --------------------------
 STRT    .FT        500.0000                  : START DEPTH
 STOP    .FT        5430.0000                 : STOP DEPTH
 STEP    .FT        0.5000                    : STEP VALUE
 NULL    .      -999.0000                     : NULL VALUE
 DATE    .      03/05/2017                    : LAS file Creation Date
 WELL  .      REPOSO-1            : Well Name
 COMP  .      INTERCOL            : Company
 FLD   .      PITAL               : Field
 STATE .      CESAR               : State
 COUNT .      COLOMBIA            : Country
 API   .      REP00001            : API Number
 UWI   .      100000000366        : Unique Well Identifier (UWI)
 LOC   .      GAUSS ORIGIN BOGOTA : Location
 LATI  .      8.3469500001        : Latitude/Northing
 LONG  .      -73.7031            : Longitude/Easting
 RWS   .      -999                : Def_Rw
 WST   .      -999                : Def_Rwt
 PROV  .                          : Province
 SRVC  .      SCH                 : Contractor
~CURVE INFORMATION
#MNEM                 UNIT       API CODE     Description
#----------     --------------- ----------  --------------
 DEPTH         .FT                        : 
 CALI_IR       .IN                        : Caliper
 DRHO_E_IR     .G/C3                      : Density correction
 DT_IR         .US/F                      : Delta-T Compressional
 GR_IR         .GAPI                      : Gamma Ray
 RD_E_IR       .OHMM                      : Formation Deep Resitivity
 ROP_E_IR      .Ft/h                      : Rate of Penetration
 RS_E_IR       .OHMM                      : Shallow Resistivity
 SPC_IR        .MV                        : Spontaneous Potential
 TOTAL_GAS_IR  .Units                     : Total Gas from Mudlog
 BS_IR         .inch                      : Bit Size
 DT_E_IR       .US/F                      : Delta-T Compressional
 RHOB_E_IR     .G/C3                      : Bulk Density
 NPHI_E_IR     .dec                       : Neutron porosity
 LS_IR         .%                         : Mudlog LIMESTONE
 CLST_IR       .%                         : Mudlog CLAYSTONE
 SH_IR         .%                         : Mudlog SHALE
 SLST_IR       .%                         : Mudlog SILSTONE
 CGL_IR        .%                         : Mudlog CONGLOMERATE
 SS_IR         .%                         : Mudlog SANDSTONE
 COAL_IR       .%                         : Mudlog COAL
 Temp_IR       .F                         : Formation Temperature
 PHIE_IR       .Dec                       : Effective Porosity
 SW_IR         .Dec                       : Effective Water Saturation
 BVW_IR        .Dec                       : Bulk Volume water (Phie x SW)
 VSand_IR      .dec                       : Sand Volume
 VWCL_IR       .Dec                       : Volume wet Clay
 VLime_IR      .dec                       : Limestone Volume
 VDol_IR       .dec                       : Dolomite Volume
 Perm_IR       .md                        : Calculated Permeability
 K_PHI_IR      .                          : K/PHI RATIO
 ResFlag_IR    .                          : Net Reservoir
 PayFlag_IR    .                          : Net Pay
 ResFlagRT_IR  .                          : Net Reservoir Rock Type
 PayFlagRT_IR  .                          : Pay Flag Rock Type
 MUD_WEIGHT_IR .PPG                       : MUD WEIGHT
 Rock_Type_IR  .microns                   : Pore Throat Size - Rock Types
 BADHOLE_IR    .FLAG                      : Bad Hole Indicator
 TVD_IR        .FT                        : True vertical depth
 TVDSS_IR      .FT                        : True vertical depth subsea
~P Interactive Petrophysics parameters
#Name        Value                 Description
#----- --------------------------  -----------
#Logging Run 
 RUN  .     1          : Run Number
 DATE .     28-ABR-80  : Date                      | RUN[0]
 DFT  .     /          : Type of Fluid in Hole     | RUN[1]
~A  DEPTH  CALI_IR  DRHO_E_I~   DT_IR     GR_IR    RD_E_IR   ROP_E_IR  RS_E_IR    SPC_IR  TOTAL_GA~   BS_IR    DT_E_IR  RHOB_E_I~ NPHI_E_I~   LS_IR    CLST_IR    SH_IR    SLST_IR    CGL_IR    SS_IR    COAL_IR   Temp_IR   PHIE_IR    SW_IR     BVW_IR   VSand_IR  VWCL_IR   VLime_IR  VDol_IR   Perm_IR   K_PHI_IR ResFlag_~ PayFlag_~ ResFlagR~ PayFlagR~ MUD_WEIG~ Rock_Typ~ BADHOLE_~   TVD_IR   TVDSS_IR 
# ...
2160.0000 -999.0000 -999.0000 -999.0000  116.5790    1.4580   64.0821    1.7760  -21.9725    0.5150    8.5000 -999.0000 -999.0000 -999.0000    0.0000   80.0000    0.0000    0.0000   20.0000    0.0000    0.0000  110.0562 -999.0000 -999.0000 -999.0000 -999.0000 -999.0000 -999.0000 -999.0000    0.0000 -999.0000    0.0000    0.0000    0.0000    0.0000    9.4000 -999.0000 -999.0000 2159.8517 -1919.8517 
2160.5000 -999.0000 -999.0000 -999.0000  114.2220    1.4560   64.1426    1.7739  -22.0499    0.5190    8.5000 -999.0000 -999.0000 -999.0000    0.0000   80.0000    0.0000    0.0000   20.0000    0.0000    0.0000  110.0620 -999.0000 -999.0000 -999.0000 -999.0000 -999.0000 -999.0000 -999.0000    0.0000 -999.0000    0.0000    0.0000    0.0000    0.0000    9.4000 -999.0000 -999.0000 2160.3516 -1920.3516 
2161.0000 -999.0000 -999.0000 -999.0000  115.4690    1.4540   64.1196    1.7719  -21.7932    0.5230    8.5000 -999.0000 -999.0000 -999.0000    0.0000   80.0000    0.0000    0.0000   20.0000    0.0000    0.0000  110.0678 -999.0000 -999.0000 -999.0000 -999.0000 -999.0000 -999.0000 -999.0000    0.0000 -999.0000    0.0000    0.0000    0.0000    0.0000    9.4000 -999.0000 -999.0000 2160.8515 -1920.8515 
2161.5000 -999.0000 -999.0000 -999.0000  118.7130    1.4530   64.1196    1.7708  -21.7856    0.5270    8.5000 -999.0000 -999.0000 -999.0000    0.0000   80.0000    0.0000    0.0000   20.0000    0.0000    0.0000  110.0736 -999.0000 -999.0000 -999.0000 -999.0000 -999.0000 -999.0000 -999.0000    0.0000 -999.0000    0.0000    0.0000    0.0000    0.0000    9.4000 -999.0000 -999.0000 2161.3513 -1921.3513 
2162.0000 -999.0000 -999.0000 -999.0000  118.7130    1.4550   64.1196    1.7729  -21.9849    0.5310    8.5000 -999.0000 -999.0000 -999.0000    0.0000   80.0000    0.0000    0.0000   20.0000    0.0000    0.0000  110.0794 -999.0000 -999.0000 -999.0000 -999.0000 -999.0000 -999.0000 -999.0000    0.0000 -999.0000    0.0000    0.0000    0.0000    0.0000    9.4000 -999.0000 -999.0000 2161.8512 -1921.8512 
2162.5000 -999.0000 -999.0000 -999.0000  116.2320    1.4570   64.1196    1.7749  -22.3443    0.5350    8.5000 -999.0000 -999.0000 -999.0000    0.0000   80.0000    0.0000    0.0000   20.0000    0.0000    0.0000  110.0852 -999.0000 -999.0000 -999.0000 -999.0000 -999.0000 -999.0000 -999.0000    0.0000 -999.0000    0.0000    0.0000    0.0000    0.0000    9.4000 -999.0000 -999.0000 2162.3511 -1922.3511 
2163.0000 -999.0000 -999.0000 -999.0000  113.2810    1.4590   64.1196    1.7770  -22.8407    0.5390    8.5000 -999.0000 -999.0000 -999.0000    0.0000   80.0000    0.0000    0.0000   20.0000    0.0000    0.0000  110.0910 -999.0000 -999.0000 -999.0000 -999.0000 -999.0000 -999.0000 -999.0000    0.0000 -999.0000    0.0000    0.0000    0.0000    0.0000    9.4000 -999.0000 -999.0000 2162.8510 -1922.8510 
2163.5000 -999.0000 -999.0000 -999.0000  110.3290    1.4620   64.1414    1.7801  -23.1770    0.5430    8.5000 -999.0000 -999.0000 -999.0000    0.0000   80.0000    0.0000    0.0000   20.0000    0.0000    0.0000  110.0968 -999.0000 -999.0000 -999.0000 -999.0000 -999.0000 -999.0000 -999.0000    0.0000 -999.0000    0.0000    0.0000    0.0000    0.0000    9.4000 -999.0000 -999.0000 2163.3509 -1923.3509 
2164.0000 -999.0000 -999.0000 -999.0000  110.3290    1.4640   64.0462    1.7821  -23.3944    0.5470    8.5000 -999.0000 -999.0000 -999.0000    0.0000   80.0000    0.0000    0.0000   20.0000    0.0000    0.0000  110.1026 -999.0000 -999.0000 -999.0000 -999.0000 -999.0000 -999.0000 -999.0000    0.0000 -999.0000    0.0000    0.0000    0.0000    0.0000    9.4000 -999.0000 -999.0000 2163.8508 -1923.8508 
2164.5000 -999.0000 -999.0000 -999.0000  110.6290    1.4660   64.2199    1.7842  -23.6107    0.5510    8.5000 -999.0000 -999.0000 -999.0000    0.0000   80.0000    0.0000    0.0000   20.0000    0.0000    0.0000  110.1084 -999.0000 -999.0000 -999.0000 -999.0000 -999.0000 -999.0000 -999.0000    0.0000 -999.0000    0.0000    0.0000    0.0000    0.0000    9.4000 -999.0000 -999.0000 2164.3507 -1924.3507 
2165.0000 -999.0000 -999.0000 -999.0000  110.0300    1.4640   69.3306    1.7821  -23.6281    0.5550    8.5000 -999.0000 -999.0000 -999.0000    0.0000   80.0000    0.0000    0.0000   20.0000    0.0000    0.0000  110.1142 -999.0000 -999.0000 -999.0000 -999.0000 -999.0000 -999.0000 -999.0000    0.0000 -999.0000    0.0000    0.0000    0.0000    0.0000    9.4000 -999.0000 -999.0000 2164.8506 -1924.8506 
2165.5000 -999.0000 -999.0000 -999.0000  109.4310    1.4620   72.1670    1.7801  -23.4465    0.5590    8.5000 -999.0000 -999.0000 -999.0000    0.0000   80.0000    0.0000    0.0000   20.0000    0.0000    0.0000  110.1200 -999.0000 -999.0000 -999.0000 -999.0000 -999.0000 -999.0000 -999.0000    0.0000 -999.0000    0.0000    0.0000    0.0000    0.0000    9.4000 -999.0000 -999.0000 2165.3505 -1925.3505 
2166.0000 -999.0000 -999.0000 -999.0000  110.6290    1.4600   72.0930    1.7780  -23.6628    0.5630    8.5000 -999.0000 -999.0000 -999.0000    0.0000   80.0000    0.0000    0.0000   20.0000    0.0000    0.0000  110.1258 -999.0000 -999.0000 -999.0000 -999.0000 -999.0000 -999.0000 -999.0000    0.0000 -999.0000    0.0000    0.0000    0.0000    0.0000    9.4000 -999.0000 -999.0000 2165.8504 -1925.8504 
2166.5000 -999.0000 -999.0000 -999.0000  113.8130    1.4580   72.2813    1.7760  -24.1792    0.5670    8.5000 -999.0000 -999.0000 -999.0000    0.0000   80.0000    0.0000    0.0000   20.0000    0.0000    0.0000  110.1316 -999.0000 -999.0000 -999.0000 -999.0000 -999.0000 -999.0000 -999.0000    0.0000 -999.0000    0.0000    0.0000    0.0000    0.0000    9.4000 -999.0000 -999.0000 2166.3503 -1926.3503 
2167.0000 -999.0000 -999.0000 -999.0000  116.4670    1.4560   72.4640    1.7739  -24.9036    0.5710    8.5000 -999.0000 -999.0000 -999.0000    0.0000   80.0000    0.0000    0.0000   20.0000    0.0000    0.0000  110.1374 -999.0000 -999.0000 -999.0000 -999.0000 -999.0000 -999.0000 -999.0000    0.0000 -999.0000    0.0000    0.0000    0.0000    0.0000    9.4000 -999.0000 -999.0000 2166.8502 -1926.8502 
2167.5000 -999.0000 -999.0000 -999.0000  115.7190    1.4540   72.6467    1.7719  -25.4199    0.5760    8.5000 -999.0000 -999.0000 -999.0000    0.0000   80.0000    0.0000    0.0000   20.0000    0.0000    0.0000  110.1432 -999.0000 -999.0000 -999.0000 -999.0000 -999.0000 -999.0000 -999.0000    0.0000 -999.0000    0.0000    0.0000    0.0000    0.0000    9.4000 -999.0000 -999.0000 2167.3501 -1927.3501 
2168.0000 -999.0000 -999.0000 -999.0000  114.8200    1.4530   72.8295    1.7708  -25.7283    0.5800    8.5000 -999.0000 -999.0000 -999.0000    0.0000   80.0000    0.0000    0.0000   20.0000    0.0000    0.0000  110.1490 -999.0000 -999.0000 -999.0000 -999.0000 -999.0000 -999.0000 -999.0000    0.0000 -999.0000    0.0000    0.0000    0.0000    0.0000    9.4000 -999.0000 -999.0000 2167.8500 -1927.8500 
2168.5000 -999.0000 -999.0000 -999.0000  114.9700    1.4550   73.0122    1.7729  -25.7456    0.5840    8.5000 -999.0000 -999.0000 -999.0000    0.0000   80.0000    0.0000    0.0000   20.0000    0.0000    0.0000  110.1548 -999.0000 -999.0000 -999.0000 -999.0000 -999.0000 -999.0000 -999.0000    0.0000 -999.0000    0.0000    0.0000    0.0000    0.0000    9.4000 -999.0000 -999.0000 2168.3499 -1928.3499 
2169.0000 -999.0000 -999.0000 -999.0000  116.0180    1.4560   73.1949    1.7739  -25.7630    0.5880    8.5000 -999.0000 -999.0000 -999.0000    0.0000   80.0000    0.0000    0.0000   20.0000    0.0000    0.0000  110.1606 -999.0000 -999.0000 -999.0000 -999.0000 -999.0000 -999.0000 -999.0000    0.0000 -999.0000    0.0000    0.0000    0.0000    0.0000    9.4000 -999.0000 -999.0000 2168.8498 -1928.8498 
2169.5000 -999.0000 -999.0000 -999.0000  118.2630    1.4580   73.3776    1.7760  -25.9804    0.5920    8.5000 -999.0000 -999.0000 -999.0000    0.0000   80.0000    0.0000    0.0000   20.0000    0.0000    0.0000  110.1664 -999.0000 -999.0000 -999.0000 -999.0000 -999.0000 -999.0000 -999.0000    0.0000 -999.0000    0.0000    0.0000    0.0000    0.0000    9.4000 -999.0000 -999.0000 2169.3497 -1929.3497 
