~VERSION INFORMATION
 VERS.                 2.0:   CWLS LOG ASCII STANDARD - VERSION 2.0
 WRAP.                  NO:   SINGLE LINE PER DEPTH STEP
 CREA.                 03/05/2017 12:39:08
#CREATED USING IP VERSION 4.2.2015.61 BY PANESSOR ON 03/05/2017 12:39:08
~WELL INFORMATION
#MNEM.UNIT       DATA                          DESCRIPTION MNEMONIC
#---------      ---------------------------   --------------------------
 STRT    .FT        500.0000                  : START DEPTH
 STOP    .FT        5430.0000                 : STOP DEPTH
 STEP    .FT        0.5000                    : STEP VALUE
 NULL    .      -999.0000                     : NULL VALUE
 DATE    .      03/05/2017                    : LAS file Creation Date
 WELL  .      REPOSO-1            : Well Name
 COMP  .      INTERCOL            : Company
 FLD   .      PITAL               : Field
 STATE .      CESAR               : State
 COUNT .      COLOMBIA            : Country
 API   .      REP00001            : API Number
 UWI   .      100000000366        : Unique Well Identifier (UWI)
 LOC   .      GAUSS ORIGIN BOGOTA : Location
 LATI  .      8.3469500001        : Latitude/Northing
 LONG  .      -73.7031            : Longitude/Easting
 RWS   .      -999                : Def_Rw
 WST   .      -999                : Def_Rwt
 PROV  .                          : Province
 SRVC  .      SCH                 : Contractor
~CURVE INFORMATION
#MNEM                 UNIT       API CODE     Description
#----------     --------------- ----------  --------------
 DEPTH         .FT                        : 
 CALI_IR       .IN                        : Caliper
 DRHO_E_IR     .G/C3                      : Density correction
 DT_IR         .US/F                      : Delta-T Compressional
 GR_IR         .GAPI                      : Gamma Ray
 RD_E_IR       .OHMM                      : Formation Deep Resitivity
 ROP_E_IR      .Ft/h                      : Rate of Penetration
 RS_E_IR       .OHMM                      : Shallow Resistivity
 SPC_IR        .MV                        : Spontaneous Potential
 TOTAL_GAS_IR  .Units                     : Total Gas from Mudlog
 BS_IR         .inch                      : Bit Size
 DT_E_IR       .US/F                      : Delta-T Compressional
 RHOB_E_IR     .G/C3                      : Bulk Density
 NPHI_E_IR     .dec                       : Neutron porosity
 LS_IR         .%                         : Mudlog LIMESTONE
 CLST_IR       .%                         : Mudlog CLAYSTONE
 SH_IR         .%                         : Mudlog SHALE
 SLST_IR       .%                         : Mudlog SILSTONE
 CGL_IR        .%                         : Mudlog CONGLOMERATE
 SS_IR         .%                         : Mudlog SANDSTONE
 COAL_IR       .%                         : Mudlog COAL
 Temp_IR       .F                         : Formation Temperature
 PHIE_IR       .Dec                       : Effective Porosity
 SW_IR         .Dec                       : Effective Water Saturation
 BVW_IR        .Dec                       : Bulk Volume water (Phie x SW)
 VSand_IR      .dec                       : Sand Volume
 VWCL_IR       .Dec                       : Volume wet Clay
 VLime_IR      .dec                       : Limestone Volume
 VDol_IR       .dec                       : Dolomite Volume
 Perm_IR       .md                        : Calculated Permeability
 K_PHI_IR      .                          : K/PHI RATIO
 ResFlag_IR    .                          : Net Reservoir
 PayFlag_IR    .                          : Net Pay
 ResFlagRT_IR  .                          : Net Reservoir Rock Type
 PayFlagRT_IR  .                          : Pay Flag Rock Type
 MUD_WEIGHT_IR .PPG                       : MUD WEIGHT
 Rock_Type_IR  .microns                   : Pore Throat Size - Rock Types
 BADHOLE_IR    .FLAG                      : Bad Hole Indicator
 TVD_IR        .FT                        : True vertical depth
 TVDSS_IR      .FT                        : True vertical depth subsea
~P Interactive Petrophysics parameters
#Name        Value                 Description
#----- --------------------------  -----------
#Logging Run 
 RUN  .     1          : Run Number
 DATE .     28-ABR-80  : Date                      | RUN[0]
 DFT  .     /          : Type of Fluid in Hole     | RUN[1]
~A  DEPTH  CALI_IR  DRHO_E_I~   DT_IR     GR_IR    RD_E_IR   ROP_E_IR  RS_E_IR    SPC_IR  TOTAL_GA~   BS_IR    DT_E_IR  RHOB_E_I~ NPHI_E_I~   LS_IR    CLST_IR    SH_IR    SLST_IR    CGL_IR    SS_IR    COAL_IR   Temp_IR   PHIE_IR    SW_IR     BVW_IR   VSand_IR  VWCL_IR   VLime_IR  VDol_IR   Perm_IR   K_PHI_IR ResFlag_~ PayFlag_~ ResFlagR~ PayFlagR~ MUD_WEIG~ Rock_Typ~ BADHOLE_~   TVD_IR   TVDSS_IR 
# ...
 860.0000 -999.0000 -999.0000 -999.0000   78.4100    8.1550   41.4859    7.1287  -22.1427 -999.0000 -999.0000 -999.0000 -999.0000 -999.0000    0.0000   90.0000    0.0000    0.0000   10.0000    0.0000    0.0000   94.9761 -999.0000 -999.0000 -999.0000 -999.0000 -999.0000 -999.0000 -999.0000    0.0000 -999.0000    0.0000    0.0000    0.0000    0.0000    9.4000 -999.0000 -999.0000  859.9906 -619.9906 
 860.5000 -999.0000 -999.0000 -999.0000   80.6890    8.1930   40.6112    7.1543  -22.5571 -999.0000 -999.0000 -999.0000 -999.0000 -999.0000    0.0000   90.0000    0.0000    0.0000   10.0000    0.0000    0.0000   94.9819 -999.0000 -999.0000 -999.0000 -999.0000 -999.0000 -999.0000 -999.0000    0.0000 -999.0000    0.0000    0.0000    0.0000    0.0000    9.4000 -999.0000 -999.0000  860.4906 -620.4906 
 861.0000 -999.0000 -999.0000 -999.0000   81.5870    8.1930   40.4051    7.1543  -23.1055 -999.0000 -999.0000 -999.0000 -999.0000 -999.0000    0.0000   90.0000    0.0000    0.0000   10.0000    0.0000    0.0000   94.9877 -999.0000 -999.0000 -999.0000 -999.0000 -999.0000 -999.0000 -999.0000    0.0000 -999.0000    0.0000    0.0000    0.0000    0.0000    9.4000 -999.0000 -999.0000  860.9906 -620.9906 
 861.5000 -999.0000 -999.0000 -999.0000   82.4850    7.8960   40.4434    6.9535  -23.2739 -999.0000 -999.0000 -999.0000 -999.0000 -999.0000    0.0000   90.0000    0.0000    0.0000   10.0000    0.0000    0.0000   94.9935 -999.0000 -999.0000 -999.0000 -999.0000 -999.0000 -999.0000 -999.0000    0.0000 -999.0000    0.0000    0.0000    0.0000    0.0000    9.4000 -999.0000 -999.0000  861.4906 -621.4906 
 862.0000 -999.0000 -999.0000 -999.0000   82.7840    7.4940   40.4527    6.6783  -23.4023 -999.0000 -999.0000 -999.0000 -999.0000 -999.0000    0.0000   90.0000    0.0000    0.0000   10.0000    0.0000    0.0000   94.9993 -999.0000 -999.0000 -999.0000 -999.0000 -999.0000 -999.0000 -999.0000    0.0000 -999.0000    0.0000    0.0000    0.0000    0.0000    9.4000 -999.0000 -999.0000  861.9906 -621.9906 
 862.5000 -999.0000 -999.0000 -999.0000   82.7840    7.1500   40.4682    6.4395  -23.0177 -999.0000 -999.0000 -999.0000 -999.0000 -999.0000    0.0000   90.0000    0.0000    0.0000   10.0000    0.0000    0.0000   95.0051 -999.0000 -999.0000 -999.0000 -999.0000 -999.0000 -999.0000 -999.0000    0.0000 -999.0000    0.0000    0.0000    0.0000    0.0000    9.4000 -999.0000 -999.0000  862.4906 -622.4906 
 863.0000 -999.0000 -999.0000 -999.0000   82.7840    6.8470   40.4682    6.2264  -22.9341 -999.0000 -999.0000 -999.0000 -999.0000 -999.0000    0.0000   90.0000    0.0000    0.0000   10.0000    0.0000    0.0000   95.0109 -999.0000 -999.0000 -999.0000 -999.0000 -999.0000 -999.0000 -999.0000    0.0000 -999.0000    0.0000    0.0000    0.0000    0.0000    9.4000 -999.0000 -999.0000  862.9905 -622.9905 
 863.5000 -999.0000 -999.0000 -999.0000   82.3350    6.6910   40.4682    6.1157  -22.8495 -999.0000 -999.0000 -999.0000 -999.0000 -999.0000    0.0000   90.0000    0.0000    0.0000   10.0000    0.0000    0.0000   95.0167 -999.0000 -999.0000 -999.0000 -999.0000 -999.0000 -999.0000 -999.0000    0.0000 -999.0000    0.0000    0.0000    0.0000    0.0000    9.4000 -999.0000 -999.0000  863.4905 -623.4905 
 864.0000 -999.0000 -999.0000 -999.0000   82.4850    6.6300   40.4682    6.0723  -22.8649 -999.0000 -999.0000 -999.0000 -999.0000 -999.0000    0.0000   90.0000    0.0000    0.0000   10.0000    0.0000    0.0000   95.0225 -999.0000 -999.0000 -999.0000 -999.0000 -999.0000 -999.0000 -999.0000    0.0000 -999.0000    0.0000    0.0000    0.0000    0.0000    9.4000 -999.0000 -999.0000  863.9905 -623.9905 
 864.5000 -999.0000 -999.0000 -999.0000   83.5330    6.6300   40.4682    6.0723  -22.8803 -999.0000 -999.0000 -999.0000 -999.0000 -999.0000    0.0000   90.0000    0.0000    0.0000   10.0000    0.0000    0.0000   95.0283 -999.0000 -999.0000 -999.0000 -999.0000 -999.0000 -999.0000 -999.0000    0.0000 -999.0000    0.0000    0.0000    0.0000    0.0000    9.4000 -999.0000 -999.0000  864.4905 -624.4905 
 865.0000 -999.0000 -999.0000 -999.0000   86.5490    6.5090   40.4682    5.9857  -23.2947 -999.0000 -999.0000 -999.0000 -999.0000 -999.0000    0.0000   90.0000    0.0000    0.0000   10.0000    0.0000    0.0000   95.0341 -999.0000 -999.0000 -999.0000 -999.0000 -999.0000 -999.0000 -999.0000    0.0000 -999.0000    0.0000    0.0000    0.0000    0.0000    9.4000 -999.0000 -999.0000  864.9905 -624.9905 
 865.5000 -999.0000 -999.0000 -999.0000   90.9510    6.3900   40.4682    5.9001  -23.6091 -999.0000 -999.0000 -999.0000 -999.0000 -999.0000    0.0000   90.0000    0.0000    0.0000   10.0000    0.0000    0.0000   95.0399 -999.0000 -999.0000 -999.0000 -999.0000 -999.0000 -999.0000 -999.0000    0.0000 -999.0000    0.0000    0.0000    0.0000    0.0000    9.4000 -999.0000 -999.0000  865.4905 -625.4905 
 866.0000 -999.0000 -999.0000 -999.0000   95.3520    6.2740   40.4682    5.8163  -23.5255 -999.0000 -999.0000 -999.0000 -999.0000 -999.0000    0.0000   90.0000    0.0000    0.0000   10.0000    0.0000    0.0000   95.0457 -999.0000 -999.0000 -999.0000 -999.0000 -999.0000 -999.0000 -999.0000    0.0000 -999.0000    0.0000    0.0000    0.0000    0.0000    9.4000 -999.0000 -999.0000  865.9904 -625.9904 
 866.5000 -999.0000 -999.0000 -999.0000   99.1020    6.1310   40.4682    5.7124  -22.5829 -999.0000 -999.0000 -999.0000 -999.0000 -999.0000    0.0000   90.0000    0.0000    0.0000   10.0000    0.0000    0.0000   95.0515 -999.0000 -999.0000 -999.0000 -999.0000 -999.0000 -999.0000 -999.0000    0.0000 -999.0000    0.0000    0.0000    0.0000    0.0000    9.4000 -999.0000 -999.0000  866.4904 -626.4904 
 867.0000 -999.0000 -999.0000 -999.0000   98.3530    5.9920   40.4682    5.6107  -22.3583 -999.0000 -999.0000 -999.0000 -999.0000 -999.0000    0.0000   90.0000    0.0000    0.0000   10.0000    0.0000    0.0000   95.0573 -999.0000 -999.0000 -999.0000 -999.0000 -999.0000 -999.0000 -999.0000    0.0000 -999.0000    0.0000    0.0000    0.0000    0.0000    9.4000 -999.0000 -999.0000  866.9904 -626.9904 
 867.5000 -999.0000 -999.0000 -999.0000   95.8680    5.8290   40.4768    5.4907  -22.4737 -999.0000 -999.0000 -999.0000 -999.0000 -999.0000    0.0000   90.0000    0.0000    0.0000   10.0000    0.0000    0.0000   95.0631 -999.0000 -999.0000 -999.0000 -999.0000 -999.0000 -999.0000 -999.0000    0.0000 -999.0000    0.0000    0.0000    0.0000    0.0000    9.4000 -999.0000 -999.0000  867.4904 -627.4904 
 868.0000 -999.0000 -999.0000 -999.0000   93.3530    5.6180   40.4752    5.3339  -22.7881 -999.0000 -999.0000 -999.0000 -999.0000 -999.0000    0.0000   90.0000    0.0000    0.0000   10.0000    0.0000    0.0000   95.0689 -999.0000 -999.0000 -999.0000 -999.0000 -999.0000 -999.0000 -999.0000    0.0000 -999.0000    0.0000    0.0000    0.0000    0.0000    9.4000 -999.0000 -999.0000  867.9904 -627.9904 
 868.5000 -999.0000 -999.0000 -999.0000   91.0180    5.1800   40.4350    5.0034  -22.8035 -999.0000 -999.0000 -999.0000 -999.0000 -999.0000    0.0000   90.0000    0.0000    0.0000   10.0000    0.0000    0.0000   95.0747 -999.0000 -999.0000 -999.0000 -999.0000 -999.0000 -999.0000 -999.0000    0.0000 -999.0000    0.0000    0.0000    0.0000    0.0000    9.4000 -999.0000 -999.0000  868.4904 -628.4904 
 869.0000 -999.0000 -999.0000 -999.0000   88.6230    4.7750   40.6045    4.6911  -22.7189 -999.0000 -999.0000 -999.0000 -999.0000 -999.0000    0.0000   90.0000    0.0000    0.0000   10.0000    0.0000    0.0000   95.0805 -999.0000 -999.0000 -999.0000 -999.0000 -999.0000 -999.0000 -999.0000    0.0000 -999.0000    0.0000    0.0000    0.0000    0.0000    9.4000 -999.0000 -999.0000  868.9903 -628.9903 
 869.5000 -999.0000 -999.0000 -999.0000   87.5750    4.5050   40.2375    4.4791  -22.4353 -999.0000 -999.0000 -999.0000 -999.0000 -999.0000    0.0000   90.0000    0.0000    0.0000   10.0000    0.0000    0.0000   95.0863 -999.0000 -999.0000 -999.0000 -999.0000 -999.0000 -999.0000 -999.0000    0.0000 -999.0000    0.0000    0.0000    0.0000    0.0000    9.4000 -999.0000 -999.0000  869.4903 -629.4903 
