~VERSION INFORMATION
 VERS.                 2.0:   CWLS LOG ASCII STANDARD - VERSION 2.0
 WRAP.                  NO:   SINGLE LINE PER DEPTH STEP
 CREA.                 03/05/2017 12:39:08
#CREATED USING IP VERSION 4.2.2015.61 BY PANESSOR ON 03/05/2017 12:39:08
~WELL INFORMATION
#MNEM.UNIT       DATA                          DESCRIPTION MNEMONIC
#---------      ---------------------------   --------------------------
 STRT    .FT        500.0000                  : START DEPTH
 STOP    .FT        5430.0000                 : STOP DEPTH
 STEP    .FT        0.5000                    : STEP VALUE
 NULL    .      -999.0000                     : NULL VALUE
 DATE    .      03/05/2017                    : LAS file Creation Date
 WELL  .      REPOSO-1            : Well Name
 COMP  .      INTERCOL            : Company
 FLD   .      PITAL               : Field
 STATE .      CESAR               : State
 COUNT .      COLOMBIA            : Country
 API   .      REP00001            : API Number
 UWI   .      100000000366        : Unique Well Identifier (UWI)
 LOC   .      GAUSS ORIGIN BOGOTA : Location
 LATI  .      8.3469500001        : Latitude/Northing
 LONG  .      -73.7031            : Longitude/Easting
 RWS   .      -999                : Def_Rw
 WST   .      -999                : Def_Rwt
 PROV  .                          : Province
 SRVC  .      SCH                 : Contractor
~CURVE INFORMATION
#MNEM                 UNIT       API CODE     Description
#----------     --------------- ----------  --------------
 DEPTH         .FT                        : 
 CALI_IR       .IN                        : Caliper
 DRHO_E_IR     .G/C3                      : Density correction
 DT_IR         .US/F                      : Delta-T Compressional
 GR_IR         .GAPI                      : Gamma Ray
 RD_E_IR       .OHMM                      : Formation Deep Resitivity
 ROP_E_IR      .Ft/h                      : Rate of Penetration
 RS_E_IR       .OHMM                      : Shallow Resistivity
 SPC_IR        .MV                        : Spontaneous Potential
 TOTAL_GAS_IR  .Units                     : Total Gas from Mudlog
 BS_IR         .inch                      : Bit Size
 DT_E_IR       .US/F                      : Delta-T Compressional
 RHOB_E_IR     .G/C3                      : Bulk Density
 NPHI_E_IR     .dec                       : Neutron porosity
 LS_IR         .%                         : Mudlog LIMESTONE
 CLST_IR       .%                         : Mudlog CLAYSTONE
 SH_IR         .%                         : Mudlog SHALE
 SLST_IR       .%                         : Mudlog SILSTONE
 CGL_IR        .%                         : Mudlog CONGLOMERATE
 SS_IR         .%                         : Mudlog SANDSTONE
 COAL_IR       .%                         : Mudlog COAL
 Temp_IR       .F                         : Formation Temperature
 PHIE_IR       .Dec                       : Effective Porosity
 SW_IR         .Dec                       : Effective Water Saturation
 BVW_IR        .Dec                       : Bulk Volume water (Phie x SW)
 VSand_IR      .dec                       : Sand Volume
 VWCL_IR       .Dec                       : Volume wet Clay
 VLime_IR      .dec                       : Limestone Volume
 VDol_IR       .dec                       : Dolomite Volume
 Perm_IR       .md                        : Calculated Permeability
 K_PHI_IR      .                          : K/PHI RATIO
 ResFlag_IR    .                          : Net Reservoir
 PayFlag_IR    .                          : Net Pay
 ResFlagRT_IR  .                          : Net Reservoir Rock Type
 PayFlagRT_IR  .                          : Pay Flag Rock Type
 MUD_WEIGHT_IR .PPG                       : MUD WEIGHT
 Rock_Type_IR  .microns                   : Pore Throat Size - Rock Types
 BADHOLE_IR    .FLAG                      : Bad Hole Indicator
 TVD_IR        .FT                        : True vertical depth
 TVDSS_IR      .FT                        : True vertical depth subsea
~P Interactive Petrophysics parameters
#Name        Value                 Description
#----- --------------------------  -----------
#Logging Run 
 RUN  .     1          : Run Number
 DATE .     28-ABR-80  : Date                      | RUN[0]
 DFT  .     /          : Type of Fluid in Hole     | RUN[1]
~A  DEPTH  CALI_IR  DRHO_E_I~   DT_IR     GR_IR    RD_E_IR   ROP_E_IR  RS_E_IR    SPC_IR  TOTAL_GA~   BS_IR    DT_E_IR  RHOB_E_I~ NPHI_E_I~   LS_IR    CLST_IR    SH_IR    SLST_IR    CGL_IR    SS_IR    COAL_IR   Temp_IR   PHIE_IR    SW_IR     BVW_IR   VSand_IR  VWCL_IR   VLime_IR  VDol_IR   Perm_IR   K_PHI_IR ResFlag_~ PayFlag_~ ResFlagR~ PayFlagR~ MUD_WEIG~ Rock_Typ~ BADHOLE_~   TVD_IR   TVDSS_IR 
# ...
5410.0000 -999.0000    0.0830 -999.0000 -999.0000 -999.0000   11.1953 -999.0000 -999.0000    1.8210    6.0000   65.1101    2.5900    0.0100  100.0000    0.0000    0.0000    0.0000    0.0000    0.0000    0.0000  147.7564    0.0348    0.1868    0.0065    0.1819    0.1100    0.6733    0.0000    0.0287    0.8252    1.0000    1.0000    1.0000    1.0000    9.3000    0.2277    0.0000 5302.7798 -5062.7798 
5410.5000 -999.0000 -999.0000 -999.0000 -999.0000 -999.0000   13.0471 -999.0000 -999.0000    1.8150    6.0000 -999.0000 -999.0000 -999.0000  100.0000    0.0000    0.0000    0.0000    0.0000    0.0000    0.0000  147.7622 -999.0000 -999.0000 -999.0000 -999.0000 -999.0000 -999.0000 -999.0000    0.0287 -999.0000    0.0000    0.0000    0.0000    0.0000    9.3000 -999.0000 -999.0000 5303.2714 -5063.2714 
5411.0000 -999.0000 -999.0000 -999.0000 -999.0000 -999.0000   13.0471 -999.0000 -999.0000    1.8090    6.0000 -999.0000 -999.0000 -999.0000  100.0000    0.0000    0.0000    0.0000    0.0000    0.0000    0.0000  147.7680 -999.0000 -999.0000 -999.0000 -999.0000 -999.0000 -999.0000 -999.0000    0.0287 -999.0000    0.0000    0.0000    0.0000    0.0000    9.3000 -999.0000 -999.0000 5303.7631 -5063.7631 
5411.5000 -999.0000 -999.0000 -999.0000 -999.0000 -999.0000   13.0471 -999.0000 -999.0000    1.8020    6.0000 -999.0000 -999.0000 -999.0000  100.0000    0.0000    0.0000    0.0000    0.0000    0.0000    0.0000  147.7738 -999.0000 -999.0000 -999.0000 -999.0000 -999.0000 -999.0000 -999.0000    0.0287 -999.0000    0.0000    0.0000    0.0000    0.0000    9.3000 -999.0000 -999.0000 5304.2547 -5064.2547 
5412.0000 -999.0000 -999.0000 -999.0000 -999.0000 -999.0000   13.0471 -999.0000 -999.0000    1.7960    6.0000 -999.0000 -999.0000 -999.0000  100.0000    0.0000    0.0000    0.0000    0.0000    0.0000    0.0000  147.7796 -999.0000 -999.0000 -999.0000 -999.0000 -999.0000 -999.0000 -999.0000    0.0287 -999.0000    0.0000    0.0000    0.0000    0.0000    9.3000 -999.0000 -999.0000 5304.7465 -5064.7465 
5412.5000 -999.0000 -999.0000 -999.0000 -999.0000 -999.0000   13.0471 -999.0000 -999.0000    1.7900    6.0000 -999.0000 -999.0000 -999.0000  100.0000    0.0000    0.0000    0.0000    0.0000    0.0000    0.0000  147.7854 -999.0000 -999.0000 -999.0000 -999.0000 -999.0000 -999.0000 -999.0000    0.0287 -999.0000    0.0000    0.0000    0.0000    0.0000    9.3000 -999.0000 -999.0000 5305.2382 -5065.2382 
5413.0000 -999.0000 -999.0000 -999.0000 -999.0000 -999.0000   13.0471 -999.0000 -999.0000    1.7830    6.0000 -999.0000 -999.0000 -999.0000  100.0000    0.0000    0.0000    0.0000    0.0000    0.0000    0.0000  147.7912 -999.0000 -999.0000 -999.0000 -999.0000 -999.0000 -999.0000 -999.0000    0.0287 -999.0000    0.0000    0.0000    0.0000    0.0000    9.3000 -999.0000 -999.0000 5305.7299 -5065.7299 
5413.5000 -999.0000 -999.0000 -999.0000 -999.0000 -999.0000   13.0471 -999.0000 -999.0000    1.7770    6.0000 -999.0000 -999.0000 -999.0000  100.0000    0.0000    0.0000    0.0000    0.0000    0.0000    0.0000  147.7970 -999.0000 -999.0000 -999.0000 -999.0000 -999.0000 -999.0000 -999.0000    0.0287 -999.0000    0.0000    0.0000    0.0000    0.0000    9.3000 -999.0000 -999.0000 5306.2217 -5066.2217 
5414.0000 -999.0000 -999.0000 -999.0000 -999.0000 -999.0000   13.0471 -999.0000 -999.0000    1.7710    6.0000 -999.0000 -999.0000 -999.0000  100.0000    0.0000    0.0000    0.0000    0.0000    0.0000    0.0000  147.8028 -999.0000 -999.0000 -999.0000 -999.0000 -999.0000 -999.0000 -999.0000    0.0287 -999.0000    0.0000    0.0000    0.0000    0.0000    9.3000 -999.0000 -999.0000 5306.7134 -5066.7134 
5414.5000 -999.0000 -999.0000 -999.0000 -999.0000 -999.0000   13.0471 -999.0000 -999.0000    1.7810    6.0000 -999.0000 -999.0000 -999.0000  100.0000    0.0000    0.0000    0.0000    0.0000    0.0000    0.0000  147.8086 -999.0000 -999.0000 -999.0000 -999.0000 -999.0000 -999.0000 -999.0000    0.0287 -999.0000    0.0000    0.0000    0.0000    0.0000    9.3000 -999.0000 -999.0000 5307.2052 -5067.2052 
5415.0000 -999.0000 -999.0000 -999.0000 -999.0000 -999.0000   13.0471 -999.0000 -999.0000    1.8470    6.0000 -999.0000 -999.0000 -999.0000  100.0000    0.0000    0.0000    0.0000    0.0000    0.0000    0.0000  147.8144 -999.0000 -999.0000 -999.0000 -999.0000 -999.0000 -999.0000 -999.0000    0.0287 -999.0000    0.0000    0.0000    0.0000    0.0000    9.3000 -999.0000 -999.0000 5307.6969 -5067.6969 
5415.5000 -999.0000 -999.0000 -999.0000 -999.0000 -999.0000   13.0471 -999.0000 -999.0000    1.9120    6.0000 -999.0000 -999.0000 -999.0000  100.0000    0.0000    0.0000    0.0000    0.0000    0.0000    0.0000  147.8202 -999.0000 -999.0000 -999.0000 -999.0000 -999.0000 -999.0000 -999.0000    0.0287 -999.0000    0.0000    0.0000    0.0000    0.0000    9.3000 -999.0000 -999.0000 5308.1886 -5068.1886 
5416.0000 -999.0000 -999.0000 -999.0000 -999.0000 -999.0000   13.0471 -999.0000 -999.0000    1.9770    6.0000 -999.0000 -999.0000 -999.0000  100.0000    0.0000    0.0000    0.0000    0.0000    0.0000    0.0000  147.8260 -999.0000 -999.0000 -999.0000 -999.0000 -999.0000 -999.0000 -999.0000    0.0287 -999.0000    0.0000    0.0000    0.0000    0.0000    9.3000 -999.0000 -999.0000 5308.6804 -5068.6804 
5416.5000 -999.0000 -999.0000 -999.0000 -999.0000 -999.0000   13.0471 -999.0000 -999.0000    2.0420    6.0000 -999.0000 -999.0000 -999.0000  100.0000    0.0000    0.0000    0.0000    0.0000    0.0000    0.0000  147.8318 -999.0000 -999.0000 -999.0000 -999.0000 -999.0000 -999.0000 -999.0000    0.0287 -999.0000    0.0000    0.0000    0.0000    0.0000    9.3000 -999.0000 -999.0000 5309.1721 -5069.1721 
5417.0000 -999.0000 -999.0000 -999.0000 -999.0000 -999.0000   13.0471 -999.0000 -999.0000    2.1060    6.0000 -999.0000 -999.0000 -999.0000  100.0000    0.0000    0.0000    0.0000    0.0000    0.0000    0.0000  147.8376 -999.0000 -999.0000 -999.0000 -999.0000 -999.0000 -999.0000 -999.0000    0.0287 -999.0000    0.0000    0.0000    0.0000    0.0000    9.3000 -999.0000 -999.0000 5309.6638 -5069.6638 
5417.5000 -999.0000 -999.0000 -999.0000 -999.0000 -999.0000   13.0465 -999.0000 -999.0000    2.1710    6.0000 -999.0000 -999.0000 -999.0000  100.0000    0.0000    0.0000    0.0000    0.0000    0.0000    0.0000  147.8434 -999.0000 -999.0000 -999.0000 -999.0000 -999.0000 -999.0000 -999.0000    0.0287 -999.0000    0.0000    0.0000    0.0000    0.0000    9.3000 -999.0000 -999.0000 5310.1556 -5070.1556 
5418.0000 -999.0000 -999.0000 -999.0000 -999.0000 -999.0000   13.0466 -999.0000 -999.0000    2.2340    6.0000 -999.0000 -999.0000 -999.0000  100.0000    0.0000    0.0000    0.0000    0.0000    0.0000    0.0000  147.8492 -999.0000 -999.0000 -999.0000 -999.0000 -999.0000 -999.0000 -999.0000    0.0287 -999.0000    0.0000    0.0000    0.0000    0.0000    9.3000 -999.0000 -999.0000 5310.6473 -5070.6473 
5418.5000 -999.0000 -999.0000 -999.0000 -999.0000 -999.0000   13.0476 -999.0000 -999.0000    2.2670    6.0000 -999.0000 -999.0000 -999.0000  100.0000    0.0000    0.0000    0.0000    0.0000    0.0000    0.0000  147.8550 -999.0000 -999.0000 -999.0000 -999.0000 -999.0000 -999.0000 -999.0000    0.0287 -999.0000    0.0000    0.0000    0.0000    0.0000    9.3000 -999.0000 -999.0000 5311.1391 -5071.1391 
5419.0000 -999.0000 -999.0000 -999.0000 -999.0000 -999.0000   13.0412 -999.0000 -999.0000    2.4030    6.0000 -999.0000 -999.0000 -999.0000  100.0000    0.0000    0.0000    0.0000    0.0000    0.0000    0.0000  147.8608 -999.0000 -999.0000 -999.0000 -999.0000 -999.0000 -999.0000 -999.0000    0.0287 -999.0000    0.0000    0.0000    0.0000    0.0000    9.3000 -999.0000 -999.0000 5311.6308 -5071.6308 
5419.5000 -999.0000 -999.0000 -999.0000 -999.0000 -999.0000   13.0471 -999.0000 -999.0000    2.7180    6.0000 -999.0000 -999.0000 -999.0000  100.0000    0.0000    0.0000    0.0000    0.0000    0.0000    0.0000  147.8666 -999.0000 -999.0000 -999.0000 -999.0000 -999.0000 -999.0000 -999.0000    0.0287 -999.0000    0.0000    0.0000    0.0000    0.0000    9.3000 -999.0000 -999.0000 5312.1225 -5072.1225 
