~VERSION INFORMATION
 VERS.                 2.0:   CWLS LOG ASCII STANDARD - VERSION 2.0
 WRAP.                  NO:   SINGLE LINE PER DEPTH STEP
 CREA.                 03/05/2017 12:39:08
#CREATED USING IP VERSION 4.2.2015.61 BY PANESSOR ON 03/05/2017 12:39:08
~WELL INFORMATION
#MNEM.UNIT       DATA                          DESCRIPTION MNEMONIC
#---------      ---------------------------   --------------------------
 STRT    .FT        500.0000                  : START DEPTH
 STOP    .FT        5430.0000                 : STOP DEPTH
 STEP    .FT        0.5000                    : STEP VALUE
 NULL    .      -999.0000                     : NULL VALUE
 DATE    .      03/05/2017                    : LAS file Creation Date
 WELL  .      REPOSO-1            : Well Name
 COMP  .      INTERCOL            : Company
 FLD   .      PITAL               : Field
 STATE .      CESAR               : State
 COUNT .      COLOMBIA            : Country
 API   .      REP00001            : API Number
 UWI   .      100000000366        : Unique Well Identifier (UWI)
 LOC   .      GAUSS ORIGIN BOGOTA : Location
 LATI  .      8.3469500001        : Latitude/Northing
 LONG  .      -73.7031            : Longitude/Easting
 RWS   .      -999                : Def_Rw
 WST   .      -999                : Def_Rwt
 PROV  .                          : Province
 SRVC  .      SCH                 : Contractor
~CURVE INFORMATION
#MNEM                 UNIT       API CODE     Description
#----------     --------------- ----------  --------------
 DEPTH         .FT                        : 
 CALI_IR       .IN                        : Caliper
 DRHO_E_IR     .G/C3                      : Density correction
 DT_IR         .US/F                      : Delta-T Compressional
 GR_IR         .GAPI                      : Gamma Ray
 RD_E_IR       .OHMM                      : Formation Deep Resitivity
 ROP_E_IR      .Ft/h                      : Rate of Penetration
 RS_E_IR       .OHMM                      : Shallow Resistivity
 SPC_IR        .MV                        : Spontaneous Potential
 TOTAL_GAS_IR  .Units                     : Total Gas from Mudlog
 BS_IR         .inch                      : Bit Size
 DT_E_IR       .US/F                      : Delta-T Compressional
 RHOB_E_IR     .G/C3                      : Bulk Density
 NPHI_E_IR     .dec                       : Neutron porosity
 LS_IR         .%                         : Mudlog LIMESTONE
 CLST_IR       .%                         : Mudlog CLAYSTONE
 SH_IR         .%                         : Mudlog SHALE
 SLST_IR       .%                         : Mudlog SILSTONE
 CGL_IR        .%                         : Mudlog CONGLOMERATE
 SS_IR         .%                         : Mudlog SANDSTONE
 COAL_IR       .%                         : Mudlog COAL
 Temp_IR       .F                         : Formation Temperature
 PHIE_IR       .Dec                       : Effective Porosity
 SW_IR         .Dec                       : Effective Water Saturation
 BVW_IR        .Dec                       : Bulk Volume water (Phie x SW)
 VSand_IR      .dec                       : Sand Volume
 VWCL_IR       .Dec                       : Volume wet Clay
 VLime_IR      .dec                       : Limestone Volume
 VDol_IR       .dec                       : Dolomite Volume
 Perm_IR       .md                        : Calculated Permeability
 K_PHI_IR      .                          : K/PHI RATIO
 ResFlag_IR    .                          : Net Reservoir
 PayFlag_IR    .                          : Net Pay
 ResFlagRT_IR  .                          : Net Reservoir Rock Type
 PayFlagRT_IR  .                          : Pay Flag Rock Type
 MUD_WEIGHT_IR .PPG                       : MUD WEIGHT
 Rock_Type_IR  .microns                   : Pore Throat Size - Rock Types
 BADHOLE_IR    .FLAG                      : Bad Hole Indicator
 TVD_IR        .FT                        : True vertical depth
 TVDSS_IR      .FT                        : True vertical depth subsea
~P Interactive Petrophysics parameters
#Name        Value                 Description
#----- --------------------------  -----------
#Logging Run 
 RUN  .     1          : Run Number
 DATE .     28-ABR-80  : Date                      | RUN[0]
 DFT  .     /          : Type of Fluid in Hole     | RUN[1]
~A  DEPTH  CALI_IR  DRHO_E_I~   DT_IR     GR_IR    RD_E_IR   ROP_E_IR  RS_E_IR    SPC_IR  TOTAL_GA~   BS_IR    DT_E_IR  RHOB_E_I~ NPHI_E_I~   LS_IR    CLST_IR    SH_IR    SLST_IR    CGL_IR    SS_IR    COAL_IR   Temp_IR   PHIE_IR    SW_IR     BVW_IR   VSand_IR  VWCL_IR   VLime_IR  VDol_IR   Perm_IR   K_PHI_IR ResFlag_~ PayFlag_~ ResFlagR~ PayFlagR~ MUD_WEIG~ Rock_Typ~ BADHOLE_~   TVD_IR   TVDSS_IR 
# ...
3130.0000    9.1370    0.0065   79.1600   94.4220   74.3070   11.0738   59.7434  -41.6845 -999.0000    8.5000   79.1600    2.4324    0.1907   30.0000    0.0000   70.0000    0.0000    0.0000    0.0000    0.0000  121.3082    0.0880    0.5271    0.0464    0.0000    0.2212    0.6299    0.0609    0.3083    3.5048    1.0000    1.0000    1.0000    1.0000   10.7000    0.2968    0.0000 3129.3582 -2889.3582 
3130.5000    9.1370    0.0116   77.7000   95.5318   53.3990   12.4161   38.9007  -41.2727 -999.0000    8.5000   77.7000    2.4317    0.1838   30.0000    0.0000   70.0000    0.0000    0.0000    0.0000    0.0000  121.3140    0.0895    0.6114    0.0547    0.0000    0.2296    0.6809    0.0000    0.2488    2.7804    1.0000    0.0000    1.0000    0.0000   10.7000    0.2606    0.0000 3129.8576 -2889.8576 
3131.0000    9.1235    0.0287   78.9000   97.9223   36.5620   12.3567   28.9818  -41.2578   22.0740    8.5000   78.9000    2.4309    0.1703   30.0000    0.0000   70.0000    0.0000    0.0000    0.0000    0.0000  121.3198    0.0908    0.7281    0.0661    0.0000    0.2475    0.6616    0.0000    0.1886    2.0757    1.0000    0.0000    1.0000    0.0000   10.7000    0.2210    0.0000 3130.3570 -2890.3570 
3131.5000    9.1034    0.0651   79.9000  102.9807   33.0390   12.2775   30.2926  -41.0450   23.8710    8.5000   79.9000    2.4502    0.1647   30.0000    0.0000   70.0000    0.0000    0.0000    0.0000    0.0000  121.3256    0.0778    0.8927    0.0694    0.0529    0.2856    0.5838    0.0000    0.0594    0.7644    1.0000    0.0000    1.0000    0.0000   10.7000    0.1249    0.0000 3130.8564 -2890.8564 
3132.0000    9.0794    0.0610   77.1530  109.1118   23.2890   12.1983   33.7880  -41.2282   25.2910    8.5000   77.1530    2.4612    0.1714   30.0000    0.0000   70.0000    0.0000    0.0000    0.0000    0.0000  121.3314    0.0669    1.0000    0.0669    0.0000    0.3317    0.6015    0.0000    0.0230    0.3437    1.0000    0.0000    0.0000    0.0000   10.7000    0.0790    0.0000 3131.3559 -2891.3559 
3132.5000    9.0394    0.0254   70.3000  109.6758   18.0120   12.1190   37.7875  -41.4114   26.0060    8.5000   70.3000    2.4900    0.1875   30.0000    0.0000   70.0000    0.0000    0.0000    0.0000    0.0000  121.3372    0.0466    1.0000    0.0466    0.0000    0.3359    0.6174    0.0000    0.0041    0.0874    1.0000    0.0000    0.0000    0.0000   10.7000    0.0359    0.0000 3131.8553 -2891.8553 
3133.0000    8.9994    0.0214   63.3000  102.5592   21.4350   12.0398   41.8778  -41.5955   28.3610    8.5000   63.3000    2.5531    0.1881   30.0000    0.0000   70.0000    0.0000    0.0000    0.0000    0.0000  121.3430    0.0102    1.0000    0.0102    0.0000    0.2824    0.6367    0.0707    0.0000    0.0003    0.0000    0.0000    0.0000    0.0000   10.7000    0.0013    0.0000 3132.3547 -2892.3547 
3133.5000    8.9687    0.0159   58.9000   88.4096   32.4360   11.9606   42.3180  -41.7787   30.4920    8.5000   58.9000    2.5800    0.1525   30.0000    0.0000   70.0000    0.0000    0.0000    0.0000    0.0000  121.3488    0.0052    1.0000    0.0052    0.0000    0.1760    0.7536    0.0652    0.0000    0.0000    0.0000    0.0000    0.0000    0.0000   10.7000    0.0003    0.0000 3132.8541 -2892.8541 
3134.0000    8.9575    0.0138   58.9000   76.6940   39.5330   11.8814   36.3584  -41.7639   32.3980    8.5000   58.9000    2.5870    0.1016   30.0000    0.0000   70.0000    0.0000    0.0000    0.0000    0.0000  121.3546    0.0115    1.0000    0.0115    0.0000    0.0879    0.8970    0.0035    0.0000    0.0004    0.0000    0.0000    0.0000    0.0000   10.7000    0.0017    0.0000 3133.3535 -2893.3535 
3134.5000    8.9551    0.0086   65.4000   76.4523   50.1140   11.8022   29.5747  -41.7270   37.4940    8.5000   65.4000    2.5582    0.0694   30.0000    0.0000   70.0000    0.0000    0.0000    0.0000    0.0000  121.3604    0.0314    1.0000    0.0314    0.1709    0.0861    0.7116    0.0000    0.0006    0.0195    1.0000    0.0000    0.0000    0.0000   10.7000    0.0151    0.0000 3133.8529 -2893.8529 
3135.0000    8.9511    0.0079   71.4000   86.1639   59.5700   11.7230   29.7732  -41.6232   39.9430    8.5000   71.4000    2.4976    0.0685   30.0000    0.0000   70.0000    0.0000    0.0000    0.0000    0.0000  121.3662    0.0609    0.8454    0.0515    0.3120    0.1591    0.4679    0.0000    0.0205    0.3372    1.0000    0.0000    0.0000    0.0000   10.7000    0.0778    0.0000 3134.3523 -2894.3523 
3135.5000    8.9476    0.0095   75.6000  102.6647   30.9110   11.6437   37.4220  -41.5184   38.7660    8.5000   75.6000    2.4525    0.0920   32.0000    0.0000   68.0000    0.0000    0.0000    0.0000    0.0000  121.3720    0.0773    0.9281    0.0717    0.1904    0.2832    0.4491    0.0000    0.0535    0.6918    1.0000    0.0000    1.0000    0.0000   10.7000    0.1180    0.0000 3134.8518 -2894.8518 
3136.0000    8.9441    0.0086   77.5600  117.6906   21.4300   11.5645   61.6880  -41.4146   34.6900    8.5000   77.5600    2.4402    0.1298   34.0000    0.0000   66.0000    0.0000    0.0000    0.0000    0.0000  121.3778    0.0731    1.0000    0.0731    0.0094    0.3962    0.5213    0.0000    0.0353    0.4825    0.0000    0.0000    0.0000    0.0000   10.7000    0.0960    0.0000 3135.3512 -2895.3512 
3136.5000    8.9406    0.0038   76.9000  121.2059  124.4600   11.4853   93.6707  -41.3107   31.1760    8.5000   76.9000    2.4551    0.1671   36.0000    0.0000   64.0000    0.0000    0.0000    0.0000    0.0000  121.3836    0.0541    0.6576    0.0356    0.0000    0.4226    0.5233    0.0000    0.0192    0.3543    0.0000    0.0000    0.0000    0.0000   10.7000    0.0797    0.0000 3135.8506 -2895.8506 
3137.0000    8.9293   -0.0023   73.7000  115.3641  927.3850   11.4061  108.2791  -41.2069   26.2320    8.5000   73.7000    2.4787    0.1785   38.0000    0.0000   62.0000    0.0000    0.0000    0.0000    0.0000  121.3894    0.0417    0.3108    0.0130    0.0000    0.3787    0.5796    0.0000    0.0248    0.5934    0.0000    0.0000    0.0000    0.0000   10.7000    0.1054    0.0000 3136.3500 -2896.3500 
3137.5000    8.9180   -0.0031   69.9000  107.3954 2265.6650   11.3269  100.6628  -41.1021   23.8130    8.5000   69.9000    2.5082    0.1612   40.0000    0.0000   60.0000    0.0000    0.0000    0.0000    0.0000  121.3952    0.0324    0.2550    0.0083    0.0000    0.3188    0.6488    0.0000    0.0110    0.3382    1.0000    1.0000    0.0000    0.0000   10.7000    0.0759    0.0000 3136.8494 -2896.8494 
3138.0000    8.9180    0.0022   66.7000   96.9124 2576.6079   11.2477   84.3275  -40.8522   23.2860    8.5000   66.7000    2.5401    0.1340   42.0000    0.0000   58.0000    0.0000    0.0000    0.0000    0.0000  121.4010    0.0231    0.3343    0.0077    0.0000    0.2399    0.7370    0.0000    0.0012    0.0539    0.0000    0.0000    0.0000    0.0000   10.7000    0.0265    0.0000 3137.3488 -2897.3488 
3138.5000    8.9180    0.0079   63.3000   84.1899 1983.3621   11.1010   72.8659  -40.6384   23.8420    8.5000   63.3000    2.5559    0.0976   44.0000    0.0000   56.0000    0.0000    0.0000    0.0000    0.0000  121.4068    0.0243    0.3621    0.0088    0.0000    0.1443    0.8314    0.0000    0.0014    0.0560    0.0000    0.0000    0.0000    0.0000   10.7000    0.0272    0.0000 3137.8482 -2897.8482 
3139.0000    8.9180    0.0068   62.8000   74.7305  773.7840   11.3481   69.6633  -40.4256   25.4680    8.5000   62.8000    2.5501    0.0647   46.0000    0.0000   54.0000    0.0000    0.0000    0.0000    0.0000  121.4126    0.0343    0.4128    0.0142    0.0000    0.0732    0.8925    0.0000    0.0055    0.1596    1.0000    1.0000    0.0000    0.0000   10.7000    0.0498    0.0000 3138.3476 -2898.3476 
3139.5000    8.9180    0.0076   64.6000   72.4243  239.7480   11.1494   71.7145  -40.1128   27.3880    8.5000   64.6000    2.5238    0.0498   48.0000    0.0000   52.0000    0.0000    0.0000    0.0000    0.0000  121.4184    0.0511    0.5009    0.0256    0.1547    0.0558    0.7383    0.0000    0.0252    0.4926    1.0000    1.0000    0.0000    0.0000   10.7000    0.0957    0.0000 3138.8470 -2898.8470 
