~VERSION INFORMATION
 VERS.                 2.0:   CWLS LOG ASCII STANDARD - VERSION 2.0
 WRAP.                  NO:   SINGLE LINE PER DEPTH STEP
 CREA.                 03/05/2017 12:39:08
#CREATED USING IP VERSION 4.2.2015.61 BY PANESSOR ON 03/05/2017 12:39:08
~WELL INFORMATION
#MNEM.UNIT       DATA                          DESCRIPTION MNEMONIC
#---------      ---------------------------   --------------------------
 STRT    .FT        500.0000                  : START DEPTH
 STOP    .FT        5430.0000                 : STOP DEPTH
 STEP    .FT        0.5000                    : STEP VALUE
 NULL    .      -999.0000                     : NULL VALUE
 DATE    .      03/05/2017                    : LAS file Creation Date
 WELL  .      REPOSO-1            : Well Name
 COMP  .      INTERCOL            : Company
 FLD   .      PITAL               : Field
 STATE .      CESAR               : State
 COUNT .      COLOMBIA            : Country
 API   .      REP00001            : API Number
 UWI   .      100000000366        : Unique Well Identifier (UWI)
 LOC   .      GAUSS ORIGIN BOGOTA : Location
 LATI  .      8.3469500001        : Latitude/Northing
 LONG  .      -73.7031            : Longitude/Easting
 RWS   .      -999                : Def_Rw
 WST   .      -999                : Def_Rwt
 PROV  .                          : Province
 SRVC  .      SCH                 : Contractor
~CURVE INFORMATION
#MNEM                 UNIT       API CODE     Description
#----------     --------------- ----------  --------------
 DEPTH         .FT                        : 
 CALI_IR       .IN                        : Caliper
 DRHO_E_IR     .G/C3                      : Density correction
 DT_IR         .US/F                      : Delta-T Compressional
 GR_IR         .GAPI                      : Gamma Ray
 RD_E_IR       .OHMM                      : Formation Deep Resitivity
 ROP_E_IR      .Ft/h                      : Rate of Penetration
 RS_E_IR       .OHMM                      : Shallow Resistivity
 SPC_IR        .MV                        : Spontaneous Potential
 TOTAL_GAS_IR  .Units                     : Total Gas from Mudlog
 BS_IR         .inch                      : Bit Size
 DT_E_IR       .US/F                      : Delta-T Compressional
 RHOB_E_IR     .G/C3                      : Bulk Density
 NPHI_E_IR     .dec                       : Neutron porosity
 LS_IR         .%                         : Mudlog LIMESTONE
 CLST_IR       .%                         : Mudlog CLAYSTONE
 SH_IR         .%                         : Mudlog SHALE
 SLST_IR       .%                         : Mudlog SILSTONE
 CGL_IR        .%                         : Mudlog CONGLOMERATE
 SS_IR         .%                         : Mudlog SANDSTONE
 COAL_IR       .%                         : Mudlog COAL
 Temp_IR       .F                         : Formation Temperature
 PHIE_IR       .Dec                       : Effective Porosity
 SW_IR         .Dec                       : Effective Water Saturation
 BVW_IR        .Dec                       : Bulk Volume water (Phie x SW)
 VSand_IR      .dec                       : Sand Volume
 VWCL_IR       .Dec                       : Volume wet Clay
 VLime_IR      .dec                       : Limestone Volume
 VDol_IR       .dec                       : Dolomite Volume
 Perm_IR       .md                        : Calculated Permeability
 K_PHI_IR      .                          : K/PHI RATIO
 ResFlag_IR    .                          : Net Reservoir
 PayFlag_IR    .                          : Net Pay
 ResFlagRT_IR  .                          : Net Reservoir Rock Type
 PayFlagRT_IR  .                          : Pay Flag Rock Type
 MUD_WEIGHT_IR .PPG                       : MUD WEIGHT
 Rock_Type_IR  .microns                   : Pore Throat Size - Rock Types
 BADHOLE_IR    .FLAG                      : Bad Hole Indicator
 TVD_IR        .FT                        : True vertical depth
 TVDSS_IR      .FT                        : True vertical depth subsea
~P Interactive Petrophysics parameters
#Name        Value                 Description
#----- --------------------------  -----------
#Logging Run 
 RUN  .     1          : Run Number
 DATE .     28-ABR-80  : Date                      | RUN[0]
 DFT  .     /          : Type of Fluid in Hole     | RUN[1]
~A  DEPTH  CALI_IR  DRHO_E_I~   DT_IR     GR_IR    RD_E_IR   ROP_E_IR  RS_E_IR    SPC_IR  TOTAL_GA~   BS_IR    DT_E_IR  RHOB_E_I~ NPHI_E_I~   LS_IR    CLST_IR    SH_IR    SLST_IR    CGL_IR    SS_IR    COAL_IR   Temp_IR   PHIE_IR    SW_IR     BVW_IR   VSand_IR  VWCL_IR   VLime_IR  VDol_IR   Perm_IR   K_PHI_IR ResFlag_~ PayFlag_~ ResFlagR~ PayFlagR~ MUD_WEIG~ Rock_Typ~ BADHOLE_~   TVD_IR   TVDSS_IR 
# ...
2810.0000    9.3398    0.0806   98.3000  161.2683   20.4660   91.0000   22.4033  -31.6861   81.4050    8.5000   98.3000    2.3706    0.2536    0.0000    0.0000  100.0000    0.0000    0.0000    0.0000    0.0000  117.5962    0.0551    1.0000    0.0551    0.0370    0.7238    0.1841    0.0000    0.0090    0.1641    0.0000    0.0000    0.0000    0.0000   10.7000    0.0516    0.0000 2809.6275 -2569.6275 
2810.5000    9.3784    0.0706   98.3000  159.7040   19.1890   89.6667   21.1930  -31.9056   81.2680    8.5000   98.3000    2.3633    0.2495    0.0000    0.0000  100.0000    0.0000    0.0000    0.0000    0.0000  117.6020    0.0647    1.0000    0.0647    0.0460    0.7121    0.1772    0.0000    0.0197    0.3036    0.0000    0.0000    0.0000    0.0000   10.7000    0.0735    0.0000 2810.1271 -2570.1271 
2811.0000    9.4086    0.0165   97.7180  153.5549   17.3400   89.7235   19.9930  -32.0690   80.3140    8.5000   97.7180    2.3326    0.2550    0.0000    0.0000  100.0000    0.0000    0.0000    0.0000    0.0000  117.6078    0.1094    0.8937    0.0977    0.0076    0.6658    0.2172    0.0000    0.3049    2.7880    0.0000    0.0000    0.0000    0.0000   10.7000    0.2632    0.0000 2810.6267 -2570.6267 
2811.5000    9.4144    0.0246   96.8090  147.5017   15.8880   89.8074   18.9853  -32.2214   80.3000    8.5000   96.8090    2.3809    0.2599    0.0000    0.0000  100.0000    0.0000    0.0000    0.0000    0.0000  117.6136    0.0855    1.0000    0.0855    0.0421    0.6203    0.2453    0.0067    0.0747    0.8738    0.0000    0.0000    0.0000    0.0000   10.7000    0.1352    0.0000 2811.1263 -2571.1263 
2812.0000    9.3944    0.0565   95.9000  144.0225   14.8580   89.8914   18.3894  -32.4628   80.0970    8.5000   95.9000    2.4404    0.2521    0.0000    0.0000  100.0000    0.0000    0.0000    0.0000    0.0000  117.6194    0.0481    1.0000    0.0481    0.1737    0.5942    0.0000    0.1840    0.0047    0.0981    0.0000    0.0000    0.0000    0.0000   10.7000    0.0384    0.0000 2811.6259 -2571.6259 
2812.5000    9.3792    0.0717   95.3000  141.5274   13.9000   89.9753   18.1581  -32.5823   80.3720    8.5000   95.3000    2.4535    0.2438    0.0000    0.0000  100.0000    0.0000    0.0000    0.0000    0.0000  117.6252    0.0415    1.0000    0.0415    0.1957    0.5754    0.0000    0.1874    0.0023    0.0559    0.0000    0.0000    0.0000    0.0000   10.7000    0.0278    0.0000 2812.1255 -2572.1255 
2813.0000    9.4177    0.0444   95.5000  139.3987   13.5850   90.0593   18.0805  -32.6027   80.3720    8.5000   95.5000    2.4118    0.2487    0.0000    0.0000  100.0000    0.0000    0.0000    0.0000    0.0000  117.6310    0.0720    1.0000    0.0720    0.1251    0.5594    0.1700    0.0734    0.0328    0.4555    0.0000    0.0000    0.0000    0.0000   10.7000    0.0929    0.0000 2812.6251 -2572.6251 
2813.5000    9.4360    0.0262   95.9000  137.2700   13.2750   90.1432   18.0236  -32.6231   80.3400    8.5000   95.9000    2.3882    0.2565    0.0000    0.0000  100.0000    0.0000    0.0000    0.0000    0.0000  117.6368    0.0902    1.0000    0.0902    0.0829    0.5434    0.2472    0.0364    0.0965    1.0704    0.0000    0.0000    0.0000    0.0000   10.7000    0.1520    0.0000 2813.1247 -2573.1247 
2814.0000    9.4360    0.0177   95.7000  135.1414   13.2750   90.2272   17.8228  -32.6435   80.7370    8.5000   95.7000    2.3900    0.2633    0.0000    0.0000  100.0000    0.0000    0.0000    0.0000    0.0000  117.6426    0.0910    1.0000    0.0910    0.0812    0.5274    0.2185    0.0820    0.1006    1.1062    0.0000    0.0000    0.0000    0.0000   10.7000    0.1549    0.0000 2813.6243 -2573.6243 
2814.5000    9.4342    0.0250   94.8000  133.0487   14.2390   90.4400   17.4985  -32.4660   80.7070    8.5000   94.8000    2.3926    0.2606    0.0000    0.0000  100.0000    0.0000    0.0000    0.0000    0.0000  117.6484    0.0912    1.0000    0.0912    0.0723    0.5116    0.2417    0.0832    0.1017    1.1155    0.0000    0.0000    0.0000    0.0000   10.7000    0.1556    0.0000 2814.1239 -2574.1239 
2815.0000    9.4142    0.0246   93.6000  131.3306   15.5250   89.5014   16.7689  -32.4864   80.7010    8.5000   93.6000    2.4190    0.2510    0.0000    0.0000  100.0000    0.0000    0.0000    0.0000    0.0000  117.6542    0.0747    1.0000    0.0747    0.1293    0.4987    0.1439    0.1534    0.0392    0.5241    0.0000    0.0000    0.0000    0.0000   10.7000    0.1007    0.0000 2814.6235 -2574.6235 
2815.5000    9.3942    0.0203   93.3780  129.7704   16.1080   85.1471   15.5782  -32.5998   80.7010    8.5000   93.3780    2.4106    0.2419    0.0000    0.0000  100.0000    0.0000    0.0000    0.0000    0.0000  117.6600    0.0820    1.0000    0.0820    0.1215    0.4870    0.2376    0.0719    0.0610    0.7442    0.0000    0.0000    0.0000    0.0000   10.7000    0.1233    0.0000 2815.1231 -2575.1231 
2816.0000    9.3797    0.0136   93.4150  128.6105   16.5590   84.9533   15.1663  -32.7252   80.7010    8.5000   93.4150    2.4264    0.2303    0.0000    0.0000  100.0000    0.0000    0.0000    0.0000    0.0000  117.6658    0.0722    1.0000    0.0722    0.2045    0.4783    0.1533    0.0916    0.0333    0.4608    0.0000    0.0000    0.0000    0.0000   10.7000    0.0935    0.0000 2815.6227 -2575.6227 
2816.5000    9.4217    0.0191   93.6910  127.9639   16.7120   85.1665   16.0063  -32.7457   80.7050    8.5000   93.6910    2.4288    0.2347    0.0000    0.0000  100.0000    0.0000    0.0000    0.0000    0.0000  117.6716    0.0712    1.0000    0.0712    0.2220    0.4734    0.0976    0.1357    0.0311    0.4363    0.0000    0.0000    0.0000    0.0000   10.7000    0.0906    0.0000 2816.1223 -2576.1223 
2817.0000    9.4779    0.0191   93.9670  128.9940   16.4070   85.2373   17.2972  -32.9641   80.7220    8.5000   93.9670    2.4154    0.2404    0.0000    0.0000  100.0000    0.0000    0.0000    0.0000    0.0000  117.6774    0.0794    1.0000    0.0794    0.1711    0.4812    0.1697    0.0986    0.0524    0.6600    0.0000    0.0000    0.0000    0.0000   10.7000    0.1150    0.0000 2816.6219 -2576.6219 
2817.5000    9.4980    0.0115   94.1000  132.0302   16.4070   85.3333   18.4993  -33.0845   80.2520    8.5000   94.1000    2.3988    0.2381    0.0000    0.0000  100.0000    0.0000    0.0000    0.0000    0.0000  117.6832    0.0879    1.0000    0.0879    0.1306    0.5040    0.2449    0.0327    0.0853    0.9706    0.0000    0.0000    0.0000    0.0000   10.7000    0.1437    0.0000 2817.1215 -2577.1215 
2818.0000    9.5180    0.0198   94.3000  133.2260   16.7890   85.4293   19.1095  -33.2039   79.6540    8.5000   94.3000    2.3905    0.2395    0.0000    0.0000  100.0000    0.0000    0.0000    0.0000    0.0000  117.6890    0.0924    1.0000    0.0924    0.1143    0.5130    0.2627    0.0176    0.1087    1.1757    0.0000    0.0000    0.0000    0.0000   10.7000    0.1604    0.0000 2817.6211 -2577.6211 
2818.5000    9.5329    0.0525   94.1000  131.0760   16.9450   85.5253   19.0046  -33.2243   78.9250    8.5000   94.1000    2.4128    0.2459    0.0000    0.0000  100.0000    0.0000    0.0000    0.0000    0.0000  117.6948    0.0792    1.0000    0.0792    0.1418    0.4968    0.1788    0.1034    0.0518    0.6540    0.0000    0.0000    0.0000    0.0000   10.7000    0.1144    0.0000 2818.1207 -2578.1207 
2819.0000    9.4998    0.0360   93.3000  131.3326   16.6730   85.6213   18.3202  -33.2448   77.3740    8.5000   93.3000    2.4077    0.2516    0.0000    0.0000  100.0000    0.0000    0.0000    0.0000    0.0000  117.7006    0.0825    1.0000    0.0825    0.0813    0.4987    0.2381    0.0994    0.0628    0.7618    0.0000    0.0000    0.0000    0.0000   10.7000    0.1249    0.0000 2818.6203 -2578.6203 
2819.5000    9.4397    0.0104   92.9000  133.8742   15.2720   85.6667   17.3827  -33.2652   73.6210    8.5000   92.9000    2.3801    0.2535    0.0000    0.0000  100.0000    0.0000    0.0000    0.0000    0.0000  117.7064    0.0989    1.0000    0.0989    0.0000    0.5179    0.3832    0.0000    0.1506    1.5222    0.0000    0.0000    0.0000    0.0000   10.7000    0.1862    0.0000 2819.1199 -2579.1199 
