~Version Information Section
 VERS.      2.0         :CWLS LOG ASCII STANDARD -VERSION 2.0
 WRAP.      No          :SINGLE LINE PER DEPTH STEP
~Well Information Section
#MNEM.UNIT                      VALUE/NAME                 DESCRIPTION
#----.----     ----------------------------------   --------------------
 STRT    .ft           4655.0000                         :Start Depth
 STOP    .ft           6737.0000                         :Stop  Depth
 STEP    .ft              0.5000                         :Step  Depth
 NULL    .             -999.2500                         :Null value
 COMP    .          LEWIS ENERGY                         :Company Name
 WELL    .          Toposi 2H ST                         :Well Name
 PATH    .                                               :Path Name
 FLD     .          TOPOSI                               :Field Name
 LOC     .          TOPOSI                               :Location
 PROV    .          Unused                               :Province
 SRVC    .          BAKER HUGHES INTEQ                   :Service Company Name
 DATE    .          09/04/2015-14                        :28:47 SA Pacific Standard Time: System Date
 UWI     .                                               :Unique Well ID
 TIMEZONE.Hrs            -5.0000                         :Time zone difference from GMT
 PDAT    .          M.S.L                                :PERMANET DATUM
 EDF     .ft            278.6600                         :ELEVATION OF DRILL FLOOR
 EGL     .ft            256.7300                         :ELEVATION OF GROUD LEVEL
 LMF     .          R.T                                  :LOG MEASURED FROM
 APD     .          ft                  21.93            :ABOVE PERMANET DATUM
 DMF     .          DRILL FLOOR                          :DRILLING MEASURED FROM
 DEPIN   .          4685                                 :DEPTH IN
 DEPOU   .          6737                                 :DEPTH OUT
 DCS     .          MAGNA SIRGAS - BOGOTA                :DATUM COORDINATES SYSTEM
 SLAT    .          08° 19' 25.746'' N                   :SUSFACE LATITUDE
 SLON    .          73° 39' 55.448'' W                   :SURFACE LONGITUDE
 SNOR    .          1412256.100 m                        :SURFACE NORTHING
 SEAS    .          1045395.680 m                        :SURFACE EASTING
 BLAT    .          08° 19' 54.030'' N                   :BOTTOM LATITUDE
 BLON    .          73° 39' 45.848'' W                   :BOTTOM LONGITUDE
 BNOR    .          1413125.37 m                         :BOTTOM NORTHING
 BEAS    .          1045688.52 m                         :BOTTOM EASTING
~Curve Information Section
#MNEM      .UNIT         CURVE DESCRIPTION
#----      .----         -------------------------
 DEPTH     .ft           :1 Depth Hole
 TVD       .ft           :2 True Vertical Depth
 GRIM      .unitless     :3 Gamma Ray Data Point Indicator
 GR1AFM    .API          :4 Gamma Ray 1 - Apparent Filtered
 RPCHM     .ohm.m        :5 Resistivity Phase - Corrected - 2MHz
 RPCLM     .ohm.m        :6 Resistivity Phase - Corrected - 400kHz
 RPHIM     .unitless     :7 Resistivity Phase - Data Point Indicator - 2MHz
 TCDM      .degF         :8 Downhole Temperature
 RPTHM     .min          :9 Resistivity Time Since Drilled
 SRSP_VSECT.ft           :10 Planar Vertical Section
 SRSP_NS   .ft           :11 Position North
 SRSP_EW   .ft           :12 Position East
 LAGGAS    .unit         :13 Total Gas - Lagged
~PARAMETER INFORMATION
#MNEM.UNIT                  VALUE                   DESCRIPTION
#----.----     ----------------------------------   --------------------
  DFT.         BRINE                                :Drilling Fluid Type
  DFD.LB/G           9.3000                         :Drilling Fluid Density
  DFV.S             17.0000                         :Drilling Fluid Viscosity
  MSS.         ACTIVE PIT                           :Mud Sample Source
  RMS.OHMM           0.0600                         :Resistivity Of Mud Sample
  MST.DEGF          69.7000                         :Mud Sample Temperature
  RMB.OHMM           0.0300                         :Mud Resistivity At Bht
  BHT.DEGF         144.6000                         :Bottom Hole Temperature
  TSC.         01-04-2015 @ 15		            :Time Since Circulation

  DFT.         BRINE                                :Drilling Fluid Type
  DFD.LB/G           9.6000                         :Drilling Fluid Density
  DFV.S             18.0000                         :Drilling Fluid Viscosity
  MSS.         ACTIVE PIT                           :Mud Sample Source
  RMS.OHMM           0.0600                         :Resistivity Of Mud Sample
  MST.DEGF          71.0000                         :Mud Sample Temperature
  RMB.OHMM           0.8600                         :Mud Resistivity At Bht
  BHT.DEGF         136.0000                         :Bottom Hole Temperature
  TSC.         05-04-2015 @ 11		            :Time Since Circulation
  
  MRT.DEGF          147.300                         :Maximum Recorded Temperature

~Other Information Section
#MUD PROPERTIES
  - DENSITY =  9.3 LB/G
  - PLASTIC VISCOSITY = 17.0 CP
  - CHLORIDES = 94000 MG/LT
  - YIELD POINT =  11 LBF/100 FT^2

  - DENSITY =  9.6 LB/G
  - PLASTIC VISCOSITY = 18.0 CP
  - CHLORIDES = 97000 MG/LT
  - YIELD POINT =  10 LBF/100 FT^2

~Other Information Section
Disclaimer
Any opinion and / or recommendation expressed orally or written herein, has been prepared
carefully and may be used if the user so elects, however, no representative or warranty is
made by ourselves or our agents as to the correctness or completeness, and no liability is
assumed for any damages resulting from use of the same.  Baker Hughes's liabilities and obligations
shall be governed by Baker Hughes's Standard Terms and Conditions.
Creator
Export
#----------------------------------------------------------------------
#
# Curve name cross reference:  XREF 'LAS Name' 'XTF Short Name' 'XTF Structured Name'
#
XREF DEPTH DEPTH DEPTH
XREF TVD TVD GEN.TVD
XREF GRIM GRIM GAM.GRIM
XREF GR1AFM GR1AFM FGAM.GR1AFM
XREF RPCHM RPCHM CRES.RPCHM
XREF RPCLM RPCLM CRES.RPCLM
XREF RPHIM RPHIM CRES.RPHIM
XREF TCDM TCDM GEN.TCDM
XREF RPTHM RPTHM CRES.RPTHM
XREF SRSP_VSECT SRSPVSEC SURVEY_STATION.SRSP_VSECT
XREF SRSP_NS SRSPNS SURVEY_STATION.SRSP_NS
XREF SRSP_EW SRSPEW SURVEY_STATION.SRSP_EW
XREF LAGGAS LAGGAS LAGMUD.LAGGAS

~A  DEPTH     TVD      GRIM     GR1AFM     RPCHM      RPCLM     RPHIM       TCDM     RPTHM   SRSP_VSECT  SRSP_NS    SRSP_EW   LAGGAS  
# ...
 5186.0000 4014.9700    1.0000   78.1000   598.6210 44519.9730    1.0000  135.0200    46.8000 1458.48258 1381.92968 485.95194   20.0000
 5186.5000 4014.9700    1.0000   74.9000   589.3530 44519.9730    1.0000  135.0600    47.0000 1458.98253 1382.40323 486.11231 -999.2500
 5187.0000 4014.9700    1.0000   69.9000   617.0790 44519.9730    1.0000  135.1000    47.1000 1459.48247 1382.87677 486.27269   20.0000
 5187.5000 4014.9700    1.0000   67.7000   618.7610 44519.9730    1.0000  135.11429   47.3000 1459.98242 1383.35032 486.43306 -999.2500
 5188.0000 4014.9700    1.0000   70.4000   578.5610 44519.9730    1.0000  135.12857   47.5000 1460.48237 1383.82387 486.59344   13.0000
 5188.5000 4014.9800    1.0000   72.3000   594.8850 44519.9730    1.0000  135.14286   47.5000 1460.98231 1384.29742 486.75382 -999.2500
 5189.0000 4014.9800    1.0000   72.5000   491.2170 44519.9730    1.0000  135.15714   47.6000 1461.48226 1384.77097 486.91419   15.0000
 5189.5000 4014.9800    1.0000   74.1000   607.5700 44519.9730    1.0000  135.17143   47.9000 1461.9822  1385.24452 487.07457 -999.2500
 5190.0000 4014.9800    1.0000   73.3000  2036.9960 44519.9730    1.0000  135.18571   48.0000 1462.48215 1385.71806 487.23495   11.0000
 5190.5000 4014.9800    1.0000   69.2000   282.9560 16356.4150    1.0000  135.2000    48.0000 1462.9821  1386.19161 487.39532 -999.2500
 5191.0000 4014.9800    1.0000   71.6000   382.0340 30243.7390    1.0000  135.21429   48.0000 1463.48204 1386.66516 487.5557    16.0000
 5191.5000 4014.9800    1.0000   72.1000   569.9410 44519.9730    1.0000  135.22857   48.2000 1463.98199 1387.13871 487.71608 -999.2500
 5192.0000 4014.9800    1.0000   74.5000   616.5750 44519.9730    1.0000  135.24286   48.5000 1464.48194 1387.61226 487.87645   16.0000
 5192.5000 4014.9800    1.0000   76.3000   762.9500 44519.9730    1.0000  135.25714   48.8000 1464.98188 1388.08581 488.03683 -999.2500
 5193.0000 4014.9800    1.0000   78.7000   742.2700 44519.9730    1.0000  135.27143   48.9000 1465.48183 1388.55935 488.1972    15.0000
 5193.5000 4014.9800    1.0000   76.1000   666.4710 44519.9730    1.0000  135.28571   49.1000 1465.98177 1389.0329  488.35758 -999.2500
 5194.0000 4014.9800    1.0000   68.8000   652.5460 44519.9730    1.0000  135.3000    49.1000 1466.48172 1389.50645 488.51796   12.0000
 5194.5000 4014.9800    1.0000   65.2000   679.7160 44519.9730    1.0000  135.3400    49.3000 1466.98167 1389.9800  488.67833 -999.2500
 5195.0000 4014.9900    1.0000   65.8000   726.5340 44519.9730    1.0000  135.3800    50.4000 1467.48161 1390.45355 488.83871   14.0000
 5195.5000 4014.9900    1.0000   63.2000   682.5930 44519.9730    1.0000  135.4200    50.3000 1467.98156 1390.9271  488.99909 -999.2500
 5196.0000 4014.9900    1.0000   62.2000   749.7790 44519.9730    1.0000  135.4600    50.3000 1468.48151 1391.40065 489.15946    7.0000
 5196.5000 4014.9900    1.0000   60.0000   700.4030 44519.9730    1.0000  135.5000    50.2000 1468.98145 1391.87419 489.31984 -999.2500
 5197.0000 4014.9900    1.0000   53.1000   689.6760 44519.9730    1.0000  135.51429   50.7000 1469.4814  1392.34774 489.48022    8.0000
 5197.5000 4014.9900    1.0000   50.2000   695.7530 44519.9730    1.0000  135.52857   50.8000 1469.98134 1392.82129 489.64059 -999.2500
 5198.0000 4014.9900    1.0000   48.8000   694.0520 44519.9730    1.0000  135.54286   50.9000 1470.48129 1393.29484 489.80097    5.0000
 5198.5000 4014.9900    1.0000   45.4000   685.5340 44519.9730    1.0000  135.55714   51.0000 1470.98124 1393.76839 489.96134 -999.2500
 5199.0000 4014.9900    1.0000   42.3000   752.1490 44519.9730    1.0000  135.57143   51.5000 1471.48118 1394.24194 490.12172    3.0000
 5199.5000 4014.9900    1.0000   46.1000   772.8650 44519.9730    1.0000  135.58571   51.8000 1471.98113 1394.71548 490.2821  -999.2500
 5200.0000 4015.0000    1.0000   46.0000   721.7700 44519.9730    1.0000  135.6000    52.1000 1472.48108 1395.18903 490.44247    4.0000
 5200.5000 4015.0000    1.0000   41.3000   763.1110 44519.9730    1.0000  135.62857   52.3000 1472.98102 1395.66258 490.60285 -999.2500
 5201.0000 4015.0000    1.0000   38.6000   712.9980 44519.9730    1.0000  135.65714   52.5000 1473.48097 1396.13613 490.76323    1.0000
 5201.5000 4015.0000    1.0000   37.4000   666.1790 44519.9730    1.0000  135.68571   52.7000 1473.98091 1396.60968 490.9236  -999.2500
 5202.0000 4015.0000    1.0000   35.4000   738.8480 44519.9730    1.0000  135.71429   53.2000 1474.48086 1397.08323 491.08398    6.0000
 5202.5000 4015.0000    1.0000   30.9000   737.7840 44519.9730    1.0000  135.74286   53.4000 1474.98081 1397.55677 491.24435 -999.2500
 5203.0000 4015.0100    1.0000   29.5000   794.5090 44519.9730    1.0000  135.77143   53.6000 1475.48075 1398.03032 491.40473    7.0000
 5203.5000 4015.0100    1.0000   27.8000  1150.0990 44519.9730    1.0000  135.8000    53.8000 1475.9807  1398.50387 491.56511 -999.2500
 5204.0000 4015.0100    1.0000   26.4000   601.7190 44519.9730    1.0000  135.8500    54.0000 1476.48065 1398.97742 491.72548   15.0000
 5204.5000 4015.0100    1.0000   26.4000   681.8970 44519.9730    1.0000  135.9000    51.0000 1476.98059 1399.45097 491.88586 -999.2500
 5205.0000 4015.0100    1.0000   29.1000   753.1460 44519.9730    1.0000  135.9500    50.2000 1477.48054 1399.92452 492.04624   11.0000
 5205.5000 4015.0100    1.0000   32.0000   708.2450 44519.9730    1.0000  136.0000    50.4000 1477.98048 1400.39806 492.20661 -999.2500
 5206.0000 4015.0100    1.0000   31.3000   751.1730 44519.9730    1.0000  136.0000    50.3000 1478.48043 1400.87161 492.36699   14.0000
 5206.5000 4015.0200    1.0000   30.4000   709.4530 44519.9730    1.0000  136.0000    50.1000 1478.98038 1401.34516 492.52737 -999.2500
 5207.0000 4015.0200    1.0000   31.2000   749.2900 44519.9730    1.0000  136.0000    49.9000 1479.48032 1401.81871 492.68774   12.0000
 5207.5000 4015.0200    1.0000   31.5000   719.4440 44519.9730    1.0000  136.0000    49.9000 1479.98027 1402.29226 492.84812 -999.2500
 5208.0000 4015.0200    1.0000   31.0000   747.2580 44519.9730    1.0000  136.0000    50.0000 1480.48022 1402.76581 493.00849   12.0000
 5208.5000 4015.0200    1.0000   32.6000   775.9110 44519.9730    2.0000  136.01667   49.9000 1480.98016 1403.23935 493.16887 -999.2500
 5209.0000 4015.0300    1.0000   33.5000   487.8970 44519.9730    1.0000  136.03333   50.0000 1481.48011 1403.7129  493.32925   17.0000
 5209.5000 4015.0300    1.0000   32.3000   665.3220 44519.9730    1.0000  136.0500    50.1000 1481.98005 1404.18645 493.48962 -999.2500
 5210.0000 4015.0300    1.0000   31.5000   680.2470 44519.9730    1.0000  136.06667   50.2000 1482.4800  1404.6600  493.6500    17.0000
 5210.5000 4015.0300    1.0000   30.5000   683.2550 44519.9730    1.0000  136.08333   50.1000 1482.9800  1405.13447 493.80774 -999.2500
 5211.0000 4015.0300    1.0000   31.4000   788.5160 44519.9730    1.0000  136.1000    49.8000 1483.4800  1405.60895 493.96547   17.0000
 5211.5000 4015.0400    1.0000   32.8000   747.1340 44519.9730    1.0000  136.1000    49.8000 1483.9800  1406.08342 494.12321 -999.2500
 5212.0000 4015.0400    1.0000   34.4000   753.1200 44519.9730    1.0000  136.1000    49.8000 1484.4800  1406.55789 494.28095    8.0000
 5212.5000 -999.2500    1.0000   36.1000   715.1460 44519.9730    1.0000  136.1000    49.9000 1484.9800  1407.03237 494.43868 -999.2500
 5213.0000 4015.0400    1.0000   37.5000   710.0110 44519.9730    1.0000  136.1000    50.1000 1485.4800  1407.50684 494.59642    7.0000
 5213.5000 4015.0400    1.0000   40.9000   638.1550 44519.9730    1.0000  136.1250    50.1000 1485.9800  1407.98132 494.75416 -999.2500
 5214.0000 4015.0400    1.0000   41.1000   798.9910 44519.9730    1.0000  136.1500    49.9000 1486.4800  1408.45579 494.91189    8.0000
 5214.5000 4015.0500    1.0000   48.0000   685.8890 44519.9730    1.0000  136.1750    49.7000 1486.9800  1408.93026 495.06963 -999.2500
 5215.0000 4015.0500    1.0000   52.6000   786.3470 44519.9730    1.0000  136.2000    49.7000 1487.4800  1409.40474 495.22737   14.0000
