~Version Information Section
 VERS.      2.0         :CWLS LOG ASCII STANDARD -VERSION 2.0
 WRAP.      No          :SINGLE LINE PER DEPTH STEP
~Well Information Section
#MNEM.UNIT                      VALUE/NAME                 DESCRIPTION
#----.----     ----------------------------------   --------------------
 STRT    .ft           4655.0000                         :Start Depth
 STOP    .ft           6737.0000                         :Stop  Depth
 STEP    .ft              0.5000                         :Step  Depth
 NULL    .             -999.2500                         :Null value
 COMP    .          LEWIS ENERGY                         :Company Name
 WELL    .          Toposi 2H ST                         :Well Name
 PATH    .                                               :Path Name
 FLD     .          TOPOSI                               :Field Name
 LOC     .          TOPOSI                               :Location
 PROV    .          Unused                               :Province
 SRVC    .          BAKER HUGHES INTEQ                   :Service Company Name
 DATE    .          09/04/2015-14                        :28:47 SA Pacific Standard Time: System Date
 UWI     .                                               :Unique Well ID
 TIMEZONE.Hrs            -5.0000                         :Time zone difference from GMT
 PDAT    .          M.S.L                                :PERMANET DATUM
 EDF     .ft            278.6600                         :ELEVATION OF DRILL FLOOR
 EGL     .ft            256.7300                         :ELEVATION OF GROUD LEVEL
 LMF     .          R.T                                  :LOG MEASURED FROM
 APD     .          ft                  21.93            :ABOVE PERMANET DATUM
 DMF     .          DRILL FLOOR                          :DRILLING MEASURED FROM
 DEPIN   .          4685                                 :DEPTH IN
 DEPOU   .          6737                                 :DEPTH OUT
 DCS     .          MAGNA SIRGAS - BOGOTA                :DATUM COORDINATES SYSTEM
 SLAT    .          08° 19' 25.746'' N                   :SUSFACE LATITUDE
 SLON    .          73° 39' 55.448'' W                   :SURFACE LONGITUDE
 SNOR    .          1412256.100 m                        :SURFACE NORTHING
 SEAS    .          1045395.680 m                        :SURFACE EASTING
 BLAT    .          08° 19' 54.030'' N                   :BOTTOM LATITUDE
 BLON    .          73° 39' 45.848'' W                   :BOTTOM LONGITUDE
 BNOR    .          1413125.37 m                         :BOTTOM NORTHING
 BEAS    .          1045688.52 m                         :BOTTOM EASTING
~Curve Information Section
#MNEM      .UNIT         CURVE DESCRIPTION
#----      .----         -------------------------
 DEPTH     .ft           :1 Depth Hole
 TVD       .ft           :2 True Vertical Depth
 GRIM      .unitless     :3 Gamma Ray Data Point Indicator
 GR1AFM    .API          :4 Gamma Ray 1 - Apparent Filtered
 RPCHM     .ohm.m        :5 Resistivity Phase - Corrected - 2MHz
 RPCLM     .ohm.m        :6 Resistivity Phase - Corrected - 400kHz
 RPHIM     .unitless     :7 Resistivity Phase - Data Point Indicator - 2MHz
 TCDM      .degF         :8 Downhole Temperature
 RPTHM     .min          :9 Resistivity Time Since Drilled
 SRSP_VSECT.ft           :10 Planar Vertical Section
 SRSP_NS   .ft           :11 Position North
 SRSP_EW   .ft           :12 Position East
 LAGGAS    .unit         :13 Total Gas - Lagged
~PARAMETER INFORMATION
#MNEM.UNIT                  VALUE                   DESCRIPTION
#----.----     ----------------------------------   --------------------
  DFT.         BRINE                                :Drilling Fluid Type
  DFD.LB/G           9.3000                         :Drilling Fluid Density
  DFV.S             17.0000                         :Drilling Fluid Viscosity
  MSS.         ACTIVE PIT                           :Mud Sample Source
  RMS.OHMM           0.0600                         :Resistivity Of Mud Sample
  MST.DEGF          69.7000                         :Mud Sample Temperature
  RMB.OHMM           0.0300                         :Mud Resistivity At Bht
  BHT.DEGF         144.6000                         :Bottom Hole Temperature
  TSC.         01-04-2015 @ 15		            :Time Since Circulation

  DFT.         BRINE                                :Drilling Fluid Type
  DFD.LB/G           9.6000                         :Drilling Fluid Density
  DFV.S             18.0000                         :Drilling Fluid Viscosity
  MSS.         ACTIVE PIT                           :Mud Sample Source
  RMS.OHMM           0.0600                         :Resistivity Of Mud Sample
  MST.DEGF          71.0000                         :Mud Sample Temperature
  RMB.OHMM           0.8600                         :Mud Resistivity At Bht
  BHT.DEGF         136.0000                         :Bottom Hole Temperature
  TSC.         05-04-2015 @ 11		            :Time Since Circulation
  
  MRT.DEGF          147.300                         :Maximum Recorded Temperature

~Other Information Section
#MUD PROPERTIES
  - DENSITY =  9.3 LB/G
  - PLASTIC VISCOSITY = 17.0 CP
  - CHLORIDES = 94000 MG/LT
  - YIELD POINT =  11 LBF/100 FT^2

  - DENSITY =  9.6 LB/G
  - PLASTIC VISCOSITY = 18.0 CP
  - CHLORIDES = 97000 MG/LT
  - YIELD POINT =  10 LBF/100 FT^2

~Other Information Section
Disclaimer
Any opinion and / or recommendation expressed orally or written herein, has been prepared
carefully and may be used if the user so elects, however, no representative or warranty is
made by ourselves or our agents as to the correctness or completeness, and no liability is
assumed for any damages resulting from use of the same.  Baker Hughes's liabilities and obligations
shall be governed by Baker Hughes's Standard Terms and Conditions.
Creator
Export
#----------------------------------------------------------------------
#
# Curve name cross reference:  XREF 'LAS Name' 'XTF Short Name' 'XTF Structured Name'
#
XREF DEPTH DEPTH DEPTH
XREF TVD TVD GEN.TVD
XREF GRIM GRIM GAM.GRIM
XREF GR1AFM GR1AFM FGAM.GR1AFM
XREF RPCHM RPCHM CRES.RPCHM
XREF RPCLM RPCLM CRES.RPCLM
XREF RPHIM RPHIM CRES.RPHIM
XREF TCDM TCDM GEN.TCDM
XREF RPTHM RPTHM CRES.RPTHM
XREF SRSP_VSECT SRSPVSEC SURVEY_STATION.SRSP_VSECT
XREF SRSP_NS SRSPNS SURVEY_STATION.SRSP_NS
XREF SRSP_EW SRSPEW SURVEY_STATION.SRSP_EW
XREF LAGGAS LAGGAS LAGMUD.LAGGAS

~A  DEPTH     TVD      GRIM     GR1AFM     RPCHM      RPCLM     RPHIM       TCDM     RPTHM   SRSP_VSECT  SRSP_NS    SRSP_EW   LAGGAS  
# ...
 6425.0000 4007.2400    1.0000   28.2000   401.8560 25352.4240    1.0000  145.8600    49.2000 2697.40189 2556.48421 880.11705    6.0000
 6425.5000 4007.2300    1.0000   29.2000   415.7530 25540.5590    1.0000  145.8800    49.3000 2697.90184 2556.95632 880.28158 -999.2500
 6426.0000 4007.2200    1.0000   30.5000   395.3380 25701.3050    1.0000  145.9000    49.6000 2698.40179 2557.42842 880.44611    5.0000
 6426.5000 4007.2200    1.0000   29.4000   407.7820 31344.5660    1.0000  145.9400    49.7000 2698.90174 2557.90053 880.61063 -999.2500
 6427.0000 4007.2100    1.0000   26.7000   432.9570 22840.2210    1.0000  145.9800    49.6000 2699.40168 2558.37263 880.77516    4.0000
 6427.5000 4007.2000    1.0000   26.5000   424.8970 29117.4720    1.0000  146.0200    49.4000 2699.90163 2558.84474 880.93968 -999.2500
 6428.0000 4007.1900    1.0000   27.5000   358.8330 26416.0950    1.0000  146.0600    49.2000 2700.40158 2559.31684 881.10421    6.0000
 6428.5000 4007.1900    1.0000   26.9000   379.3190 39198.6490    1.0000  146.1000    48.9000 2700.90153 2559.78895 881.26874 -999.2500
 6429.0000 4007.1800    1.0000   27.2000   452.8830 32386.2180    1.0000  146.1200    48.6000 2701.40147 2560.26105 881.43326    6.0000
 6429.5000 4007.1700    1.0000   28.9000   416.6560 25510.6420    1.0000  146.1400    48.6000 2701.90142 2560.73316 881.59779 -999.2500
 6430.0000 4007.1600    1.0000   30.6000   432.8520 44519.9730    1.0000  146.1600    48.4000 2702.40137 2561.20526 881.76232    5.0000
 6430.5000 4007.1600    1.0000   30.9000   452.6320 21990.2470    1.0000  146.1800    48.0000 2702.90132 2561.67737 881.92684 -999.2500
 6431.0000 4007.1500    1.0000   33.0000   464.3480 44519.9730    1.0000  146.2000    47.5000 2703.40126 2562.14947 882.09137    5.0000
 6431.5000 4007.1400    1.0000   31.6000   467.6730 34362.5130    1.0000  146.2400    47.2000 2703.90121 2562.62158 882.25589 -999.2500
 6432.0000 4007.1300    1.0000   33.1000   477.4730 34216.2720    1.0000  146.2800    47.1000 2704.40116 2563.09368 882.42042    5.0000
 6432.5000 4007.1200    1.0000   33.3000   489.7360 39363.8200    1.0000  146.3200    47.0000 2704.90111 2563.56579 882.58495 -999.2500
 6433.0000 4007.1200    1.0000   32.3000   494.7140 36089.6120    1.0000  146.3600    46.8000 2705.40105 2564.03789 882.74947    4.0000
 6433.5000 4007.1100    1.0000   32.8000   477.7330 40778.0210    1.0000  146.4000    46.8000 2705.9010  2564.5100  882.9140  -999.2500
 6434.0000 4007.1000    1.0000   34.0000   460.7970 40778.0210    1.0000  146.43333   46.4000 2706.40095 2564.98211 883.07853    3.0000
 6434.5000 4007.1000    1.0000   34.7000   391.3070 20452.0840    1.0000  146.46667   45.5000 2706.90089 2565.45421 883.24305 -999.2500
 6435.0000 4007.0900    1.0000   34.1000   461.2440 31540.0370    1.0000  146.5000    45.1000 2707.40084 2565.92632 883.40758    3.0000
 6435.5000 4007.0800    1.0000   32.0000   550.7830 33393.5520    1.0000  146.5250    44.4000 2707.90079 2566.39842 883.57211 -999.2500
 6436.0000 4007.0700    1.0000   28.9000   512.6830 33014.2990    1.0000  146.5500    45.1000 2708.40074 2566.87053 883.73663    4.0000
 6436.5000 4007.0600    1.0000   29.0000   514.9280 29478.4460    1.0000  146.5750    45.5000 2708.90068 2567.34263 883.90116 -999.2500
 6437.0000 4007.0500    1.0000   29.8000   535.4020 27590.1240    1.0000  146.6000    45.7000 2709.40063 2567.81474 884.06568    4.0000
 6437.5000 4007.0500    1.0000   31.1000   454.0340 44519.9730    1.0000  146.61429   45.8000 2709.90058 2568.28684 884.23021 -999.2500
 6438.0000 4007.0400    1.0000   30.4000   442.9100 40778.0210    1.0000  146.62857   45.9000 2710.40053 2568.75895 884.39474    4.0000
 6438.5000 4007.0300    1.0000   29.9000   440.0740 21034.2030    1.0000  146.64286   45.9000 2710.90047 2569.23105 884.55926 -999.2500
 6439.0000 4007.0200    1.0000   29.2000   493.6230 39857.7140    1.0000  146.65714   45.9000 2711.40042 2569.70316 884.72379    4.0000
 6439.5000 4007.0200    1.0000   28.1000   455.7750 18408.3270    1.0000  146.67143   46.0000 2711.90037 2570.17526 884.88832 -999.2500
 6440.0000 4007.0100    1.0000   28.7000   453.5070 39363.8200    1.0000  146.68571   46.0000 2712.40032 2570.64737 885.05284    5.0000
 6440.5000 4007.0000    1.0000   29.7000   436.3910 36589.6060    1.0000  146.7000    45.9000 2712.90026 2571.11947 885.21737 -999.2500
 6441.0000 4006.9900    1.0000   28.2000   424.6540 20048.8890    1.0000  146.71667   46.1000 2713.40021 2571.59158 885.38189    2.0000
 6441.5000 4006.9800    1.0000   28.9000   463.9280 28138.7150    1.0000  146.73333   46.1000 2713.90016 2572.06368 885.54642 -999.2500
 6442.0000 4006.9700    1.0000   28.4000   402.3580 32465.7620    1.0000  146.7500    46.2000 2714.40011 2572.53579 885.71095    5.0000
 6442.5000 4006.9700    1.0000   29.8000   473.1740 17324.1540    1.0000  146.76667   46.3000 2714.90005 2573.00789 885.87547 -999.2500
 6443.0000 4006.9600    1.0000   29.5000   478.8960 29291.3930    1.0000  146.78333   46.2000 2715.4000  2573.4800  886.0400     2.0000
 6443.5000 4006.9500    1.0000   28.6000   431.4240 17855.1520    1.0000  146.8000    46.3000 2715.89989 2573.95311 886.20147 -999.2500
 6444.0000 4006.9400    1.0000   28.7000   422.6300 17985.3530    1.0000  146.8400    46.2000 2716.39979 2574.42621 886.36295    3.0000
 6444.5000 4006.9300    1.0000   27.0000   436.1960 24749.1100    1.0000  146.8800    46.2000 2716.89968 2574.89932 886.52442 -999.2500
 6445.0000 4006.9300    1.0000   27.4000   421.6800 26042.1720    1.0000  146.9200    46.0000 2717.39958 2575.37242 886.68589    5.0000
 6445.5000 4006.9200    1.0000   27.0000   416.4620 18348.1120    1.0000  146.9600    46.0000 2717.89947 2575.84553 886.84737 -999.2500
 6446.0000 4006.9100    1.0000   26.8000   377.8320 32669.0780    1.0000  147.0000    46.0000 2718.39937 2576.31863 887.00884    3.0000
 6446.5000 4006.9000    1.0000   26.2000   341.7410 29656.6000    1.0000  147.0200    46.1000 2718.89926 2576.79174 887.17032 -999.2500
 6447.0000 4006.8900    1.0000   25.1000   356.0860 27449.7150    1.0000  147.0400    46.2000 2719.39916 2577.26484 887.33179    2.0000
 6447.5000 4006.8800    1.0000   25.4000   364.1880 10822.6120    1.0000  147.0600    46.1000 2719.89905 2577.73795 887.49326 -999.2500
 6448.0000 4006.8700    1.0000   26.2000   377.2080  7075.0530    1.0000  147.0800    45.9000 2720.39895 2578.21105 887.65474    5.0000
 6448.5000 4006.8700    1.0000   26.7000   365.8290 22619.5940    1.0000  147.1000    45.9000 2720.89884 2578.68416 887.81621 -999.2500
 6449.0000 4006.8600    1.0000   27.8000   338.4620 12086.9930    1.0000  147.11667   45.9000 2721.39874 2579.15726 887.97768    5.0000
 6449.5000 4006.8500    1.0000   30.6000   300.4550  5721.7500    1.0000  147.13333   46.0000 2721.89863 2579.63037 888.13916 -999.2500
 6450.0000 4006.8400    1.0000   33.1000   276.0230  9231.3530    1.0000  147.1500    46.2000 2722.39853 2580.10347 888.30063    4.0000
 6450.5000 4006.8300    1.0000   32.5000   315.3910  2154.2390    1.0000  147.16667   46.5000 2722.89842 2580.57658 888.46211 -999.2500
 6451.0000 4006.8200    1.0000   30.4000   273.4490  2702.1810    1.0000  147.18333   46.8000 2723.39832 2581.04968 888.62358    5.0000
 6451.5000 4006.8200    1.0000   32.8000   273.0820  1345.8710    1.0000  147.2000    47.1000 2723.89821 2581.52279 888.78505 -999.2500
 6452.0000 4006.8100    1.0000   33.5000   307.0850  1328.2830    1.0000  147.2000    47.4000 2724.39811 2581.99589 888.94653    5.0000
 6452.5000 4006.8000    1.0000   32.0000   317.9890 11696.1240    1.0000  147.2000    47.6000 2724.8980  2582.4690  889.1080  -999.2500
 6453.0000 4006.7900    1.0000   31.8000   324.1640  8770.1370    1.0000  147.2000    47.7000 2725.39789 2582.94211 889.26947    5.0000
 6453.5000 4006.7800    1.0000   29.4000   295.7790 14275.6290    1.0000  147.2000    47.6000 2725.89779 2583.41521 889.43095 -999.2500
 6454.0000 4006.7700    1.0000   29.1000   299.5300  3032.8450    1.0000  147.2200    47.9000 2726.39768 2583.88832 889.59242    4.0000
