~Version Information Section
 VERS.      2.0         :CWLS LOG ASCII STANDARD -VERSION 2.0
 WRAP.      No          :SINGLE LINE PER DEPTH STEP
~Well Information Section
#MNEM.UNIT                      VALUE/NAME                 DESCRIPTION
#----.----     ----------------------------------   --------------------
 STRT    .ft           4655.0000                         :Start Depth
 STOP    .ft           6737.0000                         :Stop  Depth
 STEP    .ft              0.5000                         :Step  Depth
 NULL    .             -999.2500                         :Null value
 COMP    .          LEWIS ENERGY                         :Company Name
 WELL    .          Toposi 2H ST                         :Well Name
 PATH    .                                               :Path Name
 FLD     .          TOPOSI                               :Field Name
 LOC     .          TOPOSI                               :Location
 PROV    .          Unused                               :Province
 SRVC    .          BAKER HUGHES INTEQ                   :Service Company Name
 DATE    .          09/04/2015-14                        :28:47 SA Pacific Standard Time: System Date
 UWI     .                                               :Unique Well ID
 TIMEZONE.Hrs            -5.0000                         :Time zone difference from GMT
 PDAT    .          M.S.L                                :PERMANET DATUM
 EDF     .ft            278.6600                         :ELEVATION OF DRILL FLOOR
 EGL     .ft            256.7300                         :ELEVATION OF GROUD LEVEL
 LMF     .          R.T                                  :LOG MEASURED FROM
 APD     .          ft                  21.93            :ABOVE PERMANET DATUM
 DMF     .          DRILL FLOOR                          :DRILLING MEASURED FROM
 DEPIN   .          4685                                 :DEPTH IN
 DEPOU   .          6737                                 :DEPTH OUT
 DCS     .          MAGNA SIRGAS - BOGOTA                :DATUM COORDINATES SYSTEM
 SLAT    .          08° 19' 25.746'' N                   :SUSFACE LATITUDE
 SLON    .          73° 39' 55.448'' W                   :SURFACE LONGITUDE
 SNOR    .          1412256.100 m                        :SURFACE NORTHING
 SEAS    .          1045395.680 m                        :SURFACE EASTING
 BLAT    .          08° 19' 54.030'' N                   :BOTTOM LATITUDE
 BLON    .          73° 39' 45.848'' W                   :BOTTOM LONGITUDE
 BNOR    .          1413125.37 m                         :BOTTOM NORTHING
 BEAS    .          1045688.52 m                         :BOTTOM EASTING
~Curve Information Section
#MNEM      .UNIT         CURVE DESCRIPTION
#----      .----         -------------------------
 DEPTH     .ft           :1 Depth Hole
 TVD       .ft           :2 True Vertical Depth
 GRIM      .unitless     :3 Gamma Ray Data Point Indicator
 GR1AFM    .API          :4 Gamma Ray 1 - Apparent Filtered
 RPCHM     .ohm.m        :5 Resistivity Phase - Corrected - 2MHz
 RPCLM     .ohm.m        :6 Resistivity Phase - Corrected - 400kHz
 RPHIM     .unitless     :7 Resistivity Phase - Data Point Indicator - 2MHz
 TCDM      .degF         :8 Downhole Temperature
 RPTHM     .min          :9 Resistivity Time Since Drilled
 SRSP_VSECT.ft           :10 Planar Vertical Section
 SRSP_NS   .ft           :11 Position North
 SRSP_EW   .ft           :12 Position East
 LAGGAS    .unit         :13 Total Gas - Lagged
~PARAMETER INFORMATION
#MNEM.UNIT                  VALUE                   DESCRIPTION
#----.----     ----------------------------------   --------------------
  DFT.         BRINE                                :Drilling Fluid Type
  DFD.LB/G           9.3000                         :Drilling Fluid Density
  DFV.S             17.0000                         :Drilling Fluid Viscosity
  MSS.         ACTIVE PIT                           :Mud Sample Source
  RMS.OHMM           0.0600                         :Resistivity Of Mud Sample
  MST.DEGF          69.7000                         :Mud Sample Temperature
  RMB.OHMM           0.0300                         :Mud Resistivity At Bht
  BHT.DEGF         144.6000                         :Bottom Hole Temperature
  TSC.         01-04-2015 @ 15		            :Time Since Circulation

  DFT.         BRINE                                :Drilling Fluid Type
  DFD.LB/G           9.6000                         :Drilling Fluid Density
  DFV.S             18.0000                         :Drilling Fluid Viscosity
  MSS.         ACTIVE PIT                           :Mud Sample Source
  RMS.OHMM           0.0600                         :Resistivity Of Mud Sample
  MST.DEGF          71.0000                         :Mud Sample Temperature
  RMB.OHMM           0.8600                         :Mud Resistivity At Bht
  BHT.DEGF         136.0000                         :Bottom Hole Temperature
  TSC.         05-04-2015 @ 11		            :Time Since Circulation
  
  MRT.DEGF          147.300                         :Maximum Recorded Temperature

~Other Information Section
#MUD PROPERTIES
  - DENSITY =  9.3 LB/G
  - PLASTIC VISCOSITY = 17.0 CP
  - CHLORIDES = 94000 MG/LT
  - YIELD POINT =  11 LBF/100 FT^2

  - DENSITY =  9.6 LB/G
  - PLASTIC VISCOSITY = 18.0 CP
  - CHLORIDES = 97000 MG/LT
  - YIELD POINT =  10 LBF/100 FT^2

~Other Information Section
Disclaimer
Any opinion and / or recommendation expressed orally or written herein, has been prepared
carefully and may be used if the user so elects, however, no representative or warranty is
made by ourselves or our agents as to the correctness or completeness, and no liability is
assumed for any damages resulting from use of the same.  Baker Hughes's liabilities and obligations
shall be governed by Baker Hughes's Standard Terms and Conditions.
Creator
Export
#----------------------------------------------------------------------
#
# Curve name cross reference:  XREF 'LAS Name' 'XTF Short Name' 'XTF Structured Name'
#
XREF DEPTH DEPTH DEPTH
XREF TVD TVD GEN.TVD
XREF GRIM GRIM GAM.GRIM
XREF GR1AFM GR1AFM FGAM.GR1AFM
XREF RPCHM RPCHM CRES.RPCHM
XREF RPCLM RPCLM CRES.RPCLM
XREF RPHIM RPHIM CRES.RPHIM
XREF TCDM TCDM GEN.TCDM
XREF RPTHM RPTHM CRES.RPTHM
XREF SRSP_VSECT SRSPVSEC SURVEY_STATION.SRSP_VSECT
XREF SRSP_NS SRSPNS SURVEY_STATION.SRSP_NS
XREF SRSP_EW SRSPEW SURVEY_STATION.SRSP_EW
XREF LAGGAS LAGGAS LAGMUD.LAGGAS

~A  DEPTH     TVD      GRIM     GR1AFM     RPCHM      RPCLM     RPHIM       TCDM     RPTHM   SRSP_VSECT  SRSP_NS    SRSP_EW   LAGGAS  
# ...
 5864.5000 4011.0800    1.0000   58.6000   135.4460   564.6570    1.0000  142.6500    70.0000 2136.9400  2025.88414 699.60839 -999.2500
 5865.0000 4011.0800    1.0000   59.0000    95.5790   220.5260    1.0000  142.6000    68.6000 2137.4400  2026.3586  699.76613    5.0000
 5865.5000 4011.0800    1.0000   57.0000   164.7300   641.0280    1.0000  142.6000    67.6000 2137.9400  2026.83306 699.92387 -999.2500
 5866.0000 4011.0900    1.0000   55.0000   202.3820 14641.1860    1.0000  142.6000    65.5000 2138.4400  2027.30753 700.08161    7.0000
 5866.5000 4011.0900    1.0000   53.9000   219.8470 17067.0470    1.0000  142.6000    64.3000 2138.9400  2027.78199 700.23935 -999.2500
 5867.0000 4011.0900    1.0000   50.2000   205.5860 27136.9460    1.0000  142.6000    64.0000 2139.4400  2028.25645 700.3971     7.0000
 5867.5000 4011.0900    1.0000   49.2000   219.2170 23206.1510    1.0000  142.6000    63.6000 2139.9400  2028.73091 700.55484 -999.2500
 5868.0000 4011.0900    1.0000   52.0000   233.8640 29817.7830    1.0000  142.6000    62.9000 2140.4400  2029.20538 700.71258    5.0000
 5868.5000 4011.1000    1.0000   56.6000   276.4040 35133.0990    1.0000  142.63333   62.5000 2140.9400  2029.67984 700.87032 -999.2500
 5869.0000 4011.1000    1.0000   61.0000   275.3770 39267.5890    1.0000  142.66667   61.5000 2141.4400  2030.1543  701.02806    7.0000
 5869.5000 4011.1000    1.0000   61.1000   267.8180 44519.9730    1.0000  142.7000    55.6000 2141.9400  2030.62876 701.18581 -999.2500
 5870.0000 4011.1000    1.0000   61.0000   278.2980 40956.5090    1.0000  142.8000    54.9000 2142.4400  2031.10323 701.34355    4.0000
 5870.5000 4011.1000    1.0000   57.4000   280.3160 40763.3410    1.0000  142.8000    54.7000 2142.9400  2031.57769 701.50129 -999.2500
 5871.0000 4011.1100    1.0000   51.9000   305.9060 41962.4810    1.0000  142.8000    54.5000 2143.4400  2032.05215 701.65903    6.0000
 5871.5000 4011.1100    1.0000   48.2000   318.1360 41706.7320    1.0000  142.8000    54.5000 2143.9400  2032.52661 701.81677 -999.2500
 5872.0000 4011.1100    1.0000   49.9000   311.8440 44519.9730    1.0000  142.8000    54.2000 2144.4400  2033.00108 701.97452    6.0000
 5872.5000 4011.1100    1.0000   52.0000   315.0380 44519.9730    1.0000  142.8250    54.0000 2144.9400  2033.47554 702.13226 -999.2500
 5873.0000 4011.1100    1.0000   49.5000   325.2880 44519.9730    1.0000  142.8500    53.8000 2145.4400  2033.9500  702.2900    13.0000
 5873.5000 4011.1200    1.0000   48.5000   327.7270 44519.9730    1.0000  142.8750    53.6000 2145.93995 2034.4252  702.44551 -999.2500
 5874.0000 4011.1200    1.0000   47.9000   332.1290 44519.9730    1.0000  142.9000    53.0000 2146.4399  2034.9004  702.60101   13.0000
 5874.5000 4011.1200    1.0000   46.4000   347.4550 44519.9730    1.0000  142.9200    52.8000 2146.93985 2035.37561 702.75652 -999.2500
 5875.0000 4011.1200    1.0000   44.8000   353.9810 44519.9730    1.0000  142.9400    52.8000 2147.4398  2035.85081 702.91202   14.0000
 5875.5000 4011.1300    1.0000   45.8000   338.6400 44519.9730    1.0000  142.9600    52.7000 2147.93975 2036.32601 703.06753 -999.2500
 5876.0000 4011.1300    1.0000   45.1000   344.5760 44519.9730    1.0000  142.9800    52.6000 2148.4397  2036.80121 703.22303   16.0000
 5876.5000 4011.1300    1.0000   44.4000   347.3790 44519.9730    1.0000  143.0000    52.7000 2148.93965 2037.27641 703.37854 -999.2500
 5877.0000 4011.1300    1.0000   42.8000   335.8390 44519.9730    1.0000  143.0200    52.8000 2149.4396  2037.75162 703.53404   14.0000
 5877.5000 4011.1400    1.0000   42.7000   347.7360 44519.9730    1.0000  143.0400    52.8000 2149.93955 2038.22682 703.68955 -999.2500
 5878.0000 4011.1400    1.0000   42.2000   373.6070 44519.9730    1.0000  143.0600    52.6000 2150.43949 2038.70202 703.84505   15.0000
 5878.5000 4011.1400    1.0000   40.4000   354.6050 44519.9730    1.0000  143.0800    52.7000 2150.93944 2039.17722 704.00056 -999.2500
 5879.0000 4011.1400    1.0000   39.6000   356.5710 44519.9730    1.0000  143.1000    52.7000 2151.43939 2039.65242 704.15606   14.0000
 5879.5000 4011.1500    1.0000   40.1000   338.6970 44519.9730    1.0000  143.1200    53.0000 2151.93934 2040.12763 704.31157 -999.2500
 5880.0000 4011.1500    1.0000   41.5000   349.1590 44519.9730    1.0000  143.1400    53.0000 2152.43929 2040.60283 704.46707    9.0000
 5880.5000 4011.1500    1.0000   43.4000   335.8500 44519.9730    1.0000  143.1600    53.0000 2152.93924 2041.07803 704.62258 -999.2500
 5881.0000 4011.1600    1.0000   45.0000   338.3730 44519.9730    1.0000  143.1800    53.1000 2153.43919 2041.55323 704.77808    7.0000
 5881.5000 4011.1600    1.0000   44.5000   330.8870 44519.9730    1.0000  143.2000    53.1000 2153.93914 2042.02843 704.93359 -999.2500
 5882.0000 4011.1600    1.0000   42.3000   350.8100 44519.9730    1.0000  143.2200    53.1000 2154.43909 2042.50364 705.08909    6.0000
 5882.5000 4011.1600    1.0000   41.1000   343.8800 44519.9730    1.0000  143.2400    53.0000 2154.93904 2042.97884 705.2446  -999.2500
 5883.0000 4011.1700    1.0000   42.1000   336.7090 44519.9730    1.0000  143.2600    52.7000 2155.43899 2043.45404 705.4001     7.0000
 5883.5000 4011.1700    1.0000   42.3000   331.2770 44519.9730    1.0000  143.2800    52.4000 2155.93894 2043.92924 705.55561 -999.2500
 5884.0000 4011.1700    1.0000   42.8000   322.3750 44519.9730    1.0000  143.3000    52.2000 2156.43889 2044.40444 705.71111    7.0000
 5884.5000 4011.1800    1.0000   41.7000   327.7710 44519.9730    1.0000  143.3500    52.0000 2156.93884 2044.87965 705.86662 -999.2500
 5885.0000 4011.1800    1.0000   43.3000   320.6760 44519.9730    1.0000  143.4000    51.9000 2157.43879 2045.35485 706.02212    6.0000
 5885.5000 4011.1800    1.0000   42.4000   343.0970 44519.9730    1.0000  143.4500    51.7000 2157.93874 2045.83005 706.17763 -999.2500
 5886.0000 4011.1900    1.0000   43.6000   329.5390 44519.9730    1.0000  143.5000    51.5000 2158.43869 2046.30525 706.33313    4.0000
 5886.5000 4011.1900    1.0000   41.6000   333.5260 44519.9730    1.0000  143.5200    51.2000 2158.93864 2046.78045 706.48864 -999.2500
 5887.0000 4011.1900    1.0000   37.5000   335.8260 44519.9730    1.0000  143.5400    51.4000 2159.43859 2047.25566 706.64414    4.0000
 5887.5000 4011.1900    1.0000   39.0000   321.4430 44519.9730    1.0000  143.5600    51.3000 2159.93854 2047.73086 706.79965 -999.2500
 5888.0000 4011.2000    1.0000   37.8000   317.7420 44519.9730    1.0000  143.5800    51.2000 2160.43848 2048.20606 706.95515    7.0000
 5888.5000 4011.2000    1.0000   37.9000   327.1720 44519.9730    1.0000  143.6000    51.3000 2160.93843 2048.68126 707.11066 -999.2500
 5889.0000 4011.2000    1.0000   38.6000   333.4810 44519.9730    1.0000  143.6400    51.3000 2161.43838 2049.15646 707.26616    4.0000
 5889.5000 4011.2100    1.0000   37.6000   353.3070 44519.9730    1.0000  143.6800    51.2000 2161.93833 2049.63167 707.42167 -999.2500
 5890.0000 4011.2100    1.0000   38.7000   343.4200 44519.9730    1.0000  143.7200    50.8000 2162.43828 2050.10687 707.57717    4.0000
 5890.5000 4011.2100    1.0000   38.9000   350.8350 44519.9730    1.0000  143.7600    50.7000 2162.93823 2050.58207 707.73268 -999.2500
 5891.0000 4011.2200    1.0000   37.5000   329.1400 44519.9730    1.0000  143.8000    50.6000 2163.43818 2051.05727 707.88818    5.0000
 5891.5000 4011.2200    1.0000   38.8000   334.9970 44519.9730    1.0000  143.8250    53.3000 2163.93813 2051.53247 708.04369 -999.2500
 5892.0000 4011.2200    1.0000   40.1000   333.3840 44519.9730    1.0000  143.8500    75.4000 2164.43808 2052.00768 708.19919    4.0000
 5892.5000 4011.2300    1.0000   39.5000   339.2390 44519.9730    1.0000  143.8750    75.0000 2164.93803 2052.48288 708.3547  -999.2500
 5893.0000 4011.2300    1.0000   41.3000   381.4770 44519.9730    1.0000  143.9000    74.9000 2165.43798 2052.95808 708.5102     7.0000
 5893.5000 4011.2400    1.0000   40.9000   346.9020 44519.9730    1.0000  143.9400    74.6000 2165.93793 2053.43328 708.66571 -999.2500
