~Version Information Section
 VERS.      2.0         :CWLS LOG ASCII STANDARD -VERSION 2.0
 WRAP.      No          :SINGLE LINE PER DEPTH STEP
~Well Information Section
#MNEM.UNIT                      VALUE/NAME                 DESCRIPTION
#----.----     ----------------------------------   --------------------
 STRT    .ft           4655.0000                         :Start Depth
 STOP    .ft           6737.0000                         :Stop  Depth
 STEP    .ft              0.5000                         :Step  Depth
 NULL    .             -999.2500                         :Null value
 COMP    .          LEWIS ENERGY                         :Company Name
 WELL    .          Toposi 2H ST                         :Well Name
 PATH    .                                               :Path Name
 FLD     .          TOPOSI                               :Field Name
 LOC     .          TOPOSI                               :Location
 PROV    .          Unused                               :Province
 SRVC    .          BAKER HUGHES INTEQ                   :Service Company Name
 DATE    .          09/04/2015-14                        :28:47 SA Pacific Standard Time: System Date
 UWI     .                                               :Unique Well ID
 TIMEZONE.Hrs            -5.0000                         :Time zone difference from GMT
 PDAT    .          M.S.L                                :PERMANET DATUM
 EDF     .ft            278.6600                         :ELEVATION OF DRILL FLOOR
 EGL     .ft            256.7300                         :ELEVATION OF GROUD LEVEL
 LMF     .          R.T                                  :LOG MEASURED FROM
 APD     .          ft                  21.93            :ABOVE PERMANET DATUM
 DMF     .          DRILL FLOOR                          :DRILLING MEASURED FROM
 DEPIN   .          4685                                 :DEPTH IN
 DEPOU   .          6737                                 :DEPTH OUT
 DCS     .          MAGNA SIRGAS - BOGOTA                :DATUM COORDINATES SYSTEM
 SLAT    .          08° 19' 25.746'' N                   :SUSFACE LATITUDE
 SLON    .          73° 39' 55.448'' W                   :SURFACE LONGITUDE
 SNOR    .          1412256.100 m                        :SURFACE NORTHING
 SEAS    .          1045395.680 m                        :SURFACE EASTING
 BLAT    .          08° 19' 54.030'' N                   :BOTTOM LATITUDE
 BLON    .          73° 39' 45.848'' W                   :BOTTOM LONGITUDE
 BNOR    .          1413125.37 m                         :BOTTOM NORTHING
 BEAS    .          1045688.52 m                         :BOTTOM EASTING
~Curve Information Section
#MNEM      .UNIT         CURVE DESCRIPTION
#----      .----         -------------------------
 DEPTH     .ft           :1 Depth Hole
 TVD       .ft           :2 True Vertical Depth
 GRIM      .unitless     :3 Gamma Ray Data Point Indicator
 GR1AFM    .API          :4 Gamma Ray 1 - Apparent Filtered
 RPCHM     .ohm.m        :5 Resistivity Phase - Corrected - 2MHz
 RPCLM     .ohm.m        :6 Resistivity Phase - Corrected - 400kHz
 RPHIM     .unitless     :7 Resistivity Phase - Data Point Indicator - 2MHz
 TCDM      .degF         :8 Downhole Temperature
 RPTHM     .min          :9 Resistivity Time Since Drilled
 SRSP_VSECT.ft           :10 Planar Vertical Section
 SRSP_NS   .ft           :11 Position North
 SRSP_EW   .ft           :12 Position East
 LAGGAS    .unit         :13 Total Gas - Lagged
~PARAMETER INFORMATION
#MNEM.UNIT                  VALUE                   DESCRIPTION
#----.----     ----------------------------------   --------------------
  DFT.         BRINE                                :Drilling Fluid Type
  DFD.LB/G           9.3000                         :Drilling Fluid Density
  DFV.S             17.0000                         :Drilling Fluid Viscosity
  MSS.         ACTIVE PIT                           :Mud Sample Source
  RMS.OHMM           0.0600                         :Resistivity Of Mud Sample
  MST.DEGF          69.7000                         :Mud Sample Temperature
  RMB.OHMM           0.0300                         :Mud Resistivity At Bht
  BHT.DEGF         144.6000                         :Bottom Hole Temperature
  TSC.         01-04-2015 @ 15		            :Time Since Circulation

  DFT.         BRINE                                :Drilling Fluid Type
  DFD.LB/G           9.6000                         :Drilling Fluid Density
  DFV.S             18.0000                         :Drilling Fluid Viscosity
  MSS.         ACTIVE PIT                           :Mud Sample Source
  RMS.OHMM           0.0600                         :Resistivity Of Mud Sample
  MST.DEGF          71.0000                         :Mud Sample Temperature
  RMB.OHMM           0.8600                         :Mud Resistivity At Bht
  BHT.DEGF         136.0000                         :Bottom Hole Temperature
  TSC.         05-04-2015 @ 11		            :Time Since Circulation
  
  MRT.DEGF          147.300                         :Maximum Recorded Temperature

~Other Information Section
#MUD PROPERTIES
  - DENSITY =  9.3 LB/G
  - PLASTIC VISCOSITY = 17.0 CP
  - CHLORIDES = 94000 MG/LT
  - YIELD POINT =  11 LBF/100 FT^2

  - DENSITY =  9.6 LB/G
  - PLASTIC VISCOSITY = 18.0 CP
  - CHLORIDES = 97000 MG/LT
  - YIELD POINT =  10 LBF/100 FT^2

~Other Information Section
Disclaimer
Any opinion and / or recommendation expressed orally or written herein, has been prepared
carefully and may be used if the user so elects, however, no representative or warranty is
made by ourselves or our agents as to the correctness or completeness, and no liability is
assumed for any damages resulting from use of the same.  Baker Hughes's liabilities and obligations
shall be governed by Baker Hughes's Standard Terms and Conditions.
Creator
Export
#----------------------------------------------------------------------
#
# Curve name cross reference:  XREF 'LAS Name' 'XTF Short Name' 'XTF Structured Name'
#
XREF DEPTH DEPTH DEPTH
XREF TVD TVD GEN.TVD
XREF GRIM GRIM GAM.GRIM
XREF GR1AFM GR1AFM FGAM.GR1AFM
XREF RPCHM RPCHM CRES.RPCHM
XREF RPCLM RPCLM CRES.RPCLM
XREF RPHIM RPHIM CRES.RPHIM
XREF TCDM TCDM GEN.TCDM
XREF RPTHM RPTHM CRES.RPTHM
XREF SRSP_VSECT SRSPVSEC SURVEY_STATION.SRSP_VSECT
XREF SRSP_NS SRSPNS SURVEY_STATION.SRSP_NS
XREF SRSP_EW SRSPEW SURVEY_STATION.SRSP_EW
XREF LAGGAS LAGGAS LAGMUD.LAGGAS

~A  DEPTH     TVD      GRIM     GR1AFM     RPCHM      RPCLM     RPHIM       TCDM     RPTHM   SRSP_VSECT  SRSP_NS    SRSP_EW   LAGGAS  
# ...
 6690.5000 4001.1600    1.0000   68.1000   506.0940 40781.9490    1.0000  132.9000   106.7000 2962.8286  2807.8424  965.3956  -999.2500
 6691.0000 4001.1500    1.0000   68.6000   474.2850 42414.1590    1.0000  132.93333  109.9000 2963.3284  2808.3156  965.5564     4.0000
 6691.5000 4001.1300    1.0000   66.0000   450.8480 42967.9200    1.0000  132.96667  111.9000 2963.8282  2808.7888  965.7172  -999.2500
 6692.0000 4001.1200    1.0000   65.8000   418.0460 44519.9730    1.0000  133.0000   112.9000 2964.3280  2809.2620  965.8780     5.0000
 6692.5000 4001.1100    1.0000   64.0000   440.1850 41134.1530    1.0000  133.0000   114.1000 2964.8278  2809.7352  966.0388  -999.2500
 6693.0000 4001.0900    1.0000   64.0000   418.0630 39309.9640    1.0000  133.0000   115.2000 2965.3276  2810.2084  966.1996    25.0000
 6693.5000 4001.0800    1.0000   63.4000   454.5540 40198.4040    1.0000  133.0000   116.5000 2965.8274  2810.6816  966.3604  -999.2500
 6694.0000 4001.0600    1.0000   63.2000   455.5080 39352.3530    1.0000  133.0000   118.3000 2966.3272  2811.1548  966.5212    50.0000
 6694.5000 4001.0500    1.0000   61.1000   430.1810 34655.6840    1.0000  133.0000   120.7000 2966.8270  2811.6280  966.6820  -999.2500
 6695.0000 4001.0400    1.0000   64.1000   412.4510 44519.9730    1.0000  133.0000   122.2000 2967.3268  2812.1012  966.8428    17.0000
 6695.5000 4001.0300    1.0000   65.4000   404.1490 41951.0580    1.0000  133.0000   124.1000 2967.8266  2812.5744  967.0036  -999.2500
 6696.0000 4001.0100    1.0000   66.7000   416.9840 42505.0760    1.0000  133.0000   126.0000 2968.3264  2813.0476  967.1644     5.0000
 6696.5000 4001.0000    1.0000   65.7000   438.6560 39347.3030    1.0000  133.0000   127.4000 2968.8262  2813.5208  967.3252  -999.2500
 6697.0000 4000.9800    1.0000   64.0000   447.7870 38004.9630    1.0000  133.0000   129.3000 2969.3260  2813.9940  967.4860     4.0000
 6697.5000 4000.9700 -999.2500 -999.2500   436.6310 41871.8080    1.0000  133.0000   130.2000 2969.8258  2814.4672  967.6468  -999.2500
 6698.0000 4000.9600 -999.2500 -999.2500   441.5880 41134.1530    1.0000  133.0000   132.3000 2970.3256  2814.9404  967.8076     6.0000
 6698.5000 4000.9400 -999.2500 -999.2500   462.9100 42746.1980    1.0000  133.0000   134.2000 2970.8254  2815.4136  967.9684  -999.2500
 6699.0000 4000.9300 -999.2500 -999.2500   454.1090 43381.1180    1.0000  133.0000   136.4000 2971.3252  2815.8868  968.1292     4.0000
 6699.5000 -999.2500 -999.2500 -999.2500   395.9290 32068.0720    1.0000  133.0000   137.9000 2971.8250  2816.3600  968.2900  -999.2500
 6700.0000 4000.9000 -999.2500 -999.2500   415.7920 36751.9600    1.0000  133.0000   139.6000 2972.3248  2816.8332  968.4508     5.0000
 6700.5000 -999.2500 -999.2500 -999.2500   440.8140 35747.5590    1.0000  133.0000   141.1000 2972.8246  2817.3064  968.6116  -999.2500
 6701.0000 4000.8700 -999.2500 -999.2500   419.2260 42919.5540    1.0000  133.0000   142.3000 2973.3244  2817.7796  968.7724     5.0000
 6701.5000 4000.8600 -999.2500 -999.2500   490.2150 43472.2260    1.0000  133.03333  143.7000 2973.8242  2818.2528  968.9332  -999.2500
 6702.0000 -999.2500 -999.2500 -999.2500   495.9710 40825.2090    1.0000  133.06667  145.2000 2974.3240  2818.7260  969.0940     4.0000
 6702.5000 4000.8300 -999.2500 -999.2500   461.2470 41654.6440    1.0000  133.1000   146.4000 2974.8238  2819.1992  969.2548  -999.2500
 6703.0000 4000.8200 -999.2500 -999.2500   413.3650 41813.1280    1.0000  133.0000   144.9000 2975.3236  2819.6724  969.4156     4.0000
 6703.5000 4000.8000 -999.2500 -999.2500   357.0040 33239.0130    1.0000  132.9000   144.4000 2975.8234  2820.1456  969.5764  -999.2500
 6704.0000 4000.8000 -999.2500 -999.2500   399.4000 32521.2840    1.0000  132.8750   143.1000 2976.3232  2820.6188  969.7372     4.0000
 6704.5000 4000.7800 -999.2500 -999.2500   454.7150 36794.0000    1.0000  132.8500   143.2000 2976.8230  2821.0920  969.8980  -999.2500
 6705.0000 -999.2500 -999.2500 -999.2500   436.5800 40271.3900    1.0000  132.8250   143.6000 2977.3228  2821.5652  970.0588     4.0000
 6705.5000 4000.7500 -999.2500 -999.2500   512.6010 42287.3860    1.0000  132.8000   146.1000 2977.8226  2822.0384  970.2196  -999.2500
 6706.0000 4000.7400 -999.2500 -999.2500  -999.2500  -999.2500 -999.2500  132.7000  -999.2500 2978.3224  2822.5116  970.3804     4.0000
 6706.5000 4000.7200 -999.2500 -999.2500  -999.2500  -999.2500 -999.2500  132.6000  -999.2500 2978.8222  2822.9848  970.5412  -999.2500
 6707.0000 4000.7100 -999.2500 -999.2500  -999.2500  -999.2500 -999.2500  132.6000  -999.2500 2979.3220  2823.4580  970.7020     4.0000
 6707.5000 4000.7000 -999.2500 -999.2500  -999.2500  -999.2500 -999.2500  132.5000  -999.2500 2979.8218  2823.9312  970.8628  -999.2500
 6708.0000 4000.6900 -999.2500 -999.2500  -999.2500  -999.2500 -999.2500  132.5000  -999.2500 2980.3216  2824.4044  971.0236     4.0000
 6708.5000 4000.6700 -999.2500 -999.2500  -999.2500  -999.2500 -999.2500  132.5000  -999.2500 2980.8214  2824.8776  971.1844  -999.2500
 6709.0000 4000.6600 -999.2500 -999.2500  -999.2500  -999.2500 -999.2500  132.5000  -999.2500 2981.3212  2825.3508  971.3452     5.0000
 6709.5000 4000.6400 -999.2500 -999.2500  -999.2500  -999.2500 -999.2500  132.4000  -999.2500 2981.8210  2825.8240  971.5060  -999.2500
 6710.0000 4000.6300 -999.2500 -999.2500  -999.2500  -999.2500 -999.2500  132.3000  -999.2500 2982.3208  2826.2972  971.6668     4.0000
 6710.5000 4000.6200 -999.2500 -999.2500  -999.2500  -999.2500 -999.2500  132.3000  -999.2500 2982.8206  2826.7704  971.8276  -999.2500
 6711.0000 4000.6000 -999.2500 -999.2500  -999.2500  -999.2500 -999.2500  132.3000  -999.2500 2983.3204  2827.2436  971.9884     5.0000
 6711.5000 4000.5900 -999.2500 -999.2500  -999.2500  -999.2500 -999.2500  132.3500  -999.2500 2983.8202  2827.7168  972.1492  -999.2500
 6712.0000 4000.5700 -999.2500 -999.2500  -999.2500  -999.2500 -999.2500  132.4000  -999.2500 2984.3200  2828.1900  972.3100     4.0000
 6712.5000 4000.5600 -999.2500 -999.2500  -999.2500  -999.2500 -999.2500  132.43333 -999.2500 2984.8198  2828.6632  972.4708  -999.2500
 6713.0000 4000.5500 -999.2500 -999.2500  -999.2500  -999.2500 -999.2500  132.46667 -999.2500 2985.3196  2829.1364  972.6316     5.0000
 6713.5000 4000.5300 -999.2500 -999.2500  -999.2500  -999.2500 -999.2500  132.5000  -999.2500 2985.8194  2829.6096  972.7924  -999.2500
 6714.0000 4000.5200 -999.2500 -999.2500  -999.2500  -999.2500 -999.2500  132.6000  -999.2500 2986.3192  2830.0828  972.9532     4.0000
 6714.5000 4000.5100 -999.2500 -999.2500  -999.2500  -999.2500 -999.2500  132.6500  -999.2500 2986.8190  2830.5560  973.1140  -999.2500
 6715.0000 4000.4900 -999.2500 -999.2500  -999.2500  -999.2500 -999.2500  132.7000  -999.2500 2987.3188  2831.0292  973.2748     3.0000
 6715.5000 4000.4800 -999.2500 -999.2500  -999.2500  -999.2500 -999.2500  132.7500  -999.2500 2987.8186  2831.5024  973.4356  -999.2500
 6716.0000 4000.4600 -999.2500 -999.2500  -999.2500  -999.2500 -999.2500  132.8000  -999.2500 2988.3184  2831.9756  973.5964     4.0000
 6716.5000 4000.4500 -999.2500 -999.2500  -999.2500  -999.2500 -999.2500  132.8000  -999.2500 2988.8182  2832.4488  973.7572  -999.2500
 6717.0000 4000.4300 -999.2500 -999.2500  -999.2500  -999.2500 -999.2500  132.8000  -999.2500 2989.3180  2832.9220  973.9180     5.0000
 6717.5000 4000.4200 -999.2500 -999.2500  -999.2500  -999.2500 -999.2500  132.83333 -999.2500 2989.8178  2833.3952  974.0788  -999.2500
 6718.0000 4000.4100 -999.2500 -999.2500  -999.2500  -999.2500 -999.2500  132.86667 -999.2500 2990.3176  2833.8684  974.2396     3.0000
 6718.5000 4000.3900 -999.2500 -999.2500  -999.2500  -999.2500 -999.2500  132.9000  -999.2500 2990.8174  2834.3416  974.4004  -999.2500
 6719.0000 4000.3800 -999.2500 -999.2500  -999.2500  -999.2500 -999.2500  132.9000  -999.2500 2991.3172  2834.8148  974.5612     3.0000
 6719.5000 4000.3700 -999.2500 -999.2500  -999.2500  -999.2500 -999.2500  132.9000  -999.2500 2991.8170  2835.2880  974.7220  -999.2500
