~Version Information Section
 VERS.      2.0         :CWLS LOG ASCII STANDARD -VERSION 2.0
 WRAP.      No          :SINGLE LINE PER DEPTH STEP
~Well Information Section
#MNEM.UNIT                      VALUE/NAME                 DESCRIPTION
#----.----     ----------------------------------   --------------------
 STRT    .ft           4655.0000                         :Start Depth
 STOP    .ft           6737.0000                         :Stop  Depth
 STEP    .ft              0.5000                         :Step  Depth
 NULL    .             -999.2500                         :Null value
 COMP    .          LEWIS ENERGY                         :Company Name
 WELL    .          Toposi 2H ST                         :Well Name
 PATH    .                                               :Path Name
 FLD     .          TOPOSI                               :Field Name
 LOC     .          TOPOSI                               :Location
 PROV    .          Unused                               :Province
 SRVC    .          BAKER HUGHES INTEQ                   :Service Company Name
 DATE    .          09/04/2015-14                        :28:47 SA Pacific Standard Time: System Date
 UWI     .                                               :Unique Well ID
 TIMEZONE.Hrs            -5.0000                         :Time zone difference from GMT
 PDAT    .          M.S.L                                :PERMANET DATUM
 EDF     .ft            278.6600                         :ELEVATION OF DRILL FLOOR
 EGL     .ft            256.7300                         :ELEVATION OF GROUD LEVEL
 LMF     .          R.T                                  :LOG MEASURED FROM
 APD     .          ft                  21.93            :ABOVE PERMANET DATUM
 DMF     .          DRILL FLOOR                          :DRILLING MEASURED FROM
 DEPIN   .          4685                                 :DEPTH IN
 DEPOU   .          6737                                 :DEPTH OUT
 DCS     .          MAGNA SIRGAS - BOGOTA                :DATUM COORDINATES SYSTEM
 SLAT    .          08° 19' 25.746'' N                   :SUSFACE LATITUDE
 SLON    .          73° 39' 55.448'' W                   :SURFACE LONGITUDE
 SNOR    .          1412256.100 m                        :SURFACE NORTHING
 SEAS    .          1045395.680 m                        :SURFACE EASTING
 BLAT    .          08° 19' 54.030'' N                   :BOTTOM LATITUDE
 BLON    .          73° 39' 45.848'' W                   :BOTTOM LONGITUDE
 BNOR    .          1413125.37 m                         :BOTTOM NORTHING
 BEAS    .          1045688.52 m                         :BOTTOM EASTING
~Curve Information Section
#MNEM      .UNIT         CURVE DESCRIPTION
#----      .----         -------------------------
 DEPTH     .ft           :1 Depth Hole
 TVD       .ft           :2 True Vertical Depth
 GRIM      .unitless     :3 Gamma Ray Data Point Indicator
 GR1AFM    .API          :4 Gamma Ray 1 - Apparent Filtered
 RPCHM     .ohm.m        :5 Resistivity Phase - Corrected - 2MHz
 RPCLM     .ohm.m        :6 Resistivity Phase - Corrected - 400kHz
 RPHIM     .unitless     :7 Resistivity Phase - Data Point Indicator - 2MHz
 TCDM      .degF         :8 Downhole Temperature
 RPTHM     .min          :9 Resistivity Time Since Drilled
 SRSP_VSECT.ft           :10 Planar Vertical Section
 SRSP_NS   .ft           :11 Position North
 SRSP_EW   .ft           :12 Position East
 LAGGAS    .unit         :13 Total Gas - Lagged
~PARAMETER INFORMATION
#MNEM.UNIT                  VALUE                   DESCRIPTION
#----.----     ----------------------------------   --------------------
  DFT.         BRINE                                :Drilling Fluid Type
  DFD.LB/G           9.3000                         :Drilling Fluid Density
  DFV.S             17.0000                         :Drilling Fluid Viscosity
  MSS.         ACTIVE PIT                           :Mud Sample Source
  RMS.OHMM           0.0600                         :Resistivity Of Mud Sample
  MST.DEGF          69.7000                         :Mud Sample Temperature
  RMB.OHMM           0.0300                         :Mud Resistivity At Bht
  BHT.DEGF         144.6000                         :Bottom Hole Temperature
  TSC.         01-04-2015 @ 15		            :Time Since Circulation

  DFT.         BRINE                                :Drilling Fluid Type
  DFD.LB/G           9.6000                         :Drilling Fluid Density
  DFV.S             18.0000                         :Drilling Fluid Viscosity
  MSS.         ACTIVE PIT                           :Mud Sample Source
  RMS.OHMM           0.0600                         :Resistivity Of Mud Sample
  MST.DEGF          71.0000                         :Mud Sample Temperature
  RMB.OHMM           0.8600                         :Mud Resistivity At Bht
  BHT.DEGF         136.0000                         :Bottom Hole Temperature
  TSC.         05-04-2015 @ 11		            :Time Since Circulation
  
  MRT.DEGF          147.300                         :Maximum Recorded Temperature

~Other Information Section
#MUD PROPERTIES
  - DENSITY =  9.3 LB/G
  - PLASTIC VISCOSITY = 17.0 CP
  - CHLORIDES = 94000 MG/LT
  - YIELD POINT =  11 LBF/100 FT^2

  - DENSITY =  9.6 LB/G
  - PLASTIC VISCOSITY = 18.0 CP
  - CHLORIDES = 97000 MG/LT
  - YIELD POINT =  10 LBF/100 FT^2

~Other Information Section
Disclaimer
Any opinion and / or recommendation expressed orally or written herein, has been prepared
carefully and may be used if the user so elects, however, no representative or warranty is
made by ourselves or our agents as to the correctness or completeness, and no liability is
assumed for any damages resulting from use of the same.  Baker Hughes's liabilities and obligations
shall be governed by Baker Hughes's Standard Terms and Conditions.
Creator
Export
#----------------------------------------------------------------------
#
# Curve name cross reference:  XREF 'LAS Name' 'XTF Short Name' 'XTF Structured Name'
#
XREF DEPTH DEPTH DEPTH
XREF TVD TVD GEN.TVD
XREF GRIM GRIM GAM.GRIM
XREF GR1AFM GR1AFM FGAM.GR1AFM
XREF RPCHM RPCHM CRES.RPCHM
XREF RPCLM RPCLM CRES.RPCLM
XREF RPHIM RPHIM CRES.RPHIM
XREF TCDM TCDM GEN.TCDM
XREF RPTHM RPTHM CRES.RPTHM
XREF SRSP_VSECT SRSPVSEC SURVEY_STATION.SRSP_VSECT
XREF SRSP_NS SRSPNS SURVEY_STATION.SRSP_NS
XREF SRSP_EW SRSPEW SURVEY_STATION.SRSP_EW
XREF LAGGAS LAGGAS LAGMUD.LAGGAS

~A  DEPTH     TVD      GRIM     GR1AFM     RPCHM      RPCLM     RPHIM       TCDM     RPTHM   SRSP_VSECT  SRSP_NS    SRSP_EW   LAGGAS  
# ...
 5746.5000 4011.4600    1.0000   48.9000   348.4380 41706.7320    1.0000  139.6200    46.3000 2018.9400  1913.94344 662.29484 -999.2500
 5747.0000 4011.4600    1.0000   51.0000   382.9490 44519.9730    1.0000  139.6400    46.5000 2019.4400  1914.41742 662.45387  171.0000
 5747.5000 4011.4500    1.0000   53.2000  -999.2500  -999.2500 -999.2500  139.6600  -999.2500 2019.9400  1914.8914  662.6129  -999.2500
 5748.0000 4011.4500    1.0000   58.3000   401.4960 44519.9730    1.0000  139.6800    46.2000 2020.4400  1915.36538 662.77194  163.0000
 5748.5000 4011.4500    1.0000   61.5000   383.4740 44519.9730    1.0000  139.7000    46.1000 2020.9400  1915.83935 662.93097 -999.2500
 5749.0000 4011.4500    1.0000   62.9000   386.3180 44519.9730    1.0000  139.7400    46.0000 2021.4400  1916.31333 663.0900   160.0000
 5749.5000 4011.4500    1.0000   59.1000   370.7380 44519.9730    1.0000  139.7800    45.9000 2021.9400  1916.78731 663.24903 -999.2500
 5750.0000 4011.4400    1.0000   55.9000   353.1980 44519.9730    1.0000  139.8200    46.1000 2022.4400  1917.26129 663.40806  170.0000
 5750.5000 4011.4400    1.0000   54.0000   366.7670 44519.9730    1.0000  139.8600    46.3000 2022.9400  1917.73527 663.5671  -999.2500
 5751.0000 4011.4400    1.0000   58.7000   396.9510 44519.9730    1.0000  139.9000    46.5000 2023.4400  1918.20925 663.72613  161.0000
 5751.5000 4011.4400    1.0000   59.8000   387.1320 44519.9730    1.0000  139.91429   46.5000 2023.9400  1918.68323 663.88516 -999.2500
 5752.0000 4011.4300    1.0000   58.3000   378.1380 44519.9730    1.0000  139.92857   46.6000 2024.4400  1919.1572  664.04419  161.0000
 5752.5000 4011.4300    1.0000   57.2000   395.0280 44519.9730    1.0000  139.94286   46.6000 2024.9400  1919.63118 664.20323 -999.2500
 5753.0000 4011.4300    1.0000   58.2000   366.0160 44519.9730    1.0000  139.95714   46.7000 2025.4400  1920.10516 664.36226  164.0000
 5753.5000 4011.4300    1.0000   58.7000   355.8390 44519.9730    1.0000  139.97143   46.7000 2025.9400  1920.57914 664.52129 -999.2500
 5754.0000 4011.4300    1.0000   57.0000   358.6120 44519.9730    1.0000  139.98571   46.7000 2026.4400  1921.05312 664.68032  159.0000
 5754.5000 4011.4200    1.0000   56.5000   349.1670 44519.9730    1.0000  140.0000    46.8000 2026.9400  1921.5271  664.83935 -999.2500
 5755.0000 4011.4200    1.0000   58.7000   408.8160 44519.9730    1.0000  140.0200    46.9000 2027.4400  1922.00108 664.99839  168.0000
 5755.5000 4011.4200    1.0000   59.2000   403.9910 44519.9730    1.0000  140.0400    47.0000 2027.9400  1922.47505 665.15742 -999.2500
 5756.0000 4011.4100    1.0000   62.6000   394.4970 44519.9730    1.0000  140.0600    46.9000 2028.4400  1922.94903 665.31645  169.0000
 5756.5000 4011.4100    1.0000   61.8000   385.6010 44519.9730    1.0000  140.0800    46.9000 2028.9400  1923.42301 665.47548 -999.2500
 5757.0000 4011.4100    1.0000   60.7000   361.5850 44519.9730    1.0000  140.1000    46.8000 2029.4400  1923.89699 665.63452  163.0000
 5757.5000 4011.4100    1.0000   60.7000   368.5630 44519.9730    1.0000  140.11667   46.8000 2029.9400  1924.37097 665.79355 -999.2500
 5758.0000 4011.4000    1.0000   59.5000   367.9010 44519.9730    1.0000  140.13333   46.5000 2030.4400  1924.84495 665.95258  170.0000
 5758.5000 4011.4000    1.0000   58.5000   350.6820 44519.9730    1.0000  140.1500    46.5000 2030.9400  1925.31892 666.11161 -999.2500
 5759.0000 4011.4000    1.0000   60.3000   413.7120 44519.9730    1.0000  140.16667   46.5000 2031.4400  1925.7929  666.27065  162.0000
 5759.5000 4011.4000    1.0000   60.2000   400.6820 44519.9730    1.0000  140.18333   46.3000 2031.9400  1926.26688 666.42968 -999.2500
 5760.0000 4011.3900    1.0000   56.4000   366.8520 44519.9730    1.0000  140.2000    46.2000 2032.4400  1926.74086 666.58871   65.0000
 5760.5000 4011.3900    1.0000   52.7000   351.3580 44519.9730    1.0000  140.2200    46.2000 2032.9400  1927.21484 666.74774 -999.2500
 5761.0000 4011.3900    1.0000   53.6000   373.0350 44519.9730    1.0000  140.2400    46.1000 2033.4400  1927.68882 666.90677   29.0000
 5761.5000 4011.3800    1.0000   55.2000   349.7790 44519.9730    1.0000  140.2600    46.3000 2033.9400  1928.1628  667.06581 -999.2500
 5762.0000 4011.3800    1.0000   55.7000   392.1340 39852.6360    1.0000  140.2800    46.4000 2034.4400  1928.63677 667.22484   19.0000
 5762.5000 4011.3800    1.0000   57.7000   361.5820 44519.9730    1.0000  140.3000    46.4000 2034.9400  1929.11075 667.38387 -999.2500
 5763.0000 4011.3800    1.0000   56.5000   382.8270 44519.9730    1.0000  140.3200    46.5000 2035.4400  1929.58473 667.5429    15.0000
 5763.5000 4011.3700    1.0000   55.5000   404.3590 44519.9730    1.0000  140.3400    46.3000 2035.9400  1930.05871 667.70194 -999.2500
 5764.0000 4011.3700    1.0000   55.8000   370.6820 44519.9730    1.0000  140.3600    46.3000 2036.4400  1930.53269 667.86097   19.0000
 5764.5000 4011.3700    1.0000   54.7000   344.6390 44519.9730    1.0000  140.3800    46.5000 2036.9400  1931.00667 668.0200  -999.2500
 5765.0000 4011.3600    1.0000   55.6000   351.4410 44519.9730    1.0000  140.4000    46.4000 2037.4400  1931.48065 668.17903   15.0000
 5765.5000 4011.3600    1.0000   55.3000   339.9240 44519.9730    1.0000  140.4250    46.3000 2037.9400  1931.95462 668.33806 -999.2500
 5766.0000 4011.3600    1.0000   53.6000   359.1070 41003.4210    1.0000  140.4500    46.2000 2038.4400  1932.4286  668.4971    13.0000
 5766.5000 -999.2500    1.0000   55.0000   352.3050 44519.9730    1.0000  140.4750    45.9000 2038.9400  1932.90258 668.65613 -999.2500
 5767.0000 4011.3500    1.0000   54.6000   374.4870 44519.9730    1.0000  140.5000    45.9000 2039.4400  1933.37656 668.81516   10.0000
 5767.5000 4011.3500    1.0000   54.9000   384.4150 44519.9730    1.0000  140.5200    45.9000 2039.9400  1933.85054 668.97419 -999.2500
 5768.0000 4011.3400    1.0000   53.3000   360.6340 44519.9730    1.0000  140.5400    45.8000 2040.4400  1934.32452 669.13323    8.0000
 5768.5000 4011.3400    1.0000   51.5000   355.6940 44519.9730    1.0000  140.5600    45.7000 2040.9400  1934.79849 669.29226 -999.2500
 5769.0000 4011.3400    1.0000   52.7000   342.3880 44519.9730    1.0000  140.5800    45.7000 2041.4400  1935.27247 669.45129   10.0000
 5769.5000 4011.3300    1.0000   55.2000   343.4780 41003.4210    1.0000  140.6000    45.8000 2041.9400  1935.74645 669.61032 -999.2500
 5770.0000 4011.3300    1.0000   55.3000   362.7630 44519.9730    1.0000  140.6200    45.7000 2042.4400  1936.22043 669.76935   10.0000
 5770.5000 4011.3300    1.0000   53.6000   383.8390 44519.9730    1.0000  140.6400    45.7000 2042.9400  1936.69441 669.92839 -999.2500
 5771.0000 4011.3200    1.0000   49.9000   384.3170 41706.7320    1.0000  140.6600    45.4000 2043.4400  1937.16839 670.08742 -999.2500
 5771.5000 4011.3200    1.0000   49.7000   384.6240 44519.9730    1.0000  140.6800    45.1000 2043.9400  1937.64237 670.24645 -999.2500
 5772.0000 4011.3200    1.0000   49.6000   364.5020 44519.9730    1.0000  140.7000    45.0000 2044.4400  1938.11634 670.40548 -999.2500
 5772.5000 4011.3100    1.0000   51.0000   341.9660 44519.9730    1.0000  140.7000    44.8000 2044.9400  1938.59032 670.56452 -999.2500
 5773.0000 4011.3100    1.0000   51.7000   331.8690 44519.9730    1.0000  140.7000    44.8000 2045.4400  1939.0643  670.72355    8.0000
 5773.5000 4011.3100    1.0000   50.6000   324.8520 40341.7600    1.0000  140.7000    44.9000 2045.9400  1939.53828 670.88258 -999.2500
 5774.0000 4011.3000    1.0000   47.3000   352.1570 44519.9730    1.0000  140.7000    45.1000 2046.4400  1940.01226 671.04161    7.0000
 5774.5000 4011.3000    1.0000   47.6000   353.8930 42175.6050    1.0000  140.7200    45.3000 2046.9400  1940.48624 671.20065 -999.2500
 5775.0000 4011.3000    1.0000   49.6000   402.2810 44519.9730    1.0000  140.7400    45.7000 2047.4400  1940.96022 671.35968    7.0000
 5775.5000 4011.2900    1.0000   47.9000   353.5960 44519.9730    1.0000  140.7600    45.7000 2047.9400  1941.43419 671.51871 -999.2500
