~Version Information Section
 VERS.      2.0         :CWLS LOG ASCII STANDARD -VERSION 2.0
 WRAP.      No          :SINGLE LINE PER DEPTH STEP
~Well Information Section
#MNEM.UNIT                      VALUE/NAME                 DESCRIPTION
#----.----     ----------------------------------   --------------------
 STRT    .ft           4655.0000                         :Start Depth
 STOP    .ft           6737.0000                         :Stop  Depth
 STEP    .ft              0.5000                         :Step  Depth
 NULL    .             -999.2500                         :Null value
 COMP    .          LEWIS ENERGY                         :Company Name
 WELL    .          Toposi 2H ST                         :Well Name
 PATH    .                                               :Path Name
 FLD     .          TOPOSI                               :Field Name
 LOC     .          TOPOSI                               :Location
 PROV    .          Unused                               :Province
 SRVC    .          BAKER HUGHES INTEQ                   :Service Company Name
 DATE    .          09/04/2015-14                        :28:47 SA Pacific Standard Time: System Date
 UWI     .                                               :Unique Well ID
 TIMEZONE.Hrs            -5.0000                         :Time zone difference from GMT
 PDAT    .          M.S.L                                :PERMANET DATUM
 EDF     .ft            278.6600                         :ELEVATION OF DRILL FLOOR
 EGL     .ft            256.7300                         :ELEVATION OF GROUD LEVEL
 LMF     .          R.T                                  :LOG MEASURED FROM
 APD     .          ft                  21.93            :ABOVE PERMANET DATUM
 DMF     .          DRILL FLOOR                          :DRILLING MEASURED FROM
 DEPIN   .          4685                                 :DEPTH IN
 DEPOU   .          6737                                 :DEPTH OUT
 DCS     .          MAGNA SIRGAS - BOGOTA                :DATUM COORDINATES SYSTEM
 SLAT    .          08° 19' 25.746'' N                   :SUSFACE LATITUDE
 SLON    .          73° 39' 55.448'' W                   :SURFACE LONGITUDE
 SNOR    .          1412256.100 m                        :SURFACE NORTHING
 SEAS    .          1045395.680 m                        :SURFACE EASTING
 BLAT    .          08° 19' 54.030'' N                   :BOTTOM LATITUDE
 BLON    .          73° 39' 45.848'' W                   :BOTTOM LONGITUDE
 BNOR    .          1413125.37 m                         :BOTTOM NORTHING
 BEAS    .          1045688.52 m                         :BOTTOM EASTING
~Curve Information Section
#MNEM      .UNIT         CURVE DESCRIPTION
#----      .----         -------------------------
 DEPTH     .ft           :1 Depth Hole
 TVD       .ft           :2 True Vertical Depth
 GRIM      .unitless     :3 Gamma Ray Data Point Indicator
 GR1AFM    .API          :4 Gamma Ray 1 - Apparent Filtered
 RPCHM     .ohm.m        :5 Resistivity Phase - Corrected - 2MHz
 RPCLM     .ohm.m        :6 Resistivity Phase - Corrected - 400kHz
 RPHIM     .unitless     :7 Resistivity Phase - Data Point Indicator - 2MHz
 TCDM      .degF         :8 Downhole Temperature
 RPTHM     .min          :9 Resistivity Time Since Drilled
 SRSP_VSECT.ft           :10 Planar Vertical Section
 SRSP_NS   .ft           :11 Position North
 SRSP_EW   .ft           :12 Position East
 LAGGAS    .unit         :13 Total Gas - Lagged
~PARAMETER INFORMATION
#MNEM.UNIT                  VALUE                   DESCRIPTION
#----.----     ----------------------------------   --------------------
  DFT.         BRINE                                :Drilling Fluid Type
  DFD.LB/G           9.3000                         :Drilling Fluid Density
  DFV.S             17.0000                         :Drilling Fluid Viscosity
  MSS.         ACTIVE PIT                           :Mud Sample Source
  RMS.OHMM           0.0600                         :Resistivity Of Mud Sample
  MST.DEGF          69.7000                         :Mud Sample Temperature
  RMB.OHMM           0.0300                         :Mud Resistivity At Bht
  BHT.DEGF         144.6000                         :Bottom Hole Temperature
  TSC.         01-04-2015 @ 15		            :Time Since Circulation

  DFT.         BRINE                                :Drilling Fluid Type
  DFD.LB/G           9.6000                         :Drilling Fluid Density
  DFV.S             18.0000                         :Drilling Fluid Viscosity
  MSS.         ACTIVE PIT                           :Mud Sample Source
  RMS.OHMM           0.0600                         :Resistivity Of Mud Sample
  MST.DEGF          71.0000                         :Mud Sample Temperature
  RMB.OHMM           0.8600                         :Mud Resistivity At Bht
  BHT.DEGF         136.0000                         :Bottom Hole Temperature
  TSC.         05-04-2015 @ 11		            :Time Since Circulation
  
  MRT.DEGF          147.300                         :Maximum Recorded Temperature

~Other Information Section
#MUD PROPERTIES
  - DENSITY =  9.3 LB/G
  - PLASTIC VISCOSITY = 17.0 CP
  - CHLORIDES = 94000 MG/LT
  - YIELD POINT =  11 LBF/100 FT^2

  - DENSITY =  9.6 LB/G
  - PLASTIC VISCOSITY = 18.0 CP
  - CHLORIDES = 97000 MG/LT
  - YIELD POINT =  10 LBF/100 FT^2

~Other Information Section
Disclaimer
Any opinion and / or recommendation expressed orally or written herein, has been prepared
carefully and may be used if the user so elects, however, no representative or warranty is
made by ourselves or our agents as to the correctness or completeness, and no liability is
assumed for any damages resulting from use of the same.  Baker Hughes's liabilities and obligations
shall be governed by Baker Hughes's Standard Terms and Conditions.
Creator
Export
#----------------------------------------------------------------------
#
# Curve name cross reference:  XREF 'LAS Name' 'XTF Short Name' 'XTF Structured Name'
#
XREF DEPTH DEPTH DEPTH
XREF TVD TVD GEN.TVD
XREF GRIM GRIM GAM.GRIM
XREF GR1AFM GR1AFM FGAM.GR1AFM
XREF RPCHM RPCHM CRES.RPCHM
XREF RPCLM RPCLM CRES.RPCLM
XREF RPHIM RPHIM CRES.RPHIM
XREF TCDM TCDM GEN.TCDM
XREF RPTHM RPTHM CRES.RPTHM
XREF SRSP_VSECT SRSPVSEC SURVEY_STATION.SRSP_VSECT
XREF SRSP_NS SRSPNS SURVEY_STATION.SRSP_NS
XREF SRSP_EW SRSPEW SURVEY_STATION.SRSP_EW
XREF LAGGAS LAGGAS LAGMUD.LAGGAS

~A  DEPTH     TVD      GRIM     GR1AFM     RPCHM      RPCLM     RPHIM       TCDM     RPTHM   SRSP_VSECT  SRSP_NS    SRSP_EW   LAGGAS  
# ...
 5068.0000 4015.8100    1.0000   31.8000  -999.2500  -999.2500 -999.2500  132.37143 -999.2500 1340.49521 1270.22287 447.95755  113.0000
 5068.5000 -999.2500    1.0000   33.3000   569.8430 44519.9730    1.0000  132.38571  103.7000 1340.99516 1270.6959  448.11941 -999.2500
 5069.0000 4015.7900    1.0000   34.0000   456.0300 44519.9730    1.0000  132.4000   104.2000 1341.49511 1271.16894 448.28128   34.0000
 5069.5000 -999.2500    1.0000   33.7000   503.5160 44519.9730    1.0000  132.32857  104.5000 1341.99505 1271.64197 448.44314 -999.2500
 5070.0000 4015.7800    1.0000   33.3000   480.9980 44519.9730    1.0000  132.25714  104.5000 1342.4950  1272.1150  448.6050    25.0000
 5070.5000 4015.7800    1.0000   36.3000   563.6610 44519.9730    1.0000  132.18571   80.9000 1342.99495 1272.58803 448.76686 -999.2500
 5071.0000 4015.7700    1.0000   36.1000   600.2390 44519.9730    1.0000  132.11429   80.7000 1343.49489 1273.06106 448.92872   25.0000
 5071.5000 4015.7600    1.0000   38.0000   535.9940 44519.9730    1.0000  132.04286   80.8000 1343.99484 1273.5341  449.09059 -999.2500
 5072.0000 4015.7600    1.0000   41.0000   524.2300 44519.9730    1.0000  131.97143   80.8000 1344.49479 1274.00713 449.25245   16.0000
 5072.5000 4015.7500    1.0000   42.1000   520.3890 44519.9730    1.0000  131.9000    81.2000 1344.99473 1274.48016 449.41431 -999.2500
 5073.0000 4015.7400    1.0000   46.5000   470.8840 44519.9730    1.0000  131.9200    81.1000 1345.49468 1274.95319 449.57617   15.0000
 5073.5000 4015.7400    1.0000   46.6000  -999.2500  -999.2500 -999.2500  131.9400  -999.2500 1345.99463 1275.42622 449.73803 -999.2500
 5074.0000 4015.7300    1.0000   44.3000   478.4200 44519.9730    1.0000  131.9600    81.0000 1346.49457 1275.89926 449.89989   13.0000
 5074.5000 4015.7200    1.0000   43.2000   505.2430 44519.9730    1.0000  131.9800    81.4000 1346.99452 1276.37229 450.06176 -999.2500
 5075.0000 4015.7200 -999.2500   43.8000   568.3660 41604.8010    1.0000  132.0000    83.4000 1347.49447 1276.84532 450.22362    8.0000
 5075.5000 4015.7100    1.0000   46.8000   526.6450 44519.9730    1.0000  132.0200    83.8000 1347.99441 1277.31835 450.38548 -999.2500
 5076.0000 4015.7000    1.0000   48.3000   544.0930 44519.9730    1.0000  132.0400    84.1000 1348.49436 1277.79138 450.54734    7.0000
 5076.5000 4015.7000    1.0000   51.5000   540.7200 44519.9730    1.0000  132.0600    84.3000 1348.99431 1278.26441 450.7092  -999.2500
 5077.0000 4015.6900    1.0000   56.8000   492.5160 44519.9730    1.0000  132.0800    84.2000 1349.49426 1278.73745 450.87106    6.0000
 5077.5000 4015.6900    1.0000   66.5000   480.1930 44519.9730    1.0000  132.1000    84.0000 1349.9942  1279.21048 451.03293 -999.2500
 5078.0000 4015.6800    1.0000   69.7000   533.9500 44519.9730    1.0000  132.1000    84.2000 1350.49415 1279.68351 451.19479   10.0000
 5078.5000 4015.6700    1.0000   68.3000   440.2970 44519.9730    1.0000  132.1200    84.3000 1350.9941  1280.15654 451.35665 -999.2500
 5079.0000 4015.6700    1.0000   60.7000   648.6710 44519.9730    1.0000  132.1400    84.3000 1351.49404 1280.62957 451.51851    5.0000
 5079.5000 4015.6600    1.0000   57.7000   570.4020 44519.9730    1.0000  132.1600    84.1000 1351.99399 1281.10261 451.68037 -999.2500
 5080.0000 4015.6500    1.0000   57.2000   460.5310 44519.9730    1.0000  132.1800    84.1000 1352.49394 1281.57564 451.84223    5.0000
 5080.5000 4015.6400    1.0000   57.3000   418.3750 41076.3940    1.0000  132.2000    84.2000 1352.99388 1282.04867 452.0041  -999.2500
 5081.0000 4015.6400    1.0000   60.8000   571.9680 44519.9730    1.0000  132.3000    84.0000 1353.49383 1282.5217  452.16596    6.0000
 5081.5000 4015.6400    1.0000   65.8000   560.6200 44519.9730    1.0000  132.4000    77.0000 1353.99378 1282.99473 452.32782 -999.2500
 5082.0000 4015.6300    1.0000   73.7000   564.7360 44519.9730    1.0000  132.3500    74.7000 1354.49372 1283.46777 452.48968    6.0000
 5082.5000 4015.6200    1.0000   76.3000   511.0540 44519.9730    1.0000  132.3000    73.7000 1354.99367 1283.9408  452.65154 -999.2500
 5083.0000 4015.6200    1.0000   70.9000   558.0680 44519.9730    1.0000  132.3000    72.6000 1355.49362 1284.41383 452.8134     7.0000
 5083.5000 4015.6100    1.0000   67.2000  -999.2500  -999.2500 -999.2500  132.3000  -999.2500 1355.99356 1284.88686 452.97527 -999.2500
 5084.0000 4015.6000    1.0000   63.4000   447.6710 44519.9730    1.0000  132.2500    69.0000 1356.49351 1285.35989 453.13713    5.0000
 5084.5000 4015.6000    1.0000   60.9000   507.5250 44519.9730    1.0000  132.2000    68.3000 1356.99346 1285.83293 453.29899 -999.2500
 5085.0000 4015.5900    1.0000   56.8000   547.4290 44519.9730    1.0000  132.2000    66.3000 1357.4934  1286.30596 453.46085    5.0000
 5085.5000 4015.5900    1.0000   55.3000   473.2050 44519.9730    1.0000  132.12222   65.2000 1357.99335 1286.77899 453.62271 -999.2500
 5086.0000 4015.5800    1.0000   54.6000   521.4890 44519.9730    1.0000  132.04444   63.9000 1358.4933  1287.25202 453.78457    7.0000
 5086.5000 4015.5800    1.0000   55.5000   502.6960 44519.9730    1.0000  131.96667   62.7000 1358.99324 1287.72505 453.94644 -999.2500
 5087.0000 4015.5700    1.0000   56.5000   481.6550 44519.9730    1.0000  131.88889   61.4000 1359.49319 1288.19809 454.1083     7.0000
 5087.5000 4015.5600    1.0000   56.9000   494.3240 44519.9730    1.0000  131.81111   59.8000 1359.99314 1288.67112 454.27016 -999.2500
 5088.0000 4015.5600    1.0000   51.2000   508.3700 44519.9730    1.0000  131.73333   59.0000 1360.49309 1289.14415 454.43202   10.0000
 5088.5000 4015.5500    1.0000   46.3000   507.2330 44519.9730    1.0000  131.65556   58.7000 1360.99303 1289.61718 454.59388 -999.2500
 5089.0000 4015.5500    1.0000   41.4000   560.5720 44519.9730    1.0000  131.57778   56.3000 1361.49298 1290.09021 454.75574   11.0000
 5089.5000 4015.5400 -999.2500   40.2000   512.5210 44519.9730    1.0000  131.5000    56.1000 1361.99293 1290.56324 454.91761 -999.2500
 5090.0000 4015.5300    1.0000   39.0000   515.7310 44519.9730    1.0000  131.4750    55.5000 1362.49287 1291.03628 455.07947    7.0000
 5090.5000 4015.5300    1.0000   34.8000   530.7270 44519.9730    1.0000  131.4500    54.4000 1362.99282 1291.50931 455.24133 -999.2500
 5091.0000 4015.5200    1.0000   35.4000   502.6520 44519.9730    1.0000  131.4250    54.5000 1363.49277 1291.98234 455.40319   11.0000
 5091.5000 4015.5200 -999.2500   37.9000   488.8330 44519.9730    1.0000  131.4000    54.3000 1363.99271 1292.45537 455.56505 -999.2500
 5092.0000 -999.2500    1.0000   38.6000   556.4110 44519.9730    1.0000  131.3500    54.2000 1364.49266 1292.9284  455.72691    9.0000
 5092.5000 4015.5000    1.0000   35.9000   517.5810 44519.9730    1.0000  131.3000    54.2000 1364.99261 1293.40144 455.88878 -999.2500
 5093.0000 4015.5000    1.0000   34.7000   507.2580 44519.9730    1.0000  131.3000    53.7000 1365.49255 1293.87447 456.05064    7.0000
 5093.5000 4015.4900    1.0000   34.8000   550.3650 44519.9730    1.0000  131.3000    53.3000 1365.9925  1294.3475  456.2125  -999.2500
 5094.0000 4015.4900    1.0000   34.3000   536.2560 44519.9730    1.0000  131.3000    53.5000 1366.49245 1294.82053 456.37436    9.0000
 5094.5000 4015.4800    1.0000   32.9000   513.7230 44519.9730    1.0000  131.3000    53.2000 1366.99239 1295.29356 456.53622 -999.2500
 5095.0000 -999.2500    1.0000   31.6000   508.5600 44519.9730    1.0000  131.3000    52.9000 1367.49234 1295.7666  456.69809   10.0000
 5095.5000 4015.4700    1.0000   32.9000   518.5580 44519.9730    1.0000  131.3000    53.0000 1367.99229 1296.23963 456.85995 -999.2500
 5096.0000 4015.4700    1.0000   35.7000   462.0810 44519.9730    1.0000  131.3000    52.5000 1368.49223 1296.71266 457.02181   13.0000
 5096.5000 -999.2500    1.0000   36.5000   537.1230 44519.9730    1.0000  131.3000    52.3000 1368.99218 1297.18569 457.18367 -999.2500
 5097.0000 4015.4500 -999.2500   37.1000   510.3240 44519.9730    1.0000  131.3000    52.0000 1369.49213 1297.65872 457.34553   13.0000
