~Version Information Section
 VERS.      2.0         :CWLS LOG ASCII STANDARD -VERSION 2.0
 WRAP.      No          :SINGLE LINE PER DEPTH STEP
~Well Information Section
#MNEM.UNIT                      VALUE/NAME                 DESCRIPTION
#----.----     ----------------------------------   --------------------
 STRT    .ft           4655.0000                         :Start Depth
 STOP    .ft           6737.0000                         :Stop  Depth
 STEP    .ft              0.5000                         :Step  Depth
 NULL    .             -999.2500                         :Null value
 COMP    .          LEWIS ENERGY                         :Company Name
 WELL    .          Toposi 2H ST                         :Well Name
 PATH    .                                               :Path Name
 FLD     .          TOPOSI                               :Field Name
 LOC     .          TOPOSI                               :Location
 PROV    .          Unused                               :Province
 SRVC    .          BAKER HUGHES INTEQ                   :Service Company Name
 DATE    .          09/04/2015-14                        :28:47 SA Pacific Standard Time: System Date
 UWI     .                                               :Unique Well ID
 TIMEZONE.Hrs            -5.0000                         :Time zone difference from GMT
 PDAT    .          M.S.L                                :PERMANET DATUM
 EDF     .ft            278.6600                         :ELEVATION OF DRILL FLOOR
 EGL     .ft            256.7300                         :ELEVATION OF GROUD LEVEL
 LMF     .          R.T                                  :LOG MEASURED FROM
 APD     .          ft                  21.93            :ABOVE PERMANET DATUM
 DMF     .          DRILL FLOOR                          :DRILLING MEASURED FROM
 DEPIN   .          4685                                 :DEPTH IN
 DEPOU   .          6737                                 :DEPTH OUT
 DCS     .          MAGNA SIRGAS - BOGOTA                :DATUM COORDINATES SYSTEM
 SLAT    .          08° 19' 25.746'' N                   :SUSFACE LATITUDE
 SLON    .          73° 39' 55.448'' W                   :SURFACE LONGITUDE
 SNOR    .          1412256.100 m                        :SURFACE NORTHING
 SEAS    .          1045395.680 m                        :SURFACE EASTING
 BLAT    .          08° 19' 54.030'' N                   :BOTTOM LATITUDE
 BLON    .          73° 39' 45.848'' W                   :BOTTOM LONGITUDE
 BNOR    .          1413125.37 m                         :BOTTOM NORTHING
 BEAS    .          1045688.52 m                         :BOTTOM EASTING
~Curve Information Section
#MNEM      .UNIT         CURVE DESCRIPTION
#----      .----         -------------------------
 DEPTH     .ft           :1 Depth Hole
 TVD       .ft           :2 True Vertical Depth
 GRIM      .unitless     :3 Gamma Ray Data Point Indicator
 GR1AFM    .API          :4 Gamma Ray 1 - Apparent Filtered
 RPCHM     .ohm.m        :5 Resistivity Phase - Corrected - 2MHz
 RPCLM     .ohm.m        :6 Resistivity Phase - Corrected - 400kHz
 RPHIM     .unitless     :7 Resistivity Phase - Data Point Indicator - 2MHz
 TCDM      .degF         :8 Downhole Temperature
 RPTHM     .min          :9 Resistivity Time Since Drilled
 SRSP_VSECT.ft           :10 Planar Vertical Section
 SRSP_NS   .ft           :11 Position North
 SRSP_EW   .ft           :12 Position East
 LAGGAS    .unit         :13 Total Gas - Lagged
~PARAMETER INFORMATION
#MNEM.UNIT                  VALUE                   DESCRIPTION
#----.----     ----------------------------------   --------------------
  DFT.         BRINE                                :Drilling Fluid Type
  DFD.LB/G           9.3000                         :Drilling Fluid Density
  DFV.S             17.0000                         :Drilling Fluid Viscosity
  MSS.         ACTIVE PIT                           :Mud Sample Source
  RMS.OHMM           0.0600                         :Resistivity Of Mud Sample
  MST.DEGF          69.7000                         :Mud Sample Temperature
  RMB.OHMM           0.0300                         :Mud Resistivity At Bht
  BHT.DEGF         144.6000                         :Bottom Hole Temperature
  TSC.         01-04-2015 @ 15		            :Time Since Circulation

  DFT.         BRINE                                :Drilling Fluid Type
  DFD.LB/G           9.6000                         :Drilling Fluid Density
  DFV.S             18.0000                         :Drilling Fluid Viscosity
  MSS.         ACTIVE PIT                           :Mud Sample Source
  RMS.OHMM           0.0600                         :Resistivity Of Mud Sample
  MST.DEGF          71.0000                         :Mud Sample Temperature
  RMB.OHMM           0.8600                         :Mud Resistivity At Bht
  BHT.DEGF         136.0000                         :Bottom Hole Temperature
  TSC.         05-04-2015 @ 11		            :Time Since Circulation
  
  MRT.DEGF          147.300                         :Maximum Recorded Temperature

~Other Information Section
#MUD PROPERTIES
  - DENSITY =  9.3 LB/G
  - PLASTIC VISCOSITY = 17.0 CP
  - CHLORIDES = 94000 MG/LT
  - YIELD POINT =  11 LBF/100 FT^2

  - DENSITY =  9.6 LB/G
  - PLASTIC VISCOSITY = 18.0 CP
  - CHLORIDES = 97000 MG/LT
  - YIELD POINT =  10 LBF/100 FT^2

~Other Information Section
Disclaimer
Any opinion and / or recommendation expressed orally or written herein, has been prepared
carefully and may be used if the user so elects, however, no representative or warranty is
made by ourselves or our agents as to the correctness or completeness, and no liability is
assumed for any damages resulting from use of the same.  Baker Hughes's liabilities and obligations
shall be governed by Baker Hughes's Standard Terms and Conditions.
Creator
Export
#----------------------------------------------------------------------
#
# Curve name cross reference:  XREF 'LAS Name' 'XTF Short Name' 'XTF Structured Name'
#
XREF DEPTH DEPTH DEPTH
XREF TVD TVD GEN.TVD
XREF GRIM GRIM GAM.GRIM
XREF GR1AFM GR1AFM FGAM.GR1AFM
XREF RPCHM RPCHM CRES.RPCHM
XREF RPCLM RPCLM CRES.RPCLM
XREF RPHIM RPHIM CRES.RPHIM
XREF TCDM TCDM GEN.TCDM
XREF RPTHM RPTHM CRES.RPTHM
XREF SRSP_VSECT SRSPVSEC SURVEY_STATION.SRSP_VSECT
XREF SRSP_NS SRSPNS SURVEY_STATION.SRSP_NS
XREF SRSP_EW SRSPEW SURVEY_STATION.SRSP_EW
XREF LAGGAS LAGGAS LAGMUD.LAGGAS

~A  DEPTH     TVD      GRIM     GR1AFM     RPCHM      RPCLM     RPHIM       TCDM     RPTHM   SRSP_VSECT  SRSP_NS    SRSP_EW   LAGGAS  
# ...
 4920.5000 4018.1800 -999.2500  105.0000   427.4440 44519.9730    1.0000  129.8500    28.8000 1193.01474 1130.89474 399.59132 -999.2500
 4921.0000 4018.1800    1.0000  106.1000   716.2890 44519.9730    1.0000  129.8250    27.9000 1193.51442 1131.36242 399.76789  456.0000
 4921.5000 4018.1700 -999.2500  101.6000   562.7830 44519.9730    1.0000  129.8000    27.3000 1194.01411 1131.83011 399.94447 -999.2500
 4922.0000 4018.1600    1.0000  103.8000   721.8280 44519.9730    1.0000  129.8000    28.0000 1194.51379 1132.29779 400.12105  331.0000
 4922.5000 4018.1600    1.0000  101.8000   772.4160 44519.9730    1.0000  129.8000    27.1000 1195.01347 1132.76547 400.29763 -999.2500
 4923.0000 4018.1500    1.0000  104.3000   884.6690 44519.9730    1.0000  129.8000    26.0000 1195.51316 1133.23316 400.47421  296.0000
 4923.5000 4018.1400    1.0000  102.2000  -999.2500  -999.2500 -999.2500  129.8000  -999.2500 1196.01284 1133.70084 400.65079 -999.2500
 4924.0000 4018.1300    1.0000  120.5000   615.0780 44519.9730    1.0000  129.8000    27.4000 1196.51253 1134.16853 400.82737  273.0000
 4924.5000 4018.1300    1.0000  132.1000   482.0790 44519.9730    1.0000  129.8000    27.7000 1197.01221 1134.63621 401.00395 -999.2500
 4925.0000 4018.1200    1.0000  112.1000  -999.2500  -999.2500 -999.2500  129.8000  -999.2500 1197.51189 1135.10389 401.18053  256.0000
 4925.5000 4018.1100    1.0000   90.4000   310.3690 20888.6470    1.0000  129.8000    28.4000 1198.01158 1135.57158 401.35711 -999.2500
 4926.0000 4018.1000    1.0000   82.5000   371.2480 44519.9730    1.0000  129.8000    28.7000 1198.51126 1136.03926 401.53368  254.0000
 4926.5000 4018.0900    1.0000   79.8000   813.8840 44519.9730    1.0000  129.8000    29.1000 1199.01095 1136.50695 401.71026 -999.2500
 4927.0000 4018.0900    1.0000   80.8000   730.7510 44519.9730    1.0000  129.8000    29.3000 1199.51063 1136.97463 401.88684  254.0000
 4927.5000 4018.0900    1.0000   84.1000  -999.2500  -999.2500 -999.2500  129.8000  -999.2500 1200.01032 1137.44232 402.06342 -999.2500
 4928.0000 4018.0800    1.0000   88.5000   701.8090 44519.9730    1.0000  129.8000    29.8000 1200.5100  1137.9100  402.2400   275.0000
 4928.5000 4018.0700    1.0000   98.4000   666.2510 44519.9730    1.0000  129.8000    29.9000 1201.00995 1138.38232 402.40395 -999.2500
 4929.0000 4018.0600    1.0000   99.8000  -999.2500  -999.2500 -999.2500  129.8000  -999.2500 1201.50989 1138.85463 402.56789  306.0000
 4929.5000 4018.0600    1.0000   95.1000   325.7460 44519.9730    1.0000  129.8000    30.6000 1202.00984 1139.32695 402.73184 -999.2500
 4930.0000 4018.0500    1.0000   87.3000  -999.2500  -999.2500 -999.2500  129.8000  -999.2500 1202.50979 1139.79926 402.89579  325.0000
 4930.5000 4018.0400    1.0000   87.3000   559.8030 44519.9730    1.0000  129.8000    31.4000 1203.00974 1140.27158 403.05974 -999.2500
 4931.0000 4018.0300    1.0000   89.3000   646.9160 44519.9730    1.0000  129.8000    31.4000 1203.50968 1140.74389 403.22368  390.0000
 4931.5000 4018.0200    1.0000   94.3000   600.5190 44519.9730    1.0000  129.8000    31.7000 1204.00963 1141.21621 403.38763 -999.2500
 4932.0000 4018.0200    1.0000   95.3000   534.5580 44519.9730    1.0000  129.8200    32.2000 1204.50958 1141.68853 403.55158  448.0000
 4932.5000 4018.0100    1.0000   96.7000   618.8570 44519.9730    1.0000  129.8400    31.9000 1205.00953 1142.16084 403.71553 -999.2500
 4933.0000 4018.0000    1.0000  104.4000   540.5100 44519.9730    1.0000  129.8600    32.3000 1205.50947 1142.63316 403.87947  476.0000
 4933.5000 4017.9900    1.0000  114.6000   573.9340 44519.9730    1.0000  129.8800    32.6000 1206.00942 1143.10547 404.04342 -999.2500
 4934.0000 4017.9900 -999.2500  116.4000   648.6160 44519.9730    1.0000  129.9000    32.7000 1206.50937 1143.57779 404.20737  501.0000
 4934.5000 4017.9800 -999.2500  117.2000   598.5010 44519.9730    1.0000  129.9200    32.7000 1207.00932 1144.05011 404.37132 -999.2500
 4935.0000 4017.9800    1.0000  116.0000   587.4970 44519.9730    1.0000  129.9400    32.8000 1207.50926 1144.52242 404.53526  514.0000
 4935.5000 4017.9700    1.0000  105.5000   640.1480 44519.9730    1.0000  129.9600    32.9000 1208.00921 1144.99474 404.69921 -999.2500
 4936.0000 4017.9600    1.0000  100.6000   608.4300 44519.9730    1.0000  129.9800    32.9000 1208.50916 1145.46705 404.86316  515.0000
 4936.5000 4017.9500    1.0000   89.1000   535.6420 44519.9730    1.0000  130.0000    33.1000 1209.00911 1145.93937 405.02711 -999.2500
 4937.0000 4017.9400    1.0000   81.6000   611.2460 44519.9730    1.0000  130.01111   33.2000 1209.50905 1146.41168 405.19105  501.0000
 4937.5000 4017.9400    1.0000   77.0000   603.8070 44519.9730    1.0000  130.02222   33.5000 1210.0090  1146.8840  405.3550  -999.2500
 4938.0000 4017.9300    1.0000   80.3000   585.9710 44519.9730    1.0000  130.03333   33.6000 1210.50895 1147.35632 405.51895  478.0000
 4938.5000 4017.9200    1.0000   83.7000   586.2110 44519.9730    1.0000  130.04444   33.6000 1211.00889 1147.82863 405.68289 -999.2500
 4939.0000 4017.9200    1.0000   92.7000   595.5160 44519.9730    1.0000  130.05556   33.8000 1211.50884 1148.30095 405.84684  404.0000
 4939.5000 4017.9100    1.0000   92.7000   585.3820 44519.9730    1.0000  130.06667   34.1000 1212.00879 1148.77326 406.01079 -999.2500
 4940.0000 4017.9000    1.0000   80.6000   570.8370 44519.9730    1.0000  130.07778   34.2000 1212.50874 1149.24558 406.17474  334.0000
 4940.5000 4017.8900    1.0000   68.1000   563.1110 44519.9730    1.0000  130.08889   34.5000 1213.00868 1149.71789 406.33868 -999.2500
 4941.0000 4017.8800    1.0000   59.5000   540.3660 44519.9730    1.0000  130.1000    34.8000 1213.50863 1150.19021 406.50263  311.0000
 4941.5000 4017.8800    1.0000   53.0000   582.7970 44519.9730    1.0000  130.11818   35.2000 1214.00858 1150.66253 406.66658 -999.2500
 4942.0000 4017.8700    1.0000   50.5000   522.3580 44519.9730    1.0000  130.13636   35.5000 1214.50853 1151.13484 406.83053  285.0000
 4942.5000 4017.8600    1.0000   51.0000  -999.2500  -999.2500 -999.2500  130.15455 -999.2500 1215.00847 1151.60716 406.99447 -999.2500
 4943.0000 4017.8500    1.0000   52.3000  -999.2500  -999.2500 -999.2500  130.17273 -999.2500 1215.50842 1152.07947 407.15842  250.0000
 4943.5000 4017.8400    1.0000   53.5000   624.1880 44519.9730    1.0000  130.19091   35.8000 1216.00837 1152.55179 407.32237 -999.2500
 4944.0000 4017.8300    1.0000   53.3000   584.9970 44519.9730    1.0000  130.20909   35.9000 1216.50832 1153.02411 407.48632  224.0000
 4944.5000 4017.8300    1.0000   52.7000   516.0300 44519.9730    1.0000  130.22727   47.2000 1217.00826 1153.49642 407.65026 -999.2500
 4945.0000 4017.8200    1.0000   51.6000   619.7980 44519.9730    1.0000  130.24545   58.6000 1217.50821 1153.96874 407.81421  184.0000
 4945.5000 -999.2500    1.0000   51.0000   553.2810 44519.9730    1.0000  130.26364   59.1000 1218.00816 1154.44105 407.97816 -999.2500
 4946.0000 4017.8100    1.0000   49.9000   563.3570 44519.9730    1.0000  130.28182   59.3000 1218.50811 1154.91337 408.14211  167.0000
 4946.5000 4017.8000    1.0000   48.8000   530.6000 44519.9730    1.0000  130.3000    59.9000 1219.00805 1155.38568 408.30605 -999.2500
 4947.0000 4017.7900    1.0000   48.9000   596.1620 44519.9730    1.0000  130.32222   60.1000 1219.5080  1155.8580  408.4700   142.0000
 4947.5000 4017.7900    1.0000   48.3000   570.8950 44519.9730    1.0000  130.34444   60.1000 1220.00795 1156.33032 408.63395 -999.2500
 4948.0000 4017.7800    1.0000   50.5000   593.4720 44519.9730    1.0000  130.36667   60.6000 1220.50789 1156.80263 408.79789  120.0000
 4948.5000 4017.7700    1.0000   53.8000   632.0420 44519.9730    1.0000  130.38889   61.1000 1221.00784 1157.27495 408.96184 -999.2500
 4949.0000 4017.7600    1.0000   58.5000   582.9080 44519.9730    1.0000  130.41111   61.5000 1221.50779 1157.74726 409.12579   93.0000
 4949.5000 4017.7500    1.0000   69.5000   579.4950 44519.9730    1.0000  130.43333   62.0000 1222.00774 1158.21958 409.28974 -999.2500
