~Version Information Section
 VERS.      2.0         :CWLS LOG ASCII STANDARD -VERSION 2.0
 WRAP.      No          :SINGLE LINE PER DEPTH STEP
~Well Information Section
#MNEM.UNIT                      VALUE/NAME                 DESCRIPTION
#----.----     ----------------------------------   --------------------
 STRT    .ft           4655.0000                         :Start Depth
 STOP    .ft           6737.0000                         :Stop  Depth
 STEP    .ft              0.5000                         :Step  Depth
 NULL    .             -999.2500                         :Null value
 COMP    .          LEWIS ENERGY                         :Company Name
 WELL    .          Toposi 2H ST                         :Well Name
 PATH    .                                               :Path Name
 FLD     .          TOPOSI                               :Field Name
 LOC     .          TOPOSI                               :Location
 PROV    .          Unused                               :Province
 SRVC    .          BAKER HUGHES INTEQ                   :Service Company Name
 DATE    .          09/04/2015-14                        :28:47 SA Pacific Standard Time: System Date
 UWI     .                                               :Unique Well ID
 TIMEZONE.Hrs            -5.0000                         :Time zone difference from GMT
 PDAT    .          M.S.L                                :PERMANET DATUM
 EDF     .ft            278.6600                         :ELEVATION OF DRILL FLOOR
 EGL     .ft            256.7300                         :ELEVATION OF GROUD LEVEL
 LMF     .          R.T                                  :LOG MEASURED FROM
 APD     .          ft                  21.93            :ABOVE PERMANET DATUM
 DMF     .          DRILL FLOOR                          :DRILLING MEASURED FROM
 DEPIN   .          4685                                 :DEPTH IN
 DEPOU   .          6737                                 :DEPTH OUT
 DCS     .          MAGNA SIRGAS - BOGOTA                :DATUM COORDINATES SYSTEM
 SLAT    .          08° 19' 25.746'' N                   :SUSFACE LATITUDE
 SLON    .          73° 39' 55.448'' W                   :SURFACE LONGITUDE
 SNOR    .          1412256.100 m                        :SURFACE NORTHING
 SEAS    .          1045395.680 m                        :SURFACE EASTING
 BLAT    .          08° 19' 54.030'' N                   :BOTTOM LATITUDE
 BLON    .          73° 39' 45.848'' W                   :BOTTOM LONGITUDE
 BNOR    .          1413125.37 m                         :BOTTOM NORTHING
 BEAS    .          1045688.52 m                         :BOTTOM EASTING
~Curve Information Section
#MNEM      .UNIT         CURVE DESCRIPTION
#----      .----         -------------------------
 DEPTH     .ft           :1 Depth Hole
 TVD       .ft           :2 True Vertical Depth
 GRIM      .unitless     :3 Gamma Ray Data Point Indicator
 GR1AFM    .API          :4 Gamma Ray 1 - Apparent Filtered
 RPCHM     .ohm.m        :5 Resistivity Phase - Corrected - 2MHz
 RPCLM     .ohm.m        :6 Resistivity Phase - Corrected - 400kHz
 RPHIM     .unitless     :7 Resistivity Phase - Data Point Indicator - 2MHz
 TCDM      .degF         :8 Downhole Temperature
 RPTHM     .min          :9 Resistivity Time Since Drilled
 SRSP_VSECT.ft           :10 Planar Vertical Section
 SRSP_NS   .ft           :11 Position North
 SRSP_EW   .ft           :12 Position East
 LAGGAS    .unit         :13 Total Gas - Lagged
~PARAMETER INFORMATION
#MNEM.UNIT                  VALUE                   DESCRIPTION
#----.----     ----------------------------------   --------------------
  DFT.         BRINE                                :Drilling Fluid Type
  DFD.LB/G           9.3000                         :Drilling Fluid Density
  DFV.S             17.0000                         :Drilling Fluid Viscosity
  MSS.         ACTIVE PIT                           :Mud Sample Source
  RMS.OHMM           0.0600                         :Resistivity Of Mud Sample
  MST.DEGF          69.7000                         :Mud Sample Temperature
  RMB.OHMM           0.0300                         :Mud Resistivity At Bht
  BHT.DEGF         144.6000                         :Bottom Hole Temperature
  TSC.         01-04-2015 @ 15		            :Time Since Circulation

  DFT.         BRINE                                :Drilling Fluid Type
  DFD.LB/G           9.6000                         :Drilling Fluid Density
  DFV.S             18.0000                         :Drilling Fluid Viscosity
  MSS.         ACTIVE PIT                           :Mud Sample Source
  RMS.OHMM           0.0600                         :Resistivity Of Mud Sample
  MST.DEGF          71.0000                         :Mud Sample Temperature
  RMB.OHMM           0.8600                         :Mud Resistivity At Bht
  BHT.DEGF         136.0000                         :Bottom Hole Temperature
  TSC.         05-04-2015 @ 11		            :Time Since Circulation
  
  MRT.DEGF          147.300                         :Maximum Recorded Temperature

~Other Information Section
#MUD PROPERTIES
  - DENSITY =  9.3 LB/G
  - PLASTIC VISCOSITY = 17.0 CP
  - CHLORIDES = 94000 MG/LT
  - YIELD POINT =  11 LBF/100 FT^2

  - DENSITY =  9.6 LB/G
  - PLASTIC VISCOSITY = 18.0 CP
  - CHLORIDES = 97000 MG/LT
  - YIELD POINT =  10 LBF/100 FT^2

~Other Information Section
Disclaimer
Any opinion and / or recommendation expressed orally or written herein, has been prepared
carefully and may be used if the user so elects, however, no representative or warranty is
made by ourselves or our agents as to the correctness or completeness, and no liability is
assumed for any damages resulting from use of the same.  Baker Hughes's liabilities and obligations
shall be governed by Baker Hughes's Standard Terms and Conditions.
Creator
Export
#----------------------------------------------------------------------
#
# Curve name cross reference:  XREF 'LAS Name' 'XTF Short Name' 'XTF Structured Name'
#
XREF DEPTH DEPTH DEPTH
XREF TVD TVD GEN.TVD
XREF GRIM GRIM GAM.GRIM
XREF GR1AFM GR1AFM FGAM.GR1AFM
XREF RPCHM RPCHM CRES.RPCHM
XREF RPCLM RPCLM CRES.RPCLM
XREF RPHIM RPHIM CRES.RPHIM
XREF TCDM TCDM GEN.TCDM
XREF RPTHM RPTHM CRES.RPTHM
XREF SRSP_VSECT SRSPVSEC SURVEY_STATION.SRSP_VSECT
XREF SRSP_NS SRSPNS SURVEY_STATION.SRSP_NS
XREF SRSP_EW SRSPEW SURVEY_STATION.SRSP_EW
XREF LAGGAS LAGGAS LAGMUD.LAGGAS

~A  DEPTH     TVD      GRIM     GR1AFM     RPCHM      RPCLM     RPHIM       TCDM     RPTHM   SRSP_VSECT  SRSP_NS    SRSP_EW   LAGGAS  
# ...
 6543.0000 4004.8200    1.0000   48.9000   457.5990 17626.0180    1.0000  137.9000   144.7000 2815.37842 2668.10684 918.31579    4.0000
 6543.5000 4004.8100    1.0000   45.6000   489.5420 28208.0420    1.0000  137.9000   142.6000 2815.87826 2668.58053 918.47537 -999.2500
 6544.0000 4004.7900    1.0000   47.3000   446.4630 13619.5130    1.0000  137.8500   141.0000 2816.37811 2669.05421 918.63495    4.0000
 6544.5000 4004.7800    1.0000   49.7000   462.1420 23895.3630    1.0000  137.8000   140.3000 2816.87795 2669.52789 918.79453 -999.2500
 6545.0000 4004.7700 -999.2500   48.6000   411.7440  2100.8230    1.0000  137.8000   137.0000 2817.37779 2670.00158 918.95411    4.0000
 6545.5000 4004.7600    1.0000   46.9000   409.6700 14280.2510    1.0000  137.8000   135.8000 2817.87763 2670.47526 919.11368 -999.2500
 6546.0000 4004.7400    1.0000   47.1000   411.6030 14954.1440    1.0000  137.8000   133.7000 2818.37747 2670.94895 919.27326    4.0000
 6546.5000 4004.7300    1.0000   48.8000   471.2030 33716.0520    1.0000  137.8000   132.3000 2818.87732 2671.42263 919.43284 -999.2500
 6547.0000 4004.7200    1.0000   47.1000   509.4900 37132.7290    1.0000  137.8000   130.7000 2819.37716 2671.89632 919.59242    4.0000
 6547.5000 4004.7000    1.0000   49.0000   544.5890 38388.8020    1.0000  137.8000   129.2000 2819.8770  2672.3700  919.7520  -999.2500
 6548.0000 4004.6900    1.0000   48.4000   456.5800 29193.1430    1.0000  137.8000   126.4000 2820.37684 2672.84368 919.91158    4.0000
 6548.5000 4004.6800    1.0000   49.8000   435.0430 17914.4490    1.0000  137.8000   124.7000 2820.87668 2673.31737 920.07116 -999.2500
 6549.0000 4004.6700    1.0000   55.1000   437.8150 18326.3110    1.0000  137.8000   122.7000 2821.37653 2673.79105 920.23074    4.0000
 6549.5000 4004.6500    1.0000   55.5000   353.8800 18326.3110    1.0000  137.8000   118.2000 2821.87637 2674.26474 920.39032 -999.2500
 6550.0000 4004.6400    1.0000   50.0000   363.6630 19687.1280    1.0000  137.8000   117.7000 2822.37621 2674.73842 920.54989    4.0000
 6550.5000 4004.6300    1.0000   47.2000   545.2150 44519.9730    1.0000  137.8000   114.3000 2822.87605 2675.21211 920.70947 -999.2500
 6551.0000 4004.6200    1.0000   45.7000  -999.2500  -999.2500 -999.2500  137.8000  -999.2500 2823.37589 2675.68579 920.86905    5.0000
 6551.5000 4004.6000    1.0000   46.2000   476.7310 37070.1190    1.0000  137.8000   110.1000 2823.87574 2676.15947 921.02863 -999.2500
 6552.0000 4004.5900    1.0000   50.9000   499.3250 32911.4480    1.0000  137.8000   108.5000 2824.37558 2676.63316 921.18821    4.0000
 6552.5000 4004.5700    1.0000   54.3000   446.1520 33508.5410    1.0000  137.8000   105.9000 2824.87542 2677.10684 921.34779 -999.2500
 6553.0000 4004.5700    1.0000   59.4000   425.6030 22639.3310    1.0000  137.9000   102.2000 2825.37526 2677.58053 921.50737    4.0000
 6553.5000 4004.5500    1.0000   62.7000  -999.2500  -999.2500 -999.2500  137.9200  -999.2500 2825.87511 2678.05421 921.66695 -999.2500
 6554.0000 4004.5300    1.0000   62.0000   459.3720 37971.5570    1.0000  137.9400    95.7000 2826.37495 2678.52789 921.82653    4.0000
 6554.5000 4004.5200    1.0000   57.4000   517.2230 44519.9730    1.0000  137.9600    94.0000 2826.87479 2679.00158 921.98611 -999.2500
 6555.0000 4004.5100    1.0000   54.3000  8642.1130 44519.9730    1.0000  137.9800    93.0000 2827.37463 2679.47526 922.14568    4.0000
 6555.5000 4004.5000    1.0000   55.3000   514.4940 34029.8910    1.0000  138.0000   135.2000 2827.87447 2679.94895 922.30526 -999.2500
 6556.0000 4004.4900    1.0000   60.8000   459.0220 33527.4600    1.0000  138.0500   134.6000 2828.37432 2680.42263 922.46484    7.0000
 6556.5000 4004.4700    1.0000   62.7000   401.7910 33703.5280    1.0000  138.1000   134.0000 2828.87416 2680.89632 922.62442 -999.2500
 6557.0000 4004.4600    1.0000   65.9000   436.9100 38175.6800    1.0000  137.7000   133.6000 2829.3740  2681.3700  922.7840     5.0000
 6557.5000 4004.4500    1.0000   65.6000   404.2580 28303.2870    1.0000  137.3000   124.1000 2829.87384 2681.84368 922.94358 -999.2500
 6558.0000 4004.4300    1.0000   61.9000   425.6950 41185.7680    1.0000  136.9000   117.4000 2830.37368 2682.31737 923.10316    5.0000
 6558.5000 -999.2500    1.0000   60.7000   441.0650 32389.8480    1.0000  136.8000   117.4000 2830.87353 2682.79105 923.26274 -999.2500
 6559.0000 4004.4100    1.0000   62.0000   453.1000 38623.2440    1.0000  136.7000   116.8000 2831.37337 2683.26474 923.42232    3.0000
 6559.5000 4004.4000    1.0000   65.8000   427.4330 37899.5610    1.0000  136.4500   116.0000 2831.87321 2683.73842 923.58189 -999.2500
 6560.0000 4004.3900    1.0000   66.9000   400.0620 36820.1580    1.0000  136.2000   115.8000 2832.37305 2684.21211 923.74147    3.0000
 6560.5000 4004.3700    1.0000   72.2000   390.1080 16130.2900    1.0000  135.9500   115.0000 2832.87289 2684.68579 923.90105 -999.2500
 6561.0000 4004.3600    1.0000   67.8000   387.6480 25291.1080    1.0000  135.7000   114.8000 2833.37274 2685.15947 924.06063    5.0000
 6561.5000 4004.3500    1.0000   63.1000   414.7270 32621.2630    1.0000  135.56667  114.6000 2833.87258 2685.63316 924.22021 -999.2500
 6562.0000 4004.3300    1.0000   60.4000   405.8350 42093.5480    1.0000  135.43333  114.4000 2834.37242 2686.10684 924.37979    4.0000
 6562.5000 4004.3200    1.0000   58.9000   445.2370 37441.9490    1.0000  135.3000   114.3000 2834.87226 2686.58053 924.53937 -999.2500
 6563.0000 4004.3100    1.0000   51.4000   415.1890 27418.9480    1.0000  135.2000   114.4000 2835.37211 2687.05421 924.69895    3.0000
 6563.5000 4004.3000    1.0000   50.6000   374.6760 22979.1500    1.0000  135.1000   114.7000 2835.87195 2687.52789 924.85853 -999.2500
 6564.0000 4004.2800    1.0000   55.6000   409.7630 25352.3230    1.0000  135.0000   114.8000 2836.37179 2688.00158 925.01811    5.0000
 6564.5000 4004.2700    1.0000   60.3000   378.0180 26164.0390    1.0000  134.96667  115.0000 2836.87163 2688.47526 925.17768 -999.2500
 6565.0000 4004.2600    1.0000   62.3000   366.8190 24843.5050    1.0000  134.93333  115.1000 2837.37147 2688.94895 925.33726    4.0000
 6565.5000 4004.2400    1.0000   64.7000   393.9710 34213.4040    1.0000  134.9000   115.0000 2837.87132 2689.42263 925.49684 -999.2500
 6566.0000 4004.2300    1.0000   66.5000   407.4140 30303.0910    1.0000  134.86667  115.0000 2838.37116 2689.89632 925.65642    6.0000
 6566.5000 4004.2200    1.0000   66.6000   387.7920 24376.8860    1.0000  134.83333  115.3000 2838.8710  2690.3700  925.8160  -999.2500
 6567.0000 4004.2100    1.0000   68.3000   448.5350 29143.8810    1.0000  134.8000   115.3000 2839.37084 2690.84368 925.97558    6.0000
 6567.5000 4004.2000    1.0000   70.6000   430.0070 27710.0980    1.0000  134.8000   115.4000 2839.87068 2691.31737 926.13516 -999.2500
 6568.0000 4004.1800    1.0000   72.3000   425.2400 35668.7580    1.0000  134.8000   115.5000 2840.37053 2691.79105 926.29474    4.0000
 6568.5000 4004.1700    1.0000   71.4000   393.8030 18111.0660    1.0000  134.8000   115.4000 2840.87037 2692.26474 926.45432 -999.2500
 6569.0000 4004.1600    1.0000   69.0000   374.5070 13624.8780    1.0000  134.8000   115.2000 2841.37021 2692.73842 926.61389    5.0000
 6569.5000 4004.1500    1.0000   66.0000   385.7160 18936.4480    1.0000  134.5800   115.4000 2841.87005 2693.21211 926.77347 -999.2500
 6570.0000 4004.1300    1.0000   69.2000   386.9300 25737.1650    1.0000  134.3600   111.2000 2842.36989 2693.68579 926.93305    4.0000
 6570.5000 4004.1200    1.0000   72.7000   411.9250 27196.1930    1.0000  134.1400   106.7000 2842.86974 2694.15947 927.09263 -999.2500
 6571.0000 4004.1100    1.0000   74.9000   424.8720 22485.6810    1.0000  133.9200   107.7000 2843.36958 2694.63316 927.25221    4.0000
 6571.5000 4004.1000    1.0000   74.5000   395.3890 27972.7940    1.0000  133.7000   114.1000 2843.86942 2695.10684 927.41179 -999.2500
 6572.0000 4004.0800    1.0000   73.5000   388.5610 29785.4490    1.0000  133.7250   115.4000 2844.36926 2695.58053 927.57137    6.0000
