~Version Information Section
 VERS.      2.0         :CWLS LOG ASCII STANDARD -VERSION 2.0
 WRAP.      No          :SINGLE LINE PER DEPTH STEP
~Well Information Section
#MNEM.UNIT                      VALUE/NAME                 DESCRIPTION
#----.----     ----------------------------------   --------------------
 STRT    .ft           4655.0000                         :Start Depth
 STOP    .ft           6737.0000                         :Stop  Depth
 STEP    .ft              0.5000                         :Step  Depth
 NULL    .             -999.2500                         :Null value
 COMP    .          LEWIS ENERGY                         :Company Name
 WELL    .          Toposi 2H ST                         :Well Name
 PATH    .                                               :Path Name
 FLD     .          TOPOSI                               :Field Name
 LOC     .          TOPOSI                               :Location
 PROV    .          Unused                               :Province
 SRVC    .          BAKER HUGHES INTEQ                   :Service Company Name
 DATE    .          09/04/2015-14                        :28:47 SA Pacific Standard Time: System Date
 UWI     .                                               :Unique Well ID
 TIMEZONE.Hrs            -5.0000                         :Time zone difference from GMT
 PDAT    .          M.S.L                                :PERMANET DATUM
 EDF     .ft            278.6600                         :ELEVATION OF DRILL FLOOR
 EGL     .ft            256.7300                         :ELEVATION OF GROUD LEVEL
 LMF     .          R.T                                  :LOG MEASURED FROM
 APD     .          ft                  21.93            :ABOVE PERMANET DATUM
 DMF     .          DRILL FLOOR                          :DRILLING MEASURED FROM
 DEPIN   .          4685                                 :DEPTH IN
 DEPOU   .          6737                                 :DEPTH OUT
 DCS     .          MAGNA SIRGAS - BOGOTA                :DATUM COORDINATES SYSTEM
 SLAT    .          08° 19' 25.746'' N                   :SUSFACE LATITUDE
 SLON    .          73° 39' 55.448'' W                   :SURFACE LONGITUDE
 SNOR    .          1412256.100 m                        :SURFACE NORTHING
 SEAS    .          1045395.680 m                        :SURFACE EASTING
 BLAT    .          08° 19' 54.030'' N                   :BOTTOM LATITUDE
 BLON    .          73° 39' 45.848'' W                   :BOTTOM LONGITUDE
 BNOR    .          1413125.37 m                         :BOTTOM NORTHING
 BEAS    .          1045688.52 m                         :BOTTOM EASTING
~Curve Information Section
#MNEM      .UNIT         CURVE DESCRIPTION
#----      .----         -------------------------
 DEPTH     .ft           :1 Depth Hole
 TVD       .ft           :2 True Vertical Depth
 GRIM      .unitless     :3 Gamma Ray Data Point Indicator
 GR1AFM    .API          :4 Gamma Ray 1 - Apparent Filtered
 RPCHM     .ohm.m        :5 Resistivity Phase - Corrected - 2MHz
 RPCLM     .ohm.m        :6 Resistivity Phase - Corrected - 400kHz
 RPHIM     .unitless     :7 Resistivity Phase - Data Point Indicator - 2MHz
 TCDM      .degF         :8 Downhole Temperature
 RPTHM     .min          :9 Resistivity Time Since Drilled
 SRSP_VSECT.ft           :10 Planar Vertical Section
 SRSP_NS   .ft           :11 Position North
 SRSP_EW   .ft           :12 Position East
 LAGGAS    .unit         :13 Total Gas - Lagged
~PARAMETER INFORMATION
#MNEM.UNIT                  VALUE                   DESCRIPTION
#----.----     ----------------------------------   --------------------
  DFT.         BRINE                                :Drilling Fluid Type
  DFD.LB/G           9.3000                         :Drilling Fluid Density
  DFV.S             17.0000                         :Drilling Fluid Viscosity
  MSS.         ACTIVE PIT                           :Mud Sample Source
  RMS.OHMM           0.0600                         :Resistivity Of Mud Sample
  MST.DEGF          69.7000                         :Mud Sample Temperature
  RMB.OHMM           0.0300                         :Mud Resistivity At Bht
  BHT.DEGF         144.6000                         :Bottom Hole Temperature
  TSC.         01-04-2015 @ 15		            :Time Since Circulation

  DFT.         BRINE                                :Drilling Fluid Type
  DFD.LB/G           9.6000                         :Drilling Fluid Density
  DFV.S             18.0000                         :Drilling Fluid Viscosity
  MSS.         ACTIVE PIT                           :Mud Sample Source
  RMS.OHMM           0.0600                         :Resistivity Of Mud Sample
  MST.DEGF          71.0000                         :Mud Sample Temperature
  RMB.OHMM           0.8600                         :Mud Resistivity At Bht
  BHT.DEGF         136.0000                         :Bottom Hole Temperature
  TSC.         05-04-2015 @ 11		            :Time Since Circulation
  
  MRT.DEGF          147.300                         :Maximum Recorded Temperature

~Other Information Section
#MUD PROPERTIES
  - DENSITY =  9.3 LB/G
  - PLASTIC VISCOSITY = 17.0 CP
  - CHLORIDES = 94000 MG/LT
  - YIELD POINT =  11 LBF/100 FT^2

  - DENSITY =  9.6 LB/G
  - PLASTIC VISCOSITY = 18.0 CP
  - CHLORIDES = 97000 MG/LT
  - YIELD POINT =  10 LBF/100 FT^2

~Other Information Section
Disclaimer
Any opinion and / or recommendation expressed orally or written herein, has been prepared
carefully and may be used if the user so elects, however, no representative or warranty is
made by ourselves or our agents as to the correctness or completeness, and no liability is
assumed for any damages resulting from use of the same.  Baker Hughes's liabilities and obligations
shall be governed by Baker Hughes's Standard Terms and Conditions.
Creator
Export
#----------------------------------------------------------------------
#
# Curve name cross reference:  XREF 'LAS Name' 'XTF Short Name' 'XTF Structured Name'
#
XREF DEPTH DEPTH DEPTH
XREF TVD TVD GEN.TVD
XREF GRIM GRIM GAM.GRIM
XREF GR1AFM GR1AFM FGAM.GR1AFM
XREF RPCHM RPCHM CRES.RPCHM
XREF RPCLM RPCLM CRES.RPCLM
XREF RPHIM RPHIM CRES.RPHIM
XREF TCDM TCDM GEN.TCDM
XREF RPTHM RPTHM CRES.RPTHM
XREF SRSP_VSECT SRSPVSEC SURVEY_STATION.SRSP_VSECT
XREF SRSP_NS SRSPNS SURVEY_STATION.SRSP_NS
XREF SRSP_EW SRSPEW SURVEY_STATION.SRSP_EW
XREF LAGGAS LAGGAS LAGMUD.LAGGAS

~A  DEPTH     TVD      GRIM     GR1AFM     RPCHM      RPCLM     RPHIM       TCDM     RPTHM   SRSP_VSECT  SRSP_NS    SRSP_EW   LAGGAS  
# ...
 5599.0000 4012.0400    1.0000   50.6000   604.3770 44519.9730    1.0000  139.36667   32.3000 1871.44917 1774.03167 615.6225   161.0000
 5599.5000 4012.0300    1.0000   53.2000   534.4120 44519.9730    1.0000  139.38333   31.8000 1871.94911 1774.50615 615.78016 -999.2500
 5600.0000 4012.0200    1.0000   59.9000   557.6290 44519.9730    1.0000  139.4000    31.5000 1872.44906 1774.98063 615.93781  149.0000
 5600.5000 4012.0200    1.0000   52.7000   534.5950 44519.9730    1.0000  139.4500    31.1000 1872.94901 1775.4551  616.09547 -999.2500
 5601.0000 4012.0100    1.0000   44.7000   567.3630 44519.9730    1.0000  139.5000    30.5000 1873.44896 1775.92958 616.25313  152.0000
 5601.5000 4012.0000    1.0000   39.1000   574.7850 44519.9730    1.0000  139.5500    29.9000 1873.94891 1776.40406 616.41078 -999.2500
 5602.0000 4012.0000    1.0000   36.1000   629.5480 44519.9730    1.0000  139.6000    29.7000 1874.44885 1776.87854 616.56844  140.0000
 5602.5000 4011.9900    1.0000   36.8000   591.8520 44519.9730    1.0000  139.6200    29.4000 1874.9488  1777.35302 616.72609 -999.2500
 5603.0000 4011.9900    1.0000   34.4000   572.4950 44519.9730    1.0000  139.6400    29.4000 1875.44875 1777.8275  616.88375   94.0000
 5603.5000 4011.9800    1.0000   33.9000   534.4610 44519.9730    1.0000  139.6600    29.2000 1875.9487  1778.30198 617.04141 -999.2500
 5604.0000 4011.9700    1.0000   35.6000   529.0350 44519.9730    1.0000  139.6800    28.9000 1876.44865 1778.77646 617.19906   67.0000
 5604.5000 4011.9700    1.0000   40.3000   564.4890 44519.9730    1.0000  139.7000    28.6000 1876.94859 1779.25094 617.35672 -999.2500
 5605.0000 4011.9600    1.0000   44.4000   495.6830 44519.9730    1.0000  139.70667   28.4000 1877.44854 1779.72542 617.51438   74.0000
 5605.5000 4011.9500    1.0000   49.1000   508.6170 44519.9730    1.0000  139.71333   28.2000 1877.94849 1780.1999  617.67203 -999.2500
 5606.0000 4011.9500    1.0000   49.9000   528.6090 44519.9730    1.0000  139.7200    28.1000 1878.44844 1780.67438 617.82969   66.0000
 5606.5000 4011.9400    1.0000   51.7000   592.5890 44519.9730    1.0000  139.72667   27.8000 1878.94839 1781.14885 617.98734 -999.2500
 5607.0000 4011.9400    1.0000   52.7000   587.2230 44519.9730    1.0000  139.73333   27.7000 1879.44833 1781.62333 618.1450    22.0000
 5607.5000 4011.9300    1.0000   48.7000   584.3160 44519.9730    1.0000  139.7400    42.4000 1879.94828 1782.09781 618.30266 -999.2500
 5608.0000 4011.9200    1.0000   43.0000   534.4900 44519.9730    1.0000  139.74667   52.3000 1880.44823 1782.57229 618.46031   25.0000
 5608.5000 4011.9200    1.0000   35.0000   521.0020 44519.9730    1.0000  139.75333   51.7000 1880.94818 1783.04677 618.61797 -999.2500
 5609.0000 4011.9100    1.0000   31.2000   539.2430 44519.9730    1.0000  139.7600    51.3000 1881.44813 1783.52125 618.77563   22.0000
 5609.5000 4011.9100    1.0000   30.3000   538.6850 44519.9730    1.0000  139.76667   51.3000 1881.94807 1783.99573 618.93328 -999.2500
 5610.0000 4011.9000    1.0000   30.3000   564.7920 44519.9730    1.0000  139.77333   51.3000 1882.44802 1784.47021 619.09094   22.0000
 5610.5000 4011.9000    1.0000   30.9000   544.3350 44519.9730    1.0000  139.7800    51.2000 1882.94797 1784.94469 619.24859 -999.2500
 5611.0000 4011.8900    1.0000   29.0000   576.2240 44519.9730    1.0000  139.78667   51.0000 1883.44792 1785.41917 619.40625   40.0000
 5611.5000 4011.8800    1.0000   26.4000   552.9590 44519.9730    1.0000  139.79333   50.8000 1883.94786 1785.89365 619.56391 -999.2500
 5612.0000 4011.8800    1.0000   23.4000   563.4540 44519.9730    1.0000  139.8000    50.8000 1884.44781 1786.36813 619.72156 -999.2500
 5612.5000 4011.8700    1.0000   24.1000   544.2580 44519.9730    1.0000  139.8125    50.8000 1884.94776 1786.8426  619.87922 -999.2500
 5613.0000 4011.8700    1.0000   25.8000   559.9350 44519.9730    1.0000  139.8250    50.7000 1885.44771 1787.31708 620.03688 -999.2500
 5613.5000 4011.8600    1.0000   26.9000   547.3080 44519.9730    1.0000  139.8375    50.3000 1885.94766 1787.79156 620.19453 -999.2500
 5614.0000 4011.8600    1.0000   26.8000   575.2160 44519.9730    1.0000  139.8500    50.3000 1886.4476  1788.26604 620.35219 -999.2500
 5614.5000 4011.8500    1.0000   28.9000   581.1110 44519.9730    1.0000  139.8625    50.8000 1886.94755 1788.74052 620.50984 -999.2500
 5615.0000 4011.8500    1.0000   28.3000   575.0510 44519.9730    1.0000  139.8750    51.9000 1887.4475  1789.2150  620.6675  -999.2500
 5615.5000 4011.8400    1.0000   27.3000   539.9000 44519.9730    1.0000  139.8875    52.5000 1887.94745 1789.68948 620.82516 -999.2500
 5616.0000 4011.8400    1.0000   28.2000   512.8950 44519.9730    1.0000  139.9000    52.5000 1888.4474  1790.16396 620.98281 -999.2500
 5616.5000 4011.8300    1.0000   29.9000   505.2480 44519.9730    1.0000  139.9000    52.6000 1888.94734 1790.63844 621.14047 -999.2500
 5617.0000 4011.8300    1.0000   32.6000   569.7610 44519.9730    1.0000  139.9000    52.7000 1889.44729 1791.11292 621.29813 -999.2500
 5617.5000 4011.8200    1.0000   36.1000   593.8350 44519.9730    1.0000  139.9000    52.9000 1889.94724 1791.5874  621.45578 -999.2500
 5618.0000 4011.8200    1.0000   36.2000   524.5080 44519.9730    1.0000  139.9000    53.0000 1890.44719 1792.06188 621.61344 -999.2500
 5618.5000 4011.8100    1.0000   33.1000   605.9180 44519.9730    1.0000  139.9000    53.3000 1890.94714 1792.53635 621.77109 -999.2500
 5619.0000 4011.8100    1.0000   26.8000   540.3800 44519.9730    1.0000  139.9000    53.7000 1891.44708 1793.01083 621.92875 -999.2500
 5619.5000 4011.8000    1.0000   22.8000   576.3430 44519.9730    1.0000  139.9000    53.9000 1891.94703 1793.48531 622.08641 -999.2500
 5620.0000 4011.8000    1.0000   23.9000   580.9720 44519.9730    1.0000  139.9000    56.8000 1892.44698 1793.95979 622.24406 -999.2500
 5620.5000 4011.7900    1.0000   23.9000   594.5710 44519.9730    1.0000  139.9000    60.5000 1892.94693 1794.43427 622.40172 -999.2500
 5621.0000 4011.7900    1.0000   24.0000   547.2940 44519.9730    1.0000  139.9000    60.6000 1893.44688 1794.90875 622.55938 -999.2500
 5621.5000 4011.7800    1.0000   25.6000   611.9950 44519.9730    1.0000  139.9000    61.2000 1893.94682 1795.38323 622.71703 -999.2500
 5622.0000 4011.7800    1.0000   26.8000   557.8060 44519.9730    1.0000  139.9000    61.4000 1894.44677 1795.85771 622.87469 -999.2500
 5622.5000 4011.7700    1.0000   28.2000   608.9980 44519.9730    1.0000  139.9000    61.6000 1894.94672 1796.33219 623.03234 -999.2500
 5623.0000 4011.7700    1.0000   27.0000   613.4910 44519.9730    1.0000  139.9000    61.7000 1895.44667 1796.80667 623.1900  -999.2500
 5623.5000 4011.7600    1.0000   25.7000   537.9230 44519.9730    1.0000  139.9000    61.7000 1895.94661 1797.28115 623.34766 -999.2500
 5624.0000 4011.7600    1.0000   25.7000   545.3820 44519.9730    1.0000  139.9000    61.8000 1896.44656 1797.75563 623.50531 -999.2500
 5624.5000 4011.7500    1.0000   26.4000   532.5280 44519.9730    1.0000  139.9000    62.1000 1896.94651 1798.2301  623.66297 -999.2500
 5625.0000 4011.7500    1.0000   25.9000   540.6870 44519.9730    1.0000  139.9000    62.3000 1897.44646 1798.70458 623.82063 -999.2500
 5625.5000 4011.7500    1.0000   29.6000   567.5320 44519.9730    1.0000  139.9000    62.4000 1897.94641 1799.17906 623.97828 -999.2500
 5626.0000 4011.7400    1.0000   35.8000   553.5940 44519.9730    1.0000  139.9000    62.6000 1898.44635 1799.65354 624.13594 -999.2500
 5626.5000 4011.7400    1.0000   42.9000   554.0750 44519.9730    1.0000  139.9000    62.7000 1898.9463  1800.12802 624.29359 -999.2500
 5627.0000 4011.7300    1.0000   60.3000   522.4700 44519.9730    1.0000  139.9000    62.8000 1899.44625 1800.6025  624.45125 -999.2500
 5627.5000 4011.7300    1.0000   64.3000   546.2930 44519.9730    1.0000  139.9000    63.0000 1899.9462  1801.07698 624.60891 -999.2500
 5628.0000 4011.7200    1.0000   44.9000   498.1070 44519.9730    1.0000  139.9000    63.1000 1900.44615 1801.55146 624.76656 -999.2500
