~Version Information Section
 VERS.      2.0         :CWLS LOG ASCII STANDARD -VERSION 2.0
 WRAP.      No          :SINGLE LINE PER DEPTH STEP
~Well Information Section
#MNEM.UNIT                      VALUE/NAME                 DESCRIPTION
#----.----     ----------------------------------   --------------------
 STRT    .ft           4655.0000                         :Start Depth
 STOP    .ft           6737.0000                         :Stop  Depth
 STEP    .ft              0.5000                         :Step  Depth
 NULL    .             -999.2500                         :Null value
 COMP    .          LEWIS ENERGY                         :Company Name
 WELL    .          Toposi 2H ST                         :Well Name
 PATH    .                                               :Path Name
 FLD     .          TOPOSI                               :Field Name
 LOC     .          TOPOSI                               :Location
 PROV    .          Unused                               :Province
 SRVC    .          BAKER HUGHES INTEQ                   :Service Company Name
 DATE    .          09/04/2015-14                        :28:47 SA Pacific Standard Time: System Date
 UWI     .                                               :Unique Well ID
 TIMEZONE.Hrs            -5.0000                         :Time zone difference from GMT
 PDAT    .          M.S.L                                :PERMANET DATUM
 EDF     .ft            278.6600                         :ELEVATION OF DRILL FLOOR
 EGL     .ft            256.7300                         :ELEVATION OF GROUD LEVEL
 LMF     .          R.T                                  :LOG MEASURED FROM
 APD     .          ft                  21.93            :ABOVE PERMANET DATUM
 DMF     .          DRILL FLOOR                          :DRILLING MEASURED FROM
 DEPIN   .          4685                                 :DEPTH IN
 DEPOU   .          6737                                 :DEPTH OUT
 DCS     .          MAGNA SIRGAS - BOGOTA                :DATUM COORDINATES SYSTEM
 SLAT    .          08° 19' 25.746'' N                   :SUSFACE LATITUDE
 SLON    .          73° 39' 55.448'' W                   :SURFACE LONGITUDE
 SNOR    .          1412256.100 m                        :SURFACE NORTHING
 SEAS    .          1045395.680 m                        :SURFACE EASTING
 BLAT    .          08° 19' 54.030'' N                   :BOTTOM LATITUDE
 BLON    .          73° 39' 45.848'' W                   :BOTTOM LONGITUDE
 BNOR    .          1413125.37 m                         :BOTTOM NORTHING
 BEAS    .          1045688.52 m                         :BOTTOM EASTING
~Curve Information Section
#MNEM      .UNIT         CURVE DESCRIPTION
#----      .----         -------------------------
 DEPTH     .ft           :1 Depth Hole
 TVD       .ft           :2 True Vertical Depth
 GRIM      .unitless     :3 Gamma Ray Data Point Indicator
 GR1AFM    .API          :4 Gamma Ray 1 - Apparent Filtered
 RPCHM     .ohm.m        :5 Resistivity Phase - Corrected - 2MHz
 RPCLM     .ohm.m        :6 Resistivity Phase - Corrected - 400kHz
 RPHIM     .unitless     :7 Resistivity Phase - Data Point Indicator - 2MHz
 TCDM      .degF         :8 Downhole Temperature
 RPTHM     .min          :9 Resistivity Time Since Drilled
 SRSP_VSECT.ft           :10 Planar Vertical Section
 SRSP_NS   .ft           :11 Position North
 SRSP_EW   .ft           :12 Position East
 LAGGAS    .unit         :13 Total Gas - Lagged
~PARAMETER INFORMATION
#MNEM.UNIT                  VALUE                   DESCRIPTION
#----.----     ----------------------------------   --------------------
  DFT.         BRINE                                :Drilling Fluid Type
  DFD.LB/G           9.3000                         :Drilling Fluid Density
  DFV.S             17.0000                         :Drilling Fluid Viscosity
  MSS.         ACTIVE PIT                           :Mud Sample Source
  RMS.OHMM           0.0600                         :Resistivity Of Mud Sample
  MST.DEGF          69.7000                         :Mud Sample Temperature
  RMB.OHMM           0.0300                         :Mud Resistivity At Bht
  BHT.DEGF         144.6000                         :Bottom Hole Temperature
  TSC.         01-04-2015 @ 15		            :Time Since Circulation

  DFT.         BRINE                                :Drilling Fluid Type
  DFD.LB/G           9.6000                         :Drilling Fluid Density
  DFV.S             18.0000                         :Drilling Fluid Viscosity
  MSS.         ACTIVE PIT                           :Mud Sample Source
  RMS.OHMM           0.0600                         :Resistivity Of Mud Sample
  MST.DEGF          71.0000                         :Mud Sample Temperature
  RMB.OHMM           0.8600                         :Mud Resistivity At Bht
  BHT.DEGF         136.0000                         :Bottom Hole Temperature
  TSC.         05-04-2015 @ 11		            :Time Since Circulation
  
  MRT.DEGF          147.300                         :Maximum Recorded Temperature

~Other Information Section
#MUD PROPERTIES
  - DENSITY =  9.3 LB/G
  - PLASTIC VISCOSITY = 17.0 CP
  - CHLORIDES = 94000 MG/LT
  - YIELD POINT =  11 LBF/100 FT^2

  - DENSITY =  9.6 LB/G
  - PLASTIC VISCOSITY = 18.0 CP
  - CHLORIDES = 97000 MG/LT
  - YIELD POINT =  10 LBF/100 FT^2

~Other Information Section
Disclaimer
Any opinion and / or recommendation expressed orally or written herein, has been prepared
carefully and may be used if the user so elects, however, no representative or warranty is
made by ourselves or our agents as to the correctness or completeness, and no liability is
assumed for any damages resulting from use of the same.  Baker Hughes's liabilities and obligations
shall be governed by Baker Hughes's Standard Terms and Conditions.
Creator
Export
#----------------------------------------------------------------------
#
# Curve name cross reference:  XREF 'LAS Name' 'XTF Short Name' 'XTF Structured Name'
#
XREF DEPTH DEPTH DEPTH
XREF TVD TVD GEN.TVD
XREF GRIM GRIM GAM.GRIM
XREF GR1AFM GR1AFM FGAM.GR1AFM
XREF RPCHM RPCHM CRES.RPCHM
XREF RPCLM RPCLM CRES.RPCLM
XREF RPHIM RPHIM CRES.RPHIM
XREF TCDM TCDM GEN.TCDM
XREF RPTHM RPTHM CRES.RPTHM
XREF SRSP_VSECT SRSPVSEC SURVEY_STATION.SRSP_VSECT
XREF SRSP_NS SRSPNS SURVEY_STATION.SRSP_NS
XREF SRSP_EW SRSPEW SURVEY_STATION.SRSP_EW
XREF LAGGAS LAGGAS LAGMUD.LAGGAS

~A  DEPTH     TVD      GRIM     GR1AFM     RPCHM      RPCLM     RPHIM       TCDM     RPTHM   SRSP_VSECT  SRSP_NS    SRSP_EW   LAGGAS  
# ...
 6012.0000 4011.0300    1.0000   55.0000   283.8140  6275.7760    1.0000  131.03333   84.9000 2284.4300  2166.01826 745.63652    4.0000
 6012.5000 4011.0300    1.0000   56.7000   274.7680  1527.9960    1.0000  131.1000    84.3000 2284.9300  2166.49299 745.79348 -999.2500
 6013.0000 4011.0300    1.0000   55.1000   285.2290  1249.4070    1.0000  131.16667   83.7000 2285.4300  2166.96772 745.95043    3.0000
 6013.5000 4011.0200    1.0000   54.5000   265.7540  1481.9910    1.0000  131.23333   83.2000 2285.9300  2167.44245 746.10739 -999.2500
 6014.0000 4011.0200    1.0000   53.7000   263.1430  1236.4650    1.0000  131.3000    82.7000 2286.4300  2167.91717 746.26435    4.0000
 6014.5000 4011.0200    1.0000   52.7000   277.7150  1505.1410    1.0000  131.3500    82.3000 2286.9300  2168.3919  746.4213  -999.2500
 6015.0000 4011.0100    1.0000   53.3000   255.0890  1330.1970    1.0000  131.4000    82.2000 2287.4300  2168.86663 746.57826    5.0000
 6015.5000 4011.0100    1.0000   50.8000   289.4190  5372.2860    1.0000  131.4500    82.2000 2287.9300  2169.34136 746.73522 -999.2500
 6016.0000 4011.0100    1.0000   50.7000   295.1270  1607.6320    1.0000  131.5000    82.1000 2288.4300  2169.81609 746.89217    5.0000
 6016.5000 4011.0100    1.0000   49.8000   261.0430  1350.5710    1.0000  131.56667   82.1000 2288.9300  2170.29082 747.04913 -999.2500
 6017.0000 4011.0000    1.0000   45.8000   265.2420  1126.2870    1.0000  131.63333   81.9000 2289.4300  2170.76554 747.20609    5.0000
 6017.5000 4011.0000    1.0000   44.4000   266.6060  1444.3220    1.0000  131.7000    69.9000 2289.9300  2171.24027 747.36304 -999.2500
 6018.0000 4011.0000    1.0000   39.5000   244.6190   869.6130    1.0000  131.7500    56.9000 2290.4300  2171.7150  747.5200     3.0000
 6018.5000 4010.9900    1.0000   38.6000   247.8470  1187.5530    1.0000  131.8000    56.9000 2290.9300  2172.18973 747.67696 -999.2500
 6019.0000 4010.9900 -999.2500   39.0000   227.7790   965.6510    1.0000  131.8500    56.5000 2291.4300  2172.66446 747.83391    7.0000
 6019.5000 4010.9900    1.0000   41.4000   245.4050   840.1530    1.0000  131.9000    56.9000 2291.9300  2173.13918 747.99087 -999.2500
 6020.0000 4010.9800    1.0000   42.8000   213.4680   704.0600    1.0000  131.9500    57.3000 2292.4300  2173.61391 748.14783    6.0000
 6020.5000 4010.9800    1.0000   41.3000   206.0590   624.8270    1.0000  132.0000    58.2000 2292.9300  2174.08864 748.30478 -999.2500
 6021.0000 4010.9800    1.0000   39.2000   202.0830   635.9190    1.0000  132.0400    58.9000 2293.4300  2174.56337 748.46174    4.0000
 6021.5000 4010.9800    1.0000   38.0000   170.6150   411.0580    1.0000  132.0800    59.5000 2293.9300  2175.0381  748.6187  -999.2500
 6022.0000 4010.9700    1.0000   38.6000   122.2280   234.7650    1.0000  132.1200    60.1000 2294.4300  2175.51283 748.77565    6.0000
 6022.5000 4010.9700    1.0000   38.5000    68.2670   104.5230    1.0000  132.1600    60.9000 2294.9300  2175.98755 748.93261 -999.2500
 6023.0000 4010.9700    1.0000   35.9000   112.1560   199.9950    1.0000  132.2000    61.5000 2295.4300  2176.46228 749.08957    5.0000
 6023.5000 4010.9600    1.0000   33.8000   164.8660   367.3380    1.0000  132.2750    61.8000 2295.9300  2176.93701 749.24652 -999.2500
 6024.0000 4010.9600    1.0000   33.8000   191.8460   444.8120    1.0000  132.3500    62.2000 2296.4300  2177.41174 749.40348    3.0000
 6024.5000 4010.9600    1.0000   32.9000   196.7020   480.2780    1.0000  132.4250    62.4000 2296.9300  2177.88647 749.56043 -999.2500
 6025.0000 4010.9500    1.0000   31.8000   223.4400   646.2560    1.0000  132.5000    62.4000 2297.4300  2178.3612  749.71739    4.0000
 6025.5000 4010.9500    1.0000   33.0000   238.6940   619.4050    1.0000  132.56667   62.9000 2297.9300  2178.83592 749.87435 -999.2500
 6026.0000 4010.9500    1.0000   34.0000   228.6590   827.1400    1.0000  132.63333   62.7000 2298.4300  2179.31065 750.0313     5.0000
 6026.5000 4010.9400    1.0000   37.3000   247.0510   956.4210    1.0000  132.7000    62.1000 2298.9300  2179.78538 750.18826 -999.2500
 6027.0000 4010.9400    1.0000   39.4000   257.5340   850.3090    1.0000  132.7600    62.0000 2299.4300  2180.26011 750.34522    6.0000
 6027.5000 4010.9400    1.0000   40.7000  -999.2500  -999.2500 -999.2500  132.8200  -999.2500 2299.9300  2180.73484 750.50217 -999.2500
 6028.0000 4010.9300    1.0000   36.5000   283.2150  1780.8060    1.0000  132.8800    61.3000 2300.4300  2181.20957 750.65913    6.0000
 6028.5000 4010.9300    1.0000   31.9000   287.2290  1226.2550    1.0000  132.9400    61.1000 2300.9300  2181.68429 750.81609 -999.2500
 6029.0000 4010.9300    1.0000   29.7000   285.9310  1218.2060    1.0000  133.0000    60.6000 2301.4300  2182.15902 750.97304    6.0000
 6029.5000 4010.9200    1.0000   30.9000   289.5710  5091.1680    1.0000  133.0500    60.8000 2301.9300  2182.63375 751.1300  -999.2500
 6030.0000 4010.9200    1.0000   32.0000   299.7180  6764.7720    1.0000  133.1000    60.7000 2302.4300  2183.10848 751.28696    5.0000
 6030.5000 4010.9200    1.0000   34.3000   305.3200  1725.2690    1.0000  133.1500    60.5000 2302.9300  2183.58321 751.44391 -999.2500
 6031.0000 4010.9100    1.0000   33.4000   318.4500  6802.9900    1.0000  133.2000    60.4000 2303.4300  2184.05793 751.60087    5.0000
 6031.5000 4010.9100    1.0000   32.4000   310.8320  1306.3230    1.0000  133.2600    60.3000 2303.9300  2184.53266 751.75783 -999.2500
 6032.0000 4010.9100    1.0000   33.2000   342.4240  7577.4750    1.0000  133.3200    60.6000 2304.4300  2185.00739 751.91478    4.0000
 6032.5000 4010.9000    1.0000   33.5000   323.2900 16354.6130    1.0000  133.3800    60.4000 2304.9300  2185.48212 752.07174 -999.2500
 6033.0000 4010.9000    1.0000   33.8000   326.4270  2577.9220    1.0000  133.4400    60.5000 2305.4300  2185.95685 752.2287     4.0000
 6033.5000 4010.8900    1.0000   33.2000   317.8140  2248.2850    1.0000  133.5000    60.3000 2305.9300  2186.43158 752.38565 -999.2500
 6034.0000 4010.8900    1.0000   34.2000   312.1510  2267.3130    1.0000  133.5500    60.0000 2306.4300  2186.9063  752.54261    3.0000
 6034.5000 4010.8900    1.0000   33.9000   318.4070  9589.6700    1.0000  133.6000    59.9000 2306.9300  2187.38103 752.69957 -999.2500
 6035.0000 4010.8800    1.0000   36.1000   325.4570  7482.9950    1.0000  133.6500    59.8000 2307.4300  2187.85576 752.85652    5.0000
 6035.5000 4010.8800    1.0000   38.2000   342.0010 15436.9750    1.0000  133.7000    59.9000 2307.9300  2188.33049 753.01348 -999.2500
 6036.0000 4010.8800    1.0000   38.9000   326.6110  7263.6260    1.0000  133.8000    60.2000 2308.4300  2188.80522 753.17043    5.0000
 6036.5000 4010.8700    1.0000   36.3000   321.9870  3481.7900    1.0000  133.9000    70.1000 2308.9300  2189.27995 753.32739 -999.2500
 6037.0000 4010.8700    1.0000   34.6000   310.3700  2985.5860    1.0000  133.9400    76.3000 2309.4300  2189.75467 753.48435    5.0000
 6037.5000 4010.8700    1.0000   33.7000   296.4500  1654.6030    1.0000  133.9800    76.7000 2309.9300  2190.2294  753.6413  -999.2500
 6038.0000 4010.8600    1.0000   32.9000   294.5490  1567.7380    1.0000  134.0200    77.1000 2310.4300  2190.70413 753.79826    4.0000
 6038.5000 4010.8600    1.0000   31.3000   297.3710  2657.6240    1.0000  134.0600    77.6000 2310.9300  2191.17886 753.95522 -999.2500
 6039.0000 4010.8500    1.0000   31.0000   293.0830  1641.3070    1.0000  134.1000    78.0000 2311.4300  2191.65359 754.11217    5.0000
 6039.5000 4010.8500    1.0000   32.5000   294.6420  2651.6770    1.0000  134.1400    78.4000 2311.9300  2192.12832 754.26913 -999.2500
 6040.0000 4010.8500    1.0000   35.5000   282.4530  2046.2610    1.0000  134.1800    78.5000 2312.4300  2192.60304 754.42609    4.0000
 6040.5000 4010.8400    1.0000   35.4000   279.7600  1923.3180    1.0000  134.2200    78.6000 2312.9300  2193.07777 754.58304 -999.2500
 6041.0000 4010.8400    1.0000   34.7000   258.0570  1083.0070    1.0000  134.2600    78.3000 2313.4300  2193.5525  754.7400     6.0000
