~Version Information Section
 VERS.      2.0         :CWLS LOG ASCII STANDARD -VERSION 2.0
 WRAP.      No          :SINGLE LINE PER DEPTH STEP
~Well Information Section
#MNEM.UNIT                      VALUE/NAME                 DESCRIPTION
#----.----     ----------------------------------   --------------------
 STRT    .ft           4655.0000                         :Start Depth
 STOP    .ft           6737.0000                         :Stop  Depth
 STEP    .ft              0.5000                         :Step  Depth
 NULL    .             -999.2500                         :Null value
 COMP    .          LEWIS ENERGY                         :Company Name
 WELL    .          Toposi 2H ST                         :Well Name
 PATH    .                                               :Path Name
 FLD     .          TOPOSI                               :Field Name
 LOC     .          TOPOSI                               :Location
 PROV    .          Unused                               :Province
 SRVC    .          BAKER HUGHES INTEQ                   :Service Company Name
 DATE    .          09/04/2015-14                        :28:47 SA Pacific Standard Time: System Date
 UWI     .                                               :Unique Well ID
 TIMEZONE.Hrs            -5.0000                         :Time zone difference from GMT
 PDAT    .          M.S.L                                :PERMANET DATUM
 EDF     .ft            278.6600                         :ELEVATION OF DRILL FLOOR
 EGL     .ft            256.7300                         :ELEVATION OF GROUD LEVEL
 LMF     .          R.T                                  :LOG MEASURED FROM
 APD     .          ft                  21.93            :ABOVE PERMANET DATUM
 DMF     .          DRILL FLOOR                          :DRILLING MEASURED FROM
 DEPIN   .          4685                                 :DEPTH IN
 DEPOU   .          6737                                 :DEPTH OUT
 DCS     .          MAGNA SIRGAS - BOGOTA                :DATUM COORDINATES SYSTEM
 SLAT    .          08° 19' 25.746'' N                   :SUSFACE LATITUDE
 SLON    .          73° 39' 55.448'' W                   :SURFACE LONGITUDE
 SNOR    .          1412256.100 m                        :SURFACE NORTHING
 SEAS    .          1045395.680 m                        :SURFACE EASTING
 BLAT    .          08° 19' 54.030'' N                   :BOTTOM LATITUDE
 BLON    .          73° 39' 45.848'' W                   :BOTTOM LONGITUDE
 BNOR    .          1413125.37 m                         :BOTTOM NORTHING
 BEAS    .          1045688.52 m                         :BOTTOM EASTING
~Curve Information Section
#MNEM      .UNIT         CURVE DESCRIPTION
#----      .----         -------------------------
 DEPTH     .ft           :1 Depth Hole
 TVD       .ft           :2 True Vertical Depth
 GRIM      .unitless     :3 Gamma Ray Data Point Indicator
 GR1AFM    .API          :4 Gamma Ray 1 - Apparent Filtered
 RPCHM     .ohm.m        :5 Resistivity Phase - Corrected - 2MHz
 RPCLM     .ohm.m        :6 Resistivity Phase - Corrected - 400kHz
 RPHIM     .unitless     :7 Resistivity Phase - Data Point Indicator - 2MHz
 TCDM      .degF         :8 Downhole Temperature
 RPTHM     .min          :9 Resistivity Time Since Drilled
 SRSP_VSECT.ft           :10 Planar Vertical Section
 SRSP_NS   .ft           :11 Position North
 SRSP_EW   .ft           :12 Position East
 LAGGAS    .unit         :13 Total Gas - Lagged
~PARAMETER INFORMATION
#MNEM.UNIT                  VALUE                   DESCRIPTION
#----.----     ----------------------------------   --------------------
  DFT.         BRINE                                :Drilling Fluid Type
  DFD.LB/G           9.3000                         :Drilling Fluid Density
  DFV.S             17.0000                         :Drilling Fluid Viscosity
  MSS.         ACTIVE PIT                           :Mud Sample Source
  RMS.OHMM           0.0600                         :Resistivity Of Mud Sample
  MST.DEGF          69.7000                         :Mud Sample Temperature
  RMB.OHMM           0.0300                         :Mud Resistivity At Bht
  BHT.DEGF         144.6000                         :Bottom Hole Temperature
  TSC.         01-04-2015 @ 15		            :Time Since Circulation

  DFT.         BRINE                                :Drilling Fluid Type
  DFD.LB/G           9.6000                         :Drilling Fluid Density
  DFV.S             18.0000                         :Drilling Fluid Viscosity
  MSS.         ACTIVE PIT                           :Mud Sample Source
  RMS.OHMM           0.0600                         :Resistivity Of Mud Sample
  MST.DEGF          71.0000                         :Mud Sample Temperature
  RMB.OHMM           0.8600                         :Mud Resistivity At Bht
  BHT.DEGF         136.0000                         :Bottom Hole Temperature
  TSC.         05-04-2015 @ 11		            :Time Since Circulation
  
  MRT.DEGF          147.300                         :Maximum Recorded Temperature

~Other Information Section
#MUD PROPERTIES
  - DENSITY =  9.3 LB/G
  - PLASTIC VISCOSITY = 17.0 CP
  - CHLORIDES = 94000 MG/LT
  - YIELD POINT =  11 LBF/100 FT^2

  - DENSITY =  9.6 LB/G
  - PLASTIC VISCOSITY = 18.0 CP
  - CHLORIDES = 97000 MG/LT
  - YIELD POINT =  10 LBF/100 FT^2

~Other Information Section
Disclaimer
Any opinion and / or recommendation expressed orally or written herein, has been prepared
carefully and may be used if the user so elects, however, no representative or warranty is
made by ourselves or our agents as to the correctness or completeness, and no liability is
assumed for any damages resulting from use of the same.  Baker Hughes's liabilities and obligations
shall be governed by Baker Hughes's Standard Terms and Conditions.
Creator
Export
#----------------------------------------------------------------------
#
# Curve name cross reference:  XREF 'LAS Name' 'XTF Short Name' 'XTF Structured Name'
#
XREF DEPTH DEPTH DEPTH
XREF TVD TVD GEN.TVD
XREF GRIM GRIM GAM.GRIM
XREF GR1AFM GR1AFM FGAM.GR1AFM
XREF RPCHM RPCHM CRES.RPCHM
XREF RPCLM RPCLM CRES.RPCLM
XREF RPHIM RPHIM CRES.RPHIM
XREF TCDM TCDM GEN.TCDM
XREF RPTHM RPTHM CRES.RPTHM
XREF SRSP_VSECT SRSPVSEC SURVEY_STATION.SRSP_VSECT
XREF SRSP_NS SRSPNS SURVEY_STATION.SRSP_NS
XREF SRSP_EW SRSPEW SURVEY_STATION.SRSP_EW
XREF LAGGAS LAGGAS LAGMUD.LAGGAS

~A  DEPTH     TVD      GRIM     GR1AFM     RPCHM      RPCLM     RPHIM       TCDM     RPTHM   SRSP_VSECT  SRSP_NS    SRSP_EW   LAGGAS  
# ...
 4802.5000 4019.5100    1.0000   30.7000   360.6280 44519.9730    1.0000  129.9000    37.1000 1075.11357 1020.6850  357.49837 -999.2500
 4803.0000 4019.5100    1.0000   27.0000   371.1620 44519.9730    1.0000  129.92857   36.8000 1075.61286 1021.1500  357.68184   13.0000
 4803.5000 4019.5000    1.0000   23.2000   344.5120 44519.9730    1.0000  129.95714   36.7000 1076.11214 1021.6150  357.86531 -999.2500
 4804.0000 4019.4900    1.0000   18.9000   355.0250 44519.9730    1.0000  129.98571   36.7000 1076.61143 1022.0800  358.04878    7.0000
 4804.5000 4019.4800    1.0000   17.2000   374.4660 44519.9730    1.0000  130.01429   36.7000 1077.11071 1022.5450  358.23224 -999.2500
 4805.0000 4019.4800    1.0000   17.1000   340.7350 44519.9730    1.0000  130.04286   36.9000 1077.6100  1023.0100  358.41571   10.0000
 4805.5000 4019.4700    1.0000   17.7000   363.5590 44519.9730    1.0000  130.07143   37.0000 1078.10929 1023.4750  358.59918 -999.2500
 4806.0000 4019.4600    1.0000   18.4000   372.9840 44519.9730    1.0000  130.1000    37.1000 1078.60857 1023.9400  358.78265    4.0000
 4806.5000 4019.4500    1.0000   18.5000   323.3060 44519.9730    1.0000  130.11429   37.3000 1079.10786 1024.4050  358.96612 -999.2500
 4807.0000 4019.4500    1.0000   19.9000   354.4830 44519.9730    1.0000  130.12857   37.1000 1079.60714 1024.8700  359.14959    7.0000
 4807.5000 4019.4400    1.0000   23.2000   343.1950 44519.9730    1.0000  130.14286   42.3000 1080.10643 1025.3350  359.33306 -999.2500
 4808.0000 4019.4300    1.0000   27.5000   345.2120 44519.9730    1.0000  130.15714   47.7000 1080.60571 1025.8000  359.51653    8.0000
 4808.5000 4019.4200    1.0000   30.0000   342.8230 44519.9730    1.0000  130.17143   50.1000 1081.1050  1026.2650  359.7000  -999.2500
 4809.0000 4019.4200    1.0000   30.6000   350.3020 44519.9730    1.0000  130.18571   52.2000 1081.60429 1026.7300  359.88347   12.0000
 4809.5000 4019.4100    1.0000   27.0000   351.5550 44519.9730    1.0000  130.2000    55.6000 1082.10357 1027.1950  360.06694 -999.2500
 4810.0000 4019.4000    1.0000   23.6000   355.3130 44519.9730    1.0000  130.22857   62.3000 1082.60286 1027.6600  360.25041   14.0000
 4810.5000 4019.4000    1.0000   22.2000   355.2770 44519.9730    1.0000  130.25714   64.4000 1083.10214 1028.1250  360.43388 -999.2500
 4811.0000 4019.3900    1.0000   22.7000   351.0200 44519.9730    1.0000  130.28571   66.6000 1083.60143 1028.5900  360.61735   16.0000
 4811.5000 4019.3800    1.0000   22.3000   348.8280 44519.9730    1.0000  130.31429   68.4000 1084.10071 1029.0550  360.80082 -999.2500
 4812.0000 4019.3800    1.0000   23.9000   350.1980 44519.9730    1.0000  130.34286   70.0000 1084.6000  1029.5200  360.98429   14.0000
 4812.5000 4019.3700    1.0000   25.1000   348.5690 44519.9730    1.0000  130.37143   71.7000 1085.09929 1029.9850  361.16776 -999.2500
 4813.0000 4019.3600    1.0000   27.6000   353.7810 44519.9730    1.0000  130.4000    73.3000 1085.59857 1030.4500  361.35122   17.0000
 4813.5000 4019.3600    1.0000   29.8000   357.2910 44519.9730    1.0000  130.42857   74.6000 1086.09786 1030.9150  361.53469 -999.2500
 4814.0000 4019.3500    1.0000   34.2000   359.1220 44519.9730    1.0000  130.45714   75.9000 1086.59714 1031.3800  361.71816   20.0000
 4814.5000 4019.3400    1.0000   38.7000   354.9390 44519.9730    1.0000  130.48571   76.9000 1087.09643 1031.8450  361.90163 -999.2500
 4815.0000 4019.3400    1.0000   41.1000   350.7250 44519.9730    1.0000  130.51429   77.2000 1087.59571 1032.3100  362.0851    17.0000
 4815.5000 4019.3300    1.0000   44.6000   344.9820 44519.9730    1.0000  130.54286   77.5000 1088.0950  1032.7750  362.26857 -999.2500
 4816.0000 4019.3200    1.0000   46.7000   344.6470 44519.9730    1.0000  130.57143   78.0000 1088.59429 1033.2400  362.45204   20.0000
 4816.5000 4019.3200    1.0000   50.9000   342.4720 44519.9730    1.0000  130.6000    78.8000 1089.09357 1033.7050  362.63551 -999.2500
 4817.0000 4019.3100    1.0000   56.2000   332.1180 44519.9730    1.0000  130.62857   79.5000 1089.59286 1034.1700  362.81898   21.0000
 4817.5000 4019.3100    1.0000   61.3000   326.5990 44519.9730    1.0000  130.65714   80.0000 1090.09214 1034.6350  363.00245 -999.2500
 4818.0000 4019.3000    1.0000   63.1000   315.4890 44519.9730    1.0000  130.68571   82.2000 1090.59143 1035.1000  363.18592   21.0000
 4818.5000 4019.2900    1.0000   61.1000   320.3310 44519.9730    1.0000  130.71429   82.3000 1091.09071 1035.5650  363.36939 -999.2500
 4819.0000 4019.2900    1.0000   63.4000   299.8710 44519.9730    1.0000  130.74286   82.3000 1091.5900  1036.0300  363.55286   20.0000
 4819.5000 4019.2800    1.0000   64.6000   305.7060 44519.9730    1.0000  130.77143   82.5000 1092.08929 1036.4950  363.73633 -999.2500
 4820.0000 4019.2800    1.0000   65.6000   311.6240 44519.9730    1.0000  130.8000    82.9000 1092.58857 1036.9600  363.9198    19.0000
 4820.5000 4019.2700    1.0000   64.0000   293.5440 44519.9730    1.0000  130.81667   83.2000 1093.08786 1037.4250  364.10327 -999.2500
 4821.0000 4019.2700    1.0000   64.6000   290.7350 44519.9730    1.0000  130.83333   83.2000 1093.58714 1037.8900  364.28673   24.0000
 4821.5000 4019.2600    1.0000   59.0000   286.7710 44519.9730    1.0000  130.8500    83.1000 1094.08643 1038.3550  364.4702  -999.2500
 4822.0000 4019.2600    1.0000   53.7000   301.7390 44519.9730    1.0000  130.86667   83.0000 1094.58571 1038.8200  364.65367   26.0000
 4822.5000 4019.2500    1.0000   51.3000   290.4590 44519.9730    1.0000  130.88333   82.9000 1095.0850  1039.2850  364.83714 -999.2500
 4823.0000 4019.2400    1.0000   50.1000   284.8610 38784.4610    1.0000  130.9000    82.6000 1095.58429 1039.7500  365.02061   25.0000
 4823.5000 4019.2400    1.0000   48.4000   289.4120 44519.9730    1.0000  130.93333   82.6000 1096.08357 1040.2150  365.20408 -999.2500
 4824.0000 4019.2400    1.0000   50.8000   275.7170 44519.9730    1.0000  130.96667   82.6000 1096.58286 1040.6800  365.38755   23.0000
 4824.5000 4019.2300    1.0000   55.7000   298.0450 44519.9730    1.0000  131.0000    82.4000 1097.08214 1041.1450  365.57102 -999.2500
 4825.0000 4019.2200    1.0000   58.5000   292.8500 44519.9730    1.0000  131.03333   82.3000 1097.58143 1041.6100  365.75449   21.0000
 4825.5000 4019.2200    1.0000   61.8000   290.4970 39147.9850    1.0000  131.06667   82.0000 1098.08071 1042.0750  365.93796 -999.2500
 4826.0000 4019.2100 -999.2500   64.8000   289.3130 44519.9730    1.0000  131.1000    81.8000 1098.5800  1042.5400  366.12143   24.0000
 4826.5000 4019.2100    1.0000   67.0000   280.9200 44519.9730    1.0000  131.11429   81.7000 1099.07929 1043.0050  366.3049  -999.2500
 4827.0000 4019.2000    1.0000   70.1000   290.3760 44519.9730    1.0000  131.12857   81.8000 1099.57857 1043.4700  366.48837   24.0000
 4827.5000 4019.2000    1.0000   68.8000   276.8730 44519.9730    1.0000  131.14286   81.8000 1100.07786 1043.9350  366.67184 -999.2500
 4828.0000 4019.2000    1.0000   66.7000   268.7480 44519.9730    1.0000  131.15714   81.6000 1100.57714 1044.4000  366.85531   24.0000
 4828.5000 4019.1900    1.0000   69.1000   266.6510 40501.0570    1.0000  131.17143   81.4000 1101.07643 1044.8650  367.03878 -999.2500
 4829.0000 4019.1900    1.0000   75.6000   267.1730 20782.3350    1.0000  131.18571   81.6000 1101.57571 1045.3300  367.22224   20.0000
 4829.5000 4019.1800    1.0000   79.9000   273.5130 36482.1410    1.0000  131.2000    81.4000 1102.0750  1045.7950  367.40571 -999.2500
 4830.0000 4019.1800    1.0000   81.9000   295.1160 31251.6480    1.0000  131.21667   81.5000 1102.57429 1046.2600  367.58918   15.0000
 4830.5000 4019.1700    1.0000   81.7000   281.5120 34009.4080    1.0000  131.23333   81.6000 1103.07357 1046.7250  367.77265 -999.2500
 4831.0000 4019.1700    1.0000   80.1000   286.8060 39501.4000    1.0000  131.2500    81.3000 1103.57286 1047.1900  367.95612    7.0000
 4831.5000 4019.1700    1.0000   78.0000   286.5000 39147.9850    1.0000  131.26667   81.2000 1104.07214 1047.6550  368.13959 -999.2500
