~Version Information Section
 VERS.      2.0         :CWLS LOG ASCII STANDARD -VERSION 2.0
 WRAP.      No          :SINGLE LINE PER DEPTH STEP
~Well Information Section
#MNEM.UNIT                      VALUE/NAME                 DESCRIPTION
#----.----     ----------------------------------   --------------------
 STRT    .ft           4655.0000                         :Start Depth
 STOP    .ft           6737.0000                         :Stop  Depth
 STEP    .ft              0.5000                         :Step  Depth
 NULL    .             -999.2500                         :Null value
 COMP    .          LEWIS ENERGY                         :Company Name
 WELL    .          Toposi 2H ST                         :Well Name
 PATH    .                                               :Path Name
 FLD     .          TOPOSI                               :Field Name
 LOC     .          TOPOSI                               :Location
 PROV    .          Unused                               :Province
 SRVC    .          BAKER HUGHES INTEQ                   :Service Company Name
 DATE    .          09/04/2015-14                        :28:47 SA Pacific Standard Time: System Date
 UWI     .                                               :Unique Well ID
 TIMEZONE.Hrs            -5.0000                         :Time zone difference from GMT
 PDAT    .          M.S.L                                :PERMANET DATUM
 EDF     .ft            278.6600                         :ELEVATION OF DRILL FLOOR
 EGL     .ft            256.7300                         :ELEVATION OF GROUD LEVEL
 LMF     .          R.T                                  :LOG MEASURED FROM
 APD     .          ft                  21.93            :ABOVE PERMANET DATUM
 DMF     .          DRILL FLOOR                          :DRILLING MEASURED FROM
 DEPIN   .          4685                                 :DEPTH IN
 DEPOU   .          6737                                 :DEPTH OUT
 DCS     .          MAGNA SIRGAS - BOGOTA                :DATUM COORDINATES SYSTEM
 SLAT    .          08° 19' 25.746'' N                   :SUSFACE LATITUDE
 SLON    .          73° 39' 55.448'' W                   :SURFACE LONGITUDE
 SNOR    .          1412256.100 m                        :SURFACE NORTHING
 SEAS    .          1045395.680 m                        :SURFACE EASTING
 BLAT    .          08° 19' 54.030'' N                   :BOTTOM LATITUDE
 BLON    .          73° 39' 45.848'' W                   :BOTTOM LONGITUDE
 BNOR    .          1413125.37 m                         :BOTTOM NORTHING
 BEAS    .          1045688.52 m                         :BOTTOM EASTING
~Curve Information Section
#MNEM      .UNIT         CURVE DESCRIPTION
#----      .----         -------------------------
 DEPTH     .ft           :1 Depth Hole
 TVD       .ft           :2 True Vertical Depth
 GRIM      .unitless     :3 Gamma Ray Data Point Indicator
 GR1AFM    .API          :4 Gamma Ray 1 - Apparent Filtered
 RPCHM     .ohm.m        :5 Resistivity Phase - Corrected - 2MHz
 RPCLM     .ohm.m        :6 Resistivity Phase - Corrected - 400kHz
 RPHIM     .unitless     :7 Resistivity Phase - Data Point Indicator - 2MHz
 TCDM      .degF         :8 Downhole Temperature
 RPTHM     .min          :9 Resistivity Time Since Drilled
 SRSP_VSECT.ft           :10 Planar Vertical Section
 SRSP_NS   .ft           :11 Position North
 SRSP_EW   .ft           :12 Position East
 LAGGAS    .unit         :13 Total Gas - Lagged
~PARAMETER INFORMATION
#MNEM.UNIT                  VALUE                   DESCRIPTION
#----.----     ----------------------------------   --------------------
  DFT.         BRINE                                :Drilling Fluid Type
  DFD.LB/G           9.3000                         :Drilling Fluid Density
  DFV.S             17.0000                         :Drilling Fluid Viscosity
  MSS.         ACTIVE PIT                           :Mud Sample Source
  RMS.OHMM           0.0600                         :Resistivity Of Mud Sample
  MST.DEGF          69.7000                         :Mud Sample Temperature
  RMB.OHMM           0.0300                         :Mud Resistivity At Bht
  BHT.DEGF         144.6000                         :Bottom Hole Temperature
  TSC.         01-04-2015 @ 15		            :Time Since Circulation

  DFT.         BRINE                                :Drilling Fluid Type
  DFD.LB/G           9.6000                         :Drilling Fluid Density
  DFV.S             18.0000                         :Drilling Fluid Viscosity
  MSS.         ACTIVE PIT                           :Mud Sample Source
  RMS.OHMM           0.0600                         :Resistivity Of Mud Sample
  MST.DEGF          71.0000                         :Mud Sample Temperature
  RMB.OHMM           0.8600                         :Mud Resistivity At Bht
  BHT.DEGF         136.0000                         :Bottom Hole Temperature
  TSC.         05-04-2015 @ 11		            :Time Since Circulation
  
  MRT.DEGF          147.300                         :Maximum Recorded Temperature

~Other Information Section
#MUD PROPERTIES
  - DENSITY =  9.3 LB/G
  - PLASTIC VISCOSITY = 17.0 CP
  - CHLORIDES = 94000 MG/LT
  - YIELD POINT =  11 LBF/100 FT^2

  - DENSITY =  9.6 LB/G
  - PLASTIC VISCOSITY = 18.0 CP
  - CHLORIDES = 97000 MG/LT
  - YIELD POINT =  10 LBF/100 FT^2

~Other Information Section
Disclaimer
Any opinion and / or recommendation expressed orally or written herein, has been prepared
carefully and may be used if the user so elects, however, no representative or warranty is
made by ourselves or our agents as to the correctness or completeness, and no liability is
assumed for any damages resulting from use of the same.  Baker Hughes's liabilities and obligations
shall be governed by Baker Hughes's Standard Terms and Conditions.
Creator
Export
#----------------------------------------------------------------------
#
# Curve name cross reference:  XREF 'LAS Name' 'XTF Short Name' 'XTF Structured Name'
#
XREF DEPTH DEPTH DEPTH
XREF TVD TVD GEN.TVD
XREF GRIM GRIM GAM.GRIM
XREF GR1AFM GR1AFM FGAM.GR1AFM
XREF RPCHM RPCHM CRES.RPCHM
XREF RPCLM RPCLM CRES.RPCLM
XREF RPHIM RPHIM CRES.RPHIM
XREF TCDM TCDM GEN.TCDM
XREF RPTHM RPTHM CRES.RPTHM
XREF SRSP_VSECT SRSPVSEC SURVEY_STATION.SRSP_VSECT
XREF SRSP_NS SRSPNS SURVEY_STATION.SRSP_NS
XREF SRSP_EW SRSPEW SURVEY_STATION.SRSP_EW
XREF LAGGAS LAGGAS LAGMUD.LAGGAS

~A  DEPTH     TVD      GRIM     GR1AFM     RPCHM      RPCLM     RPHIM       TCDM     RPTHM   SRSP_VSECT  SRSP_NS    SRSP_EW   LAGGAS  
 4655.0000 -999.2500    1.0000   58.0000  -999.2500  -999.2500 -999.2500  116.0600  -999.2500  927.77504  883.10675 304.4178    21.0000
 4655.5000 4021.8000    1.0000   60.7000 61625.2890 44519.9730    1.0000  116.06857 8100.7000  928.27463  883.57427 304.59476 -999.2500
 4656.0000 -999.2500    1.0000   61.8000 61625.2890 44519.9730    1.0000  116.07714 8100.6000  928.77423  884.04179 304.77171   19.0000
 4656.5000 -999.2500    1.0000   61.4000 61625.2890 44519.9730    1.0000  116.08571 8099.2000  929.27382  884.50931 304.94866 -999.2500
 4657.0000 4021.8300    1.0000   60.8000 61625.2890 44519.9730    1.0000  116.09429 8097.9000  929.77341  884.97683 305.12561   22.0000
 4657.5000 -999.2500    1.0000   58.0000 61625.2890 44519.9730    1.0000  116.10286 8096.4000  930.27301  885.44435 305.30256 -999.2500
 4658.0000 -999.2500    1.0000   52.7000 61625.2890 44519.9730    1.0000  116.11143 8095.5000  930.7726   885.91187 305.47951   22.0000
 4658.5000 -999.2500    1.0000   51.2000 61625.2890 44519.9730    1.0000  116.1200  8094.4000  931.2722   886.37939 305.65646 -999.2500
 4659.0000 4021.8500    1.0000   47.6000 61625.2890 44519.9730    1.0000  116.12857 8094.0000  931.77179  886.84691 305.83341   22.0000
 4659.5000 -999.2500    1.0000   42.2000 61625.2890 44519.9730    1.0000  116.13714 8093.3000  932.27138  887.31443 306.01037 -999.2500
 4660.0000 4021.8700    1.0000   40.6000 61625.2890 44519.9730    1.0000  116.14571 8093.1000  932.77098  887.78195 306.18732   21.0000
 4660.5000 -999.2500    1.0000   41.5000 61625.2890 44519.9730    1.0000  116.15429 8092.4000  933.27057  888.24947 306.36427 -999.2500
 4661.0000 -999.2500    1.0000   40.1000 61625.2890 44519.9730    1.0000  116.16286 8091.6000  933.77016  888.71699 306.54122   26.0000
 4661.5000 4021.8900    1.0000   38.1000 61625.2890 44519.9730    1.0000  116.17143 8090.6000  934.26976  889.18451 306.71817 -999.2500
 4662.0000 -999.2500    1.0000   37.3000 61625.2890 44519.9730    1.0000  116.1800  8089.9000  934.76935  889.65203 306.89512   21.0000
 4662.5000 4021.9000    1.0000   34.8000 61625.2890 44519.9730    1.0000  116.18857 8088.6000  935.26894  890.11955 307.07207 -999.2500
 4663.0000 4021.9000    1.0000   33.5000 61625.2890 44519.9730    1.0000  116.19714 8087.1000  935.76854  890.58707 307.24902   20.0000
 4663.5000 -999.2500    1.0000   31.5000 61625.2890 44519.9730    1.0000  116.20571 8085.7000  936.26813  891.05459 307.42598 -999.2500
 4664.0000 4021.9200    1.0000   30.6000 61625.2890 44519.9730    1.0000  116.21429 8084.4000  936.76772  891.52211 307.60293   11.0000
 4664.5000 -999.2500    1.0000   30.6000 61625.2890 44519.9730    1.0000  116.22286 8083.0000  937.26732  891.98963 307.77988 -999.2500
 4665.0000 -999.2500    1.0000   32.0000 61625.2890 44519.9730    1.0000  116.23143 8081.9000  937.76691  892.45715 307.95683   26.0000
 4665.5000 4021.9300    1.0000   31.0000 61625.2890 44519.9730    1.0000  116.2400  8081.5000  938.2665   892.92467 308.13378 -999.2500
 4666.0000 -999.2500    1.0000   33.9000 61625.2890 44519.9730    1.0000  116.24857 8081.5000  938.7661   893.3922  308.31073   25.0000
 4666.5000 4021.9500    1.0000   32.9000 61625.2890 44519.9730    1.0000  116.25714 8072.6000  939.26569  893.85972 308.48768 -999.2500
 4667.0000 -999.2500    1.0000   28.6000 53925.6900 44519.9730    1.0000  116.26571 8052.5000  939.76528  894.32724 308.66463   23.0000
 4667.5000 -999.2500    1.0000   27.3000 61625.2890 44519.9730    1.0000  116.27429 8052.2000  940.26488  894.79476 308.84159 -999.2500
 4668.0000 4021.9600    1.0000   26.1000 61625.2890 44519.9730    1.0000  116.28286 8052.0000  940.76447  895.26228 309.01854   19.0000
 4668.5000 -999.2500    1.0000   25.9000 61625.2890 44519.9730    1.0000  116.29143 8051.9000  941.26407  895.7298  309.19549 -999.2500
 4669.0000 4021.9700    1.0000   25.4000 61625.2890 44519.9730    1.0000  116.3000  8051.3000  941.76366  896.19732 309.37244   18.0000
 4669.5000 4021.9700    1.0000   24.2000 61625.2890 44519.9730    1.0000  116.4750  8049.9000  942.26325  896.66484 309.54939 -999.2500
 4670.0000 -999.2500    1.0000   22.7000 61625.2890 44519.9730    1.0000  116.6500  8049.0000  942.76285  897.13236 309.72634   19.0000
 4670.5000 4021.9800    1.0000   22.5000 61625.2890 44519.9730    1.0000  116.8250  8048.6000  943.26244  897.59988 309.90329 -999.2500
 4671.0000 4021.9800    1.0000   23.0000 61625.2890 44519.9730    1.0000  117.0000  8048.4000  943.76203  898.0674  310.08024   24.0000
 4671.5000 -999.2500    1.0000   23.9000 61625.2890 44519.9730    1.0000  117.0200  8048.2000  944.26163  898.53492 310.2572  -999.2500
 4672.0000 -999.2500    1.0000   24.5000 61625.2890 44519.9730    1.0000  117.0400  8048.1000  944.76122  899.00244 310.43415   20.0000
 4672.5000 -999.2500    1.0000   25.2000 61625.2890 44519.9730    1.0000  117.0600  8048.1000  945.26081  899.46996 310.6111  -999.2500
 4673.0000 -999.2500    1.0000   26.8000 61625.2890 44519.9730    1.0000  117.0800  8047.8000  945.76041  899.93748 310.78805   21.0000
 4673.5000 -999.2500    1.0000   27.4000 61625.2890 44519.9730    1.0000  117.1000  8047.6000  946.2600   900.4050  310.9650  -999.2500
 4674.0000 -999.2500    1.0000   27.2000 61625.2890 44519.9730    1.0000  117.1200  8047.5000  946.75959  900.87252 311.14195   25.0000
 4674.5000 -999.2500    1.0000   26.9000 61625.2890 44519.9730    1.0000  117.1400  8051.2000  947.25919  901.34004 311.3189  -999.2500
 4675.0000 -999.2500    1.0000   28.2000 58545.1200 44519.9730    1.0000  117.1600  8055.1000  947.75878  901.80756 311.49585   23.0000
 4675.5000 -999.2500    1.0000   27.4000 59769.6700 44519.9730    1.0000  117.1800  8056.2000  948.25837  902.27508 311.6728  -999.2500
 4676.0000 4022.0100    1.0000   28.7000 59575.1620 44519.9730    1.0000  117.2000  8058.6000  948.75797  902.7426  311.84976   25.0000
 4676.5000 -999.2500    1.0000   30.0000 61625.2890 44519.9730    1.0000  117.20909 8060.0000  949.25756  903.21012 312.02671 -999.2500
 4677.0000 -999.2500    1.0000   29.3000 61625.2890 44519.9730    1.0000  117.21818 8061.1000  949.75715  903.67764 312.20366   31.0000
 4677.5000 -999.2500    1.0000   27.8000 58385.7690 44519.9730    1.0000  117.22727 8061.8000  950.25675  904.14516 312.38061 -999.2500
 4678.0000 -999.2500    1.0000   29.0000 61625.2890 44519.9730    1.0000  117.23636 8062.6000  950.75634  904.61268 312.55756   31.0000
 4678.5000 -999.2500    1.0000   28.6000 57779.1040 44519.9730    1.0000  117.24545 8063.3000  951.25593  905.0802  312.73451 -999.2500
 4679.0000 -999.2500    1.0000   28.0000 61625.2890 34627.8910    1.0000  117.25455 8063.9000  951.75553  905.54772 312.91146   34.0000
 4679.5000 -999.2500    1.0000   24.8000 61625.2890 30607.6260    1.0000  117.26364 8064.5000  952.25512  906.01524 313.08841 -999.2500
 4680.0000 -999.2500    1.0000   21.2000 61625.2890 44519.9730    1.0000  117.27273 8064.2000  952.75472  906.48276 313.26537   32.0000
 4680.5000 -999.2500    1.0000   20.4000 57233.8770 44519.9730    1.0000  117.28182 8059.9000  953.25431  906.95028 313.44232 -999.2500
 4681.0000 -999.2500    1.0000   21.6000 37528.5580 44519.9730    1.0000  117.29091 8060.3000  953.7539   907.4178  313.61927   34.0000
 4681.5000 4022.0200    1.0000   21.9000 26961.9760 44519.9730    1.0000  117.3000  8061.0000  954.2535   907.88533 313.79622 -999.2500
 4682.0000 -999.2500    1.0000   29.7000 25678.6870 44519.9730    1.0000  117.3500  8061.5000  954.75309  908.35285 313.97317   31.0000
 4682.5000 4022.0200    1.0000   35.5000 61625.2890 44519.9730    1.0000  117.4000  8061.7000  955.25268  908.82037 314.15012 -999.2500
 4683.0000 4022.0200    1.0000   37.1000  6491.3570 44519.9730    1.0000  117.7000  8061.6000  955.75228  909.28789 314.32707   25.0000
 4683.5000 -999.2500    1.0000   35.2000 20608.3580 44519.9730    1.0000  117.91667 8061.6000  956.25187  909.75541 314.50402 -999.2500
 4684.0000 -999.2500    1.0000   36.9000 57524.7300 32656.6550    1.0000  118.13333 8062.0000  956.75146  910.22293 314.68098   27.0000
