~Version Information Section
 VERS.      2.0         :CWLS LOG ASCII STANDARD -VERSION 2.0
 WRAP.      No          :SINGLE LINE PER DEPTH STEP
~Well Information Section
#MNEM.UNIT                      VALUE/NAME                 DESCRIPTION
#----.----     ----------------------------------   --------------------
 STRT    .ft           4655.0000                         :Start Depth
 STOP    .ft           6737.0000                         :Stop  Depth
 STEP    .ft              0.5000                         :Step  Depth
 NULL    .             -999.2500                         :Null value
 COMP    .          LEWIS ENERGY                         :Company Name
 WELL    .          Toposi 2H ST                         :Well Name
 PATH    .                                               :Path Name
 FLD     .          TOPOSI                               :Field Name
 LOC     .          TOPOSI                               :Location
 PROV    .          Unused                               :Province
 SRVC    .          BAKER HUGHES INTEQ                   :Service Company Name
 DATE    .          09/04/2015-14                        :28:47 SA Pacific Standard Time: System Date
 UWI     .                                               :Unique Well ID
 TIMEZONE.Hrs            -5.0000                         :Time zone difference from GMT
 PDAT    .          M.S.L                                :PERMANET DATUM
 EDF     .ft            278.6600                         :ELEVATION OF DRILL FLOOR
 EGL     .ft            256.7300                         :ELEVATION OF GROUD LEVEL
 LMF     .          R.T                                  :LOG MEASURED FROM
 APD     .          ft                  21.93            :ABOVE PERMANET DATUM
 DMF     .          DRILL FLOOR                          :DRILLING MEASURED FROM
 DEPIN   .          4685                                 :DEPTH IN
 DEPOU   .          6737                                 :DEPTH OUT
 DCS     .          MAGNA SIRGAS - BOGOTA                :DATUM COORDINATES SYSTEM
 SLAT    .          08° 19' 25.746'' N                   :SUSFACE LATITUDE
 SLON    .          73° 39' 55.448'' W                   :SURFACE LONGITUDE
 SNOR    .          1412256.100 m                        :SURFACE NORTHING
 SEAS    .          1045395.680 m                        :SURFACE EASTING
 BLAT    .          08° 19' 54.030'' N                   :BOTTOM LATITUDE
 BLON    .          73° 39' 45.848'' W                   :BOTTOM LONGITUDE
 BNOR    .          1413125.37 m                         :BOTTOM NORTHING
 BEAS    .          1045688.52 m                         :BOTTOM EASTING
~Curve Information Section
#MNEM      .UNIT         CURVE DESCRIPTION
#----      .----         -------------------------
 DEPTH     .ft           :1 Depth Hole
 TVD       .ft           :2 True Vertical Depth
 GRIM      .unitless     :3 Gamma Ray Data Point Indicator
 GR1AFM    .API          :4 Gamma Ray 1 - Apparent Filtered
 RPCHM     .ohm.m        :5 Resistivity Phase - Corrected - 2MHz
 RPCLM     .ohm.m        :6 Resistivity Phase - Corrected - 400kHz
 RPHIM     .unitless     :7 Resistivity Phase - Data Point Indicator - 2MHz
 TCDM      .degF         :8 Downhole Temperature
 RPTHM     .min          :9 Resistivity Time Since Drilled
 SRSP_VSECT.ft           :10 Planar Vertical Section
 SRSP_NS   .ft           :11 Position North
 SRSP_EW   .ft           :12 Position East
 LAGGAS    .unit         :13 Total Gas - Lagged
~PARAMETER INFORMATION
#MNEM.UNIT                  VALUE                   DESCRIPTION
#----.----     ----------------------------------   --------------------
  DFT.         BRINE                                :Drilling Fluid Type
  DFD.LB/G           9.3000                         :Drilling Fluid Density
  DFV.S             17.0000                         :Drilling Fluid Viscosity
  MSS.         ACTIVE PIT                           :Mud Sample Source
  RMS.OHMM           0.0600                         :Resistivity Of Mud Sample
  MST.DEGF          69.7000                         :Mud Sample Temperature
  RMB.OHMM           0.0300                         :Mud Resistivity At Bht
  BHT.DEGF         144.6000                         :Bottom Hole Temperature
  TSC.         01-04-2015 @ 15		            :Time Since Circulation

  DFT.         BRINE                                :Drilling Fluid Type
  DFD.LB/G           9.6000                         :Drilling Fluid Density
  DFV.S             18.0000                         :Drilling Fluid Viscosity
  MSS.         ACTIVE PIT                           :Mud Sample Source
  RMS.OHMM           0.0600                         :Resistivity Of Mud Sample
  MST.DEGF          71.0000                         :Mud Sample Temperature
  RMB.OHMM           0.8600                         :Mud Resistivity At Bht
  BHT.DEGF         136.0000                         :Bottom Hole Temperature
  TSC.         05-04-2015 @ 11		            :Time Since Circulation
  
  MRT.DEGF          147.300                         :Maximum Recorded Temperature

~Other Information Section
#MUD PROPERTIES
  - DENSITY =  9.3 LB/G
  - PLASTIC VISCOSITY = 17.0 CP
  - CHLORIDES = 94000 MG/LT
  - YIELD POINT =  11 LBF/100 FT^2

  - DENSITY =  9.6 LB/G
  - PLASTIC VISCOSITY = 18.0 CP
  - CHLORIDES = 97000 MG/LT
  - YIELD POINT =  10 LBF/100 FT^2

~Other Information Section
Disclaimer
Any opinion and / or recommendation expressed orally or written herein, has been prepared
carefully and may be used if the user so elects, however, no representative or warranty is
made by ourselves or our agents as to the correctness or completeness, and no liability is
assumed for any damages resulting from use of the same.  Baker Hughes's liabilities and obligations
shall be governed by Baker Hughes's Standard Terms and Conditions.
Creator
Export
#----------------------------------------------------------------------
#
# Curve name cross reference:  XREF 'LAS Name' 'XTF Short Name' 'XTF Structured Name'
#
XREF DEPTH DEPTH DEPTH
XREF TVD TVD GEN.TVD
XREF GRIM GRIM GAM.GRIM
XREF GR1AFM GR1AFM FGAM.GR1AFM
XREF RPCHM RPCHM CRES.RPCHM
XREF RPCLM RPCLM CRES.RPCLM
XREF RPHIM RPHIM CRES.RPHIM
XREF TCDM TCDM GEN.TCDM
XREF RPTHM RPTHM CRES.RPTHM
XREF SRSP_VSECT SRSPVSEC SURVEY_STATION.SRSP_VSECT
XREF SRSP_NS SRSPNS SURVEY_STATION.SRSP_NS
XREF SRSP_EW SRSPEW SURVEY_STATION.SRSP_EW
XREF LAGGAS LAGGAS LAGMUD.LAGGAS

~A  DEPTH     TVD      GRIM     GR1AFM     RPCHM      RPCLM     RPHIM       TCDM     RPTHM   SRSP_VSECT  SRSP_NS    SRSP_EW   LAGGAS  
# ...
 5481.0000 4013.1000    1.0000   46.1000   601.6860 44519.9730    1.0000  137.43333   58.6000 1753.46158 1661.85684 579.00474  130.0000
 5481.5000 4013.1000    1.0000   46.3000  1039.3690 44519.9730    1.0000  137.4500    58.3000 1753.96153 1662.33195 579.16058 -999.2500
 5482.0000 4013.1000    1.0000   49.1000   869.7250 44519.9730    1.0000  137.46667   52.9000 1754.46147 1662.80705 579.31642  184.0000
 5482.5000 4013.1000    1.0000   48.4000   588.7150 44519.9730    1.0000  137.48333   49.7000 1754.96142 1663.28216 579.47226 -999.2500
 5483.0000 4013.0900    1.0000   47.4000   302.2590 18863.0330    1.0000  137.5000    49.1000 1755.46137 1663.75726 579.62811  207.0000
 5483.5000 4013.0900    1.0000   45.6000   418.3630 44519.9730    1.0000  137.3750    48.3000 1755.96132 1664.23237 579.78395 -999.2500
 5484.0000 4013.0900    1.0000   44.9000   734.5410 44519.9730    1.0000  137.2500    47.4000 1756.46126 1664.70747 579.93979  370.0000
 5484.5000 4013.0900    1.0000   42.9000   587.7530 44519.9730    1.0000  137.1250    43.8000 1756.96121 1665.18258 580.09563 -999.2500
 5485.0000 4013.0900    1.0000   42.8000   572.9990 44519.9730    1.0000  137.0000    42.8000 1757.46116 1665.65768 580.25147  475.0000
 5485.5000 4013.0800    1.0000   42.6000   725.6570 44519.9730    1.0000  136.8750    42.2000 1757.96111 1666.13279 580.40732 -999.2500
 5486.0000 4013.0800    1.0000   42.9000   780.1980 44519.9730    1.0000  136.7500    41.6000 1758.46105 1666.60789 580.56316  431.0000
 5486.5000 4013.0800    1.0000   41.1000   588.8390 39174.7770    1.0000  136.6250    41.3000 1758.9610  1667.0830  580.7190  -999.2500
 5487.0000 4013.0800    1.0000   37.8000   645.4930 44519.9730    1.0000  136.5000    40.6000 1759.46095 1667.55811 580.87484  372.0000
 5487.5000 4013.0700    1.0000   34.3000   536.3280 44519.9730    1.0000  136.33333   39.6000 1759.96089 1668.03321 581.03068 -999.2500
 5488.0000 4013.0700    1.0000   34.5000   687.4730 44519.9730    1.0000  136.16667   39.0000 1760.46084 1668.50832 581.18653  324.0000
 5488.5000 4013.0700    1.0000   32.9000   614.2940 37828.5420    1.0000  136.0000    38.6000 1760.96079 1668.98342 581.34237 -999.2500
 5489.0000 4013.0700    1.0000   30.3000   606.9350 44519.9730    1.0000  135.9000    38.5000 1761.46074 1669.45853 581.49821  263.0000
 5489.5000 4013.0600    1.0000   29.8000   683.9060 44519.9730    1.0000  135.8000    38.9000 1761.96068 1669.93363 581.65405 -999.2500
 5490.0000 4013.0600    1.0000   29.6000   625.2700 44519.9730    1.0000  135.7000    38.7000 1762.46063 1670.40874 581.80989  314.0000
 5490.5000 4013.0600    1.0000   29.4000   570.2730 44519.9730    1.0000  135.6000    38.6000 1762.96058 1670.88384 581.96574 -999.2500
 5491.0000 4013.0600    1.0000   26.3000   619.7120 44519.9730    1.0000  135.5000    38.8000 1763.46053 1671.35895 582.12158  448.0000
 5491.5000 4013.0500    1.0000   24.2000   597.4120 44519.9730    1.0000  135.43333   38.8000 1763.96047 1671.83405 582.27742 -999.2500
 5492.0000 4013.0500    1.0000   23.6000   688.5020 44519.9730    1.0000  135.36667   38.3000 1764.46042 1672.30916 582.43326  554.0000
 5492.5000 4013.0500    1.0000   24.3000   731.5100 44519.9730    1.0000  135.3000    38.2000 1764.96037 1672.78426 582.58911 -999.2500
 5493.0000 4013.0500    1.0000   26.3000   659.6220 44519.9730    1.0000  135.23333   38.4000 1765.46032 1673.25937 582.74495  563.0000
 5493.5000 4013.0500    1.0000   26.5000   664.0010 44519.9730    1.0000  135.16667   38.1000 1765.96026 1673.73447 582.90079 -999.2500
 5494.0000 4013.0400    1.0000   26.3000   571.7730 44519.9730    1.0000  135.1000    38.0000 1766.46021 1674.20958 583.05663  515.0000
 5494.5000 4013.0400    1.0000   26.4000   785.3540 44519.9730    1.0000  135.0625    37.5000 1766.96016 1674.68468 583.21247 -999.2500
 5495.0000 4013.0400    1.0000   27.0000   694.5800 44519.9730    1.0000  135.0250    36.0000 1767.46011 1675.15979 583.36832  501.0000
 5495.5000 4013.0400    1.0000   27.5000   733.7660 44519.9730    1.0000  134.9875    34.9000 1767.96005 1675.63489 583.52416 -999.2500
 5496.0000 4013.0400    1.0000   26.8000   698.8810 44519.9730    1.0000  134.9500    35.0000 1768.4600  1676.1100  583.6800   493.0000
 5496.5000 4013.0300    1.0000   26.5000   660.7350 44519.9730    1.0000  134.9125    34.6000 1768.95995 1676.58542 583.83484 -999.2500
 5497.0000 4013.0300    1.0000   24.4000   675.3030 44519.9730    1.0000  134.8750    34.8000 1769.45989 1677.06084 583.98968  500.0000
 5497.5000 4013.0300    1.0000   21.7000   621.9060 44519.9730    1.0000  134.8375    34.9000 1769.95984 1677.53626 584.14453 -999.2500
 5498.0000 4013.0300    1.0000   21.0000   675.5540 44519.9730    1.0000  134.8000    35.0000 1770.45979 1678.01168 584.29937  503.0000
 5498.5000 4013.0300    1.0000   21.2000   608.2600 44519.9730    1.0000  134.8000    35.3000 1770.95974 1678.48711 584.45421 -999.2500
 5499.0000 4013.0200    1.0000   22.4000   666.0520 44519.9730    1.0000  134.8000    35.1000 1771.45968 1678.96253 584.60905  486.0000
 5499.5000 4013.0200    1.0000   22.4000   661.7130 44519.9730    1.0000  134.8000    35.0000 1771.95963 1679.43795 584.76389 -999.2500
 5500.0000 4013.0200    1.0000   25.3000   653.9490 44519.9730    1.0000  134.8000    34.9000 1772.45958 1679.91337 584.91874  492.0000
 5500.5000 4013.0200    1.0000   27.8000   693.4040 44519.9730    1.0000  134.8000    35.1000 1772.95953 1680.38879 585.07358 -999.2500
 5501.0000 4013.0100    1.0000   27.9000   698.7210 44519.9730    1.0000  134.8000    35.2000 1773.45947 1680.86421 585.22842  532.0000
 5501.5000 4013.0100    1.0000   29.5000   618.0640 44519.9730    1.0000  134.8000    35.2000 1773.95942 1681.33963 585.38326 -999.2500
 5502.0000 4013.0100    1.0000   31.6000   639.4320 44519.9730    1.0000  134.81429   34.9000 1774.45937 1681.81505 585.53811  626.0000
 5502.5000 4013.0100    1.0000   31.7000   693.1680 44519.9730    2.0000  134.82857   34.9000 1774.95932 1682.29047 585.69295 -999.2500
 5503.0000 4013.0000    1.0000   33.4000   654.9730 44519.9730    1.0000  134.84286   34.8000 1775.45926 1682.76589 585.84779  790.0000
 5503.5000 4013.0000    1.0000   36.9000   671.3260 44519.9730    1.0000  134.85714   34.8000 1775.95921 1683.24132 586.00263 -999.2500
 5504.0000 4013.0000    1.0000   41.6000   673.6700 44519.9730    1.0000  134.87143   34.7000 1776.45916 1683.71674 586.15747  845.0000
 5504.5000 4013.0000    1.0000   41.3000   796.8800 44519.9730    1.0000  134.88571   34.6000 1776.95911 1684.19216 586.31232 -999.2500
 5505.0000 4013.0000    1.0000   39.4000   722.3270 44519.9730    1.0000  134.9000    34.3000 1777.45905 1684.66758 586.46716  749.0000
 5505.5000 4012.9900    1.0000   36.7000   589.6630 44519.9730    1.0000  134.91667   34.2000 1777.9590  1685.1430  586.6220  -999.2500
 5506.0000 4012.9900    1.0000   36.8000   623.8560 44519.9730    1.0000  134.93333   34.1000 1778.45895 1685.61842 586.77684  557.0000
 5506.5000 4012.9900    1.0000   38.4000   720.2470 44519.9730    1.0000  134.9500    34.0000 1778.95889 1686.09384 586.93168 -999.2500
 5507.0000 4012.9800    1.0000   44.7000   820.5340 44519.9730    1.0000  134.96667   34.0000 1779.45884 1686.56926 587.08653  475.0000
 5507.5000 4012.9800    1.0000   46.5000   653.7940 44519.9730    1.0000  134.98333   33.6000 1779.95879 1687.04468 587.24137 -999.2500
 5508.0000 4012.9800    1.0000   45.1000   651.1820 44519.9730    1.0000  135.0000    33.0000 1780.45874 1687.52011 587.39621  375.0000
 5508.5000 4012.9800    1.0000   46.0000   705.8330 44519.9730    1.0000  135.0125    33.0000 1780.95868 1687.99553 587.55105 -999.2500
 5509.0000 4012.9700    1.0000   45.2000   723.1400 44519.9730    1.0000  135.0250    32.9000 1781.45863 1688.47095 587.70589  319.0000
 5509.5000 4012.9700    1.0000   46.9000   681.9660 44519.9730    1.0000  135.0375    33.0000 1781.95858 1688.94637 587.86074 -999.2500
 5510.0000 4012.9700    1.0000   47.6000   691.2090 44519.9730    1.0000  135.0500    33.1000 1782.45853 1689.42179 588.01558  289.0000
