~Version Information Section
 VERS.      2.0         :CWLS LOG ASCII STANDARD -VERSION 2.0
 WRAP.      No          :SINGLE LINE PER DEPTH STEP
~Well Information Section
#MNEM.UNIT                      VALUE/NAME                 DESCRIPTION
#----.----     ----------------------------------   --------------------
 STRT    .ft           4655.0000                         :Start Depth
 STOP    .ft           6737.0000                         :Stop  Depth
 STEP    .ft              0.5000                         :Step  Depth
 NULL    .             -999.2500                         :Null value
 COMP    .          LEWIS ENERGY                         :Company Name
 WELL    .          Toposi 2H ST                         :Well Name
 PATH    .                                               :Path Name
 FLD     .          TOPOSI                               :Field Name
 LOC     .          TOPOSI                               :Location
 PROV    .          Unused                               :Province
 SRVC    .          BAKER HUGHES INTEQ                   :Service Company Name
 DATE    .          09/04/2015-14                        :28:47 SA Pacific Standard Time: System Date
 UWI     .                                               :Unique Well ID
 TIMEZONE.Hrs            -5.0000                         :Time zone difference from GMT
 PDAT    .          M.S.L                                :PERMANET DATUM
 EDF     .ft            278.6600                         :ELEVATION OF DRILL FLOOR
 EGL     .ft            256.7300                         :ELEVATION OF GROUD LEVEL
 LMF     .          R.T                                  :LOG MEASURED FROM
 APD     .          ft                  21.93            :ABOVE PERMANET DATUM
 DMF     .          DRILL FLOOR                          :DRILLING MEASURED FROM
 DEPIN   .          4685                                 :DEPTH IN
 DEPOU   .          6737                                 :DEPTH OUT
 DCS     .          MAGNA SIRGAS - BOGOTA                :DATUM COORDINATES SYSTEM
 SLAT    .          08° 19' 25.746'' N                   :SUSFACE LATITUDE
 SLON    .          73° 39' 55.448'' W                   :SURFACE LONGITUDE
 SNOR    .          1412256.100 m                        :SURFACE NORTHING
 SEAS    .          1045395.680 m                        :SURFACE EASTING
 BLAT    .          08° 19' 54.030'' N                   :BOTTOM LATITUDE
 BLON    .          73° 39' 45.848'' W                   :BOTTOM LONGITUDE
 BNOR    .          1413125.37 m                         :BOTTOM NORTHING
 BEAS    .          1045688.52 m                         :BOTTOM EASTING
~Curve Information Section
#MNEM      .UNIT         CURVE DESCRIPTION
#----      .----         -------------------------
 DEPTH     .ft           :1 Depth Hole
 TVD       .ft           :2 True Vertical Depth
 GRIM      .unitless     :3 Gamma Ray Data Point Indicator
 GR1AFM    .API          :4 Gamma Ray 1 - Apparent Filtered
 RPCHM     .ohm.m        :5 Resistivity Phase - Corrected - 2MHz
 RPCLM     .ohm.m        :6 Resistivity Phase - Corrected - 400kHz
 RPHIM     .unitless     :7 Resistivity Phase - Data Point Indicator - 2MHz
 TCDM      .degF         :8 Downhole Temperature
 RPTHM     .min          :9 Resistivity Time Since Drilled
 SRSP_VSECT.ft           :10 Planar Vertical Section
 SRSP_NS   .ft           :11 Position North
 SRSP_EW   .ft           :12 Position East
 LAGGAS    .unit         :13 Total Gas - Lagged
~PARAMETER INFORMATION
#MNEM.UNIT                  VALUE                   DESCRIPTION
#----.----     ----------------------------------   --------------------
  DFT.         BRINE                                :Drilling Fluid Type
  DFD.LB/G           9.3000                         :Drilling Fluid Density
  DFV.S             17.0000                         :Drilling Fluid Viscosity
  MSS.         ACTIVE PIT                           :Mud Sample Source
  RMS.OHMM           0.0600                         :Resistivity Of Mud Sample
  MST.DEGF          69.7000                         :Mud Sample Temperature
  RMB.OHMM           0.0300                         :Mud Resistivity At Bht
  BHT.DEGF         144.6000                         :Bottom Hole Temperature
  TSC.         01-04-2015 @ 15		            :Time Since Circulation

  DFT.         BRINE                                :Drilling Fluid Type
  DFD.LB/G           9.6000                         :Drilling Fluid Density
  DFV.S             18.0000                         :Drilling Fluid Viscosity
  MSS.         ACTIVE PIT                           :Mud Sample Source
  RMS.OHMM           0.0600                         :Resistivity Of Mud Sample
  MST.DEGF          71.0000                         :Mud Sample Temperature
  RMB.OHMM           0.8600                         :Mud Resistivity At Bht
  BHT.DEGF         136.0000                         :Bottom Hole Temperature
  TSC.         05-04-2015 @ 11		            :Time Since Circulation
  
  MRT.DEGF          147.300                         :Maximum Recorded Temperature

~Other Information Section
#MUD PROPERTIES
  - DENSITY =  9.3 LB/G
  - PLASTIC VISCOSITY = 17.0 CP
  - CHLORIDES = 94000 MG/LT
  - YIELD POINT =  11 LBF/100 FT^2

  - DENSITY =  9.6 LB/G
  - PLASTIC VISCOSITY = 18.0 CP
  - CHLORIDES = 97000 MG/LT
  - YIELD POINT =  10 LBF/100 FT^2

~Other Information Section
Disclaimer
Any opinion and / or recommendation expressed orally or written herein, has been prepared
carefully and may be used if the user so elects, however, no representative or warranty is
made by ourselves or our agents as to the correctness or completeness, and no liability is
assumed for any damages resulting from use of the same.  Baker Hughes's liabilities and obligations
shall be governed by Baker Hughes's Standard Terms and Conditions.
Creator
Export
#----------------------------------------------------------------------
#
# Curve name cross reference:  XREF 'LAS Name' 'XTF Short Name' 'XTF Structured Name'
#
XREF DEPTH DEPTH DEPTH
XREF TVD TVD GEN.TVD
XREF GRIM GRIM GAM.GRIM
XREF GR1AFM GR1AFM FGAM.GR1AFM
XREF RPCHM RPCHM CRES.RPCHM
XREF RPCLM RPCLM CRES.RPCLM
XREF RPHIM RPHIM CRES.RPHIM
XREF TCDM TCDM GEN.TCDM
XREF RPTHM RPTHM CRES.RPTHM
XREF SRSP_VSECT SRSPVSEC SURVEY_STATION.SRSP_VSECT
XREF SRSP_NS SRSPNS SURVEY_STATION.SRSP_NS
XREF SRSP_EW SRSPEW SURVEY_STATION.SRSP_EW
XREF LAGGAS LAGGAS LAGMUD.LAGGAS

~A  DEPTH     TVD      GRIM     GR1AFM     RPCHM      RPCLM     RPHIM       TCDM     RPTHM   SRSP_VSECT  SRSP_NS    SRSP_EW   LAGGAS  
# ...
 6159.5000 -999.2500    1.0000   63.3000   365.2050 13572.7590    1.0000  140.48889   47.5000 2431.91995 2305.82247 792.6236  -999.2500
 6160.0000 4009.5100    1.0000   63.8000   359.8940  9805.3150    1.0000  140.5000    48.0000 2432.41989 2306.29495 792.7872     7.0000
 6160.5000 4009.5000    1.0000   63.8000   349.1670 10199.0920    1.0000  140.5250    48.5000 2432.91984 2306.76742 792.95081 -999.2500
 6161.0000 4009.5000    1.0000   63.2000   365.9420 16445.0240    1.0000  140.5500    49.0000 2433.41978 2307.23989 793.11441    6.0000
 6161.5000 4009.4900    1.0000   62.6000   358.7800 10513.7750    1.0000  140.5750    49.5000 2433.91973 2307.71237 793.27801 -999.2500
 6162.0000 4009.4800    1.0000   61.7000   347.5730 10355.5530    1.0000  140.6000    50.0000 2434.41968 2308.18484 793.44161    8.0000
 6162.5000 4009.4800    1.0000   61.4000   350.8040 15991.2150    1.0000  140.6250    50.4000 2434.91962 2308.65731 793.60522 -999.2500
 6163.0000 4009.4700    1.0000   59.9000   380.5430  8124.0930    1.0000  140.6500    50.9000 2435.41957 2309.12978 793.76882    7.0000
 6163.5000 4009.4600    1.0000   59.5000   376.2990 14765.2550    1.0000  140.6750    51.4000 2435.91952 2309.60226 793.93242 -999.2500
 6164.0000 4009.4500    1.0000   61.0000   361.4690 13583.8600    1.0000  140.7000    51.8000 2436.41946 2310.07473 794.09602    7.0000
 6164.5000 4009.4500    1.0000   59.9000   355.2620 25561.3260    1.0000  140.71429   51.8000 2436.91941 2310.5472  794.25962 -999.2500
 6165.0000 4009.4400    1.0000   59.3000   389.6440  9040.0650    1.0000  140.72857   52.2000 2437.41935 2311.01968 794.42323    6.0000
 6165.5000 4009.4300    1.0000   58.8000   383.9150 17382.7050    1.0000  140.74286   52.5000 2437.9193  2311.49215 794.58683 -999.2500
 6166.0000 4009.4300    1.0000   62.8000   376.7660 16559.7070    1.0000  140.75714   52.9000 2438.41925 2311.96462 794.75043    5.0000
 6166.5000 4009.4200    1.0000   61.9000   360.7520  9449.6740    1.0000  140.77143   55.2000 2438.91919 2312.4371  794.91403 -999.2500
 6167.0000 4009.4100    1.0000   59.0000   353.9690  3775.9350    1.0000  140.78571   61.6000 2439.41914 2312.90957 795.07763   10.0000
 6167.5000 4009.4100    1.0000   58.2000   356.4210  3796.1830    1.0000  140.8000    62.7000 2439.91909 2313.38204 795.24124 -999.2500
 6168.0000 4009.4000    1.0000   60.8000   356.7600  3034.8060    1.0000  140.8250    63.4000 2440.41903 2313.85452 795.40484    5.0000
 6168.5000 4009.3900    1.0000   63.5000   356.9720  3012.4790    1.0000  140.8500    64.9000 2440.91898 2314.32699 795.56844 -999.2500
 6169.0000 4009.3900    1.0000   64.6000   358.4850  2834.9090    1.0000  140.8750    68.3000 2441.41892 2314.79946 795.73204    6.0000
 6169.5000 4009.3800    1.0000   65.7000   361.1690  2954.8640    1.0000  140.9000    73.7000 2441.91887 2315.27194 795.89565 -999.2500
 6170.0000 4009.3700    1.0000   64.3000   358.3000  2851.1320    1.0000  140.9250    77.5000 2442.41882 2315.74441 796.05925    9.0000
 6170.5000 4009.3700    1.0000   61.7000   360.6190  3946.1030    1.0000  140.9500    79.7000 2442.91876 2316.21688 796.22285 -999.2500
 6171.0000 4009.3600    1.0000   61.5000   353.6740  2961.7420    1.0000  140.9750    81.8000 2443.41871 2316.68935 796.38645    6.0000
 6171.5000 4009.3600    1.0000   62.0000   347.5330  2548.9260    1.0000  141.0000    83.7000 2443.91866 2317.16183 796.55005 -999.2500
 6172.0000 4009.3500    1.0000   64.4000   345.9840  2958.5290    1.0000  141.0000    85.1000 2444.4186  2317.6343  796.71366    8.0000
 6172.5000 4009.3400    1.0000   64.1000   353.5740  2681.6790    1.0000  141.0000    88.0000 2444.91855 2318.10677 796.87726 -999.2500
 6173.0000 4009.3400    1.0000   64.4000   362.5440  3530.3510    1.0000  141.0000    90.5000 2445.41849 2318.57925 797.04086    5.0000
 6173.5000 4009.3300    1.0000   62.5000   373.2180  6613.8320    1.0000  141.0000    93.2000 2445.91844 2319.05172 797.20446 -999.2500
 6174.0000 4009.3200    1.0000   64.0000   376.6750  6652.2620    1.0000  141.0000    95.4000 2446.41839 2319.52419 797.36806    7.0000
 6174.5000 4009.3200    1.0000   63.3000   403.2720 11104.3990    1.0000  141.0000   100.4000 2446.91833 2319.99667 797.53167 -999.2500
 6175.0000 4009.3100    1.0000   61.2000   386.5890 24649.9640    1.0000  141.0000   100.7000 2447.41828 2320.46914 797.69527   11.0000
 6175.5000 4009.3100    1.0000   62.0000   417.1520 31006.2780    1.0000  140.98571  101.1000 2447.91823 2320.94161 797.85887 -999.2500
 6176.0000 4009.3000    1.0000   62.0000   398.7040 18315.6490    1.0000  140.97143  101.6000 2448.41817 2321.41409 798.02247    6.0000
 6176.5000 4009.2900    1.0000   60.8000   386.8490  9724.6840    1.0000  140.95714  110.0000 2448.91812 2321.88656 798.18608 -999.2500
 6177.0000 4009.2900    1.0000   60.5000   405.9850 23284.1540    1.0000  140.94286  126.2000 2449.41806 2322.35903 798.34968    8.0000
 6177.5000 4009.2800    1.0000   59.0000   420.8510 12150.4760    1.0000  140.92857  126.5000 2449.91801 2322.83151 798.51328 -999.2500
 6178.0000 4009.2700    1.0000   61.9000   414.8680 19255.0290    1.0000  140.91429  126.8000 2450.41796 2323.30398 798.67688    6.0000
 6178.5000 4009.2700    1.0000   62.5000   430.6530  6614.1600    1.0000  140.9000   126.9000 2450.9179  2323.77645 798.84048 -999.2500
 6179.0000 4009.2600    1.0000   61.0000   399.7060 18932.1330    1.0000  140.8800   127.1000 2451.41785 2324.24892 799.00409    5.0000
 6179.5000 4009.2600    1.0000   61.9000   395.7490  7564.4860    1.0000  140.8600   127.4000 2451.9178  2324.7214  799.16769 -999.2500
 6180.0000 4009.2500    1.0000   62.6000   409.3350 23512.0140    1.0000  140.8400   127.7000 2452.41774 2325.19387 799.33129    5.0000
 6180.5000 -999.2500    1.0000   64.6000   440.2460 19872.5190    1.0000  140.8200   128.0000 2452.91769 2325.66634 799.49489 -999.2500
 6181.0000 4009.2400    1.0000   64.6000   396.4580 31045.5140    1.0000  140.8000   128.2000 2453.41763 2326.13882 799.65849    3.0000
 6181.5000 4009.2300    1.0000   65.5000   406.0770 22912.3120    1.0000  140.7750   128.3000 2453.91758 2326.61129 799.8221  -999.2500
 6182.0000 4009.2300    1.0000   68.4000   399.2180 25356.0340    1.0000  140.7500   127.6000 2454.41753 2327.08376 799.9857     6.0000
 6182.5000 4009.2200    1.0000   66.6000   392.6500 23442.4540    1.0000  140.7250   127.2000 2454.91747 2327.55624 800.1493  -999.2500
 6183.0000 4009.2200    1.0000   61.8000   397.7900 23137.6110    1.0000  140.7000   126.7000 2455.41742 2328.02871 800.3129     6.0000
 6183.5000 4009.2100    1.0000   58.9000   412.7020 15972.5810    1.0000  140.6000   121.8000 2455.91737 2328.50118 800.47651 -999.2500
 6184.0000 4009.2000    1.0000   60.5000   422.8620 17507.1630    1.0000  140.5000   121.0000 2456.41731 2328.97366 800.64011    8.0000
 6184.5000 4009.2000    1.0000   62.2000   391.0580 25622.3400    1.0000  140.4000   121.8000 2456.91726 2329.44613 800.80371 -999.2500
 6185.0000 4009.1900    1.0000   65.3000   490.0770 20961.1010    1.0000  140.4000   121.9000 2457.4172  2329.9186  800.96731    4.0000
 6185.5000 4009.1900    1.0000   63.1000   429.0360  4522.7410    1.0000  140.4000   121.6000 2457.91715 2330.39108 801.13091 -999.2500
 6186.0000 4009.1800    1.0000   60.3000   387.0370 27785.4770    1.0000  140.4000   121.0000 2458.4171  2330.86355 801.29452    4.0000
 6186.5000 4009.1800    1.0000   60.3000   409.8790 22856.8530    1.0000  140.4000   120.6000 2458.91704 2331.33602 801.45812 -999.2500
 6187.0000 4009.1700    1.0000   61.7000   384.7770 10073.4820    1.0000  140.4250   120.5000 2459.41699 2331.80849 801.62172    5.0000
 6187.5000 4009.1700    1.0000   59.1000   382.3710 38253.3520    1.0000  140.4500   120.5000 2459.91694 2332.28097 801.78532 -999.2500
 6188.0000 4009.1600    1.0000   60.8000   377.5810 20560.1580    1.0000  140.4750   120.5000 2460.41688 2332.75344 801.94892    5.0000
 6188.5000 4009.1500    1.0000   59.8000   381.3230 16502.6460    1.0000  140.5000   120.4000 2460.91683 2333.22591 802.11253 -999.2500
