~Version Information Section
 VERS.      2.0         :CWLS LOG ASCII STANDARD -VERSION 2.0
 WRAP.      No          :SINGLE LINE PER DEPTH STEP
~Well Information Section
#MNEM.UNIT                      VALUE/NAME                 DESCRIPTION
#----.----     ----------------------------------   --------------------
 STRT    .ft           4655.0000                         :Start Depth
 STOP    .ft           6737.0000                         :Stop  Depth
 STEP    .ft              0.5000                         :Step  Depth
 NULL    .             -999.2500                         :Null value
 COMP    .          LEWIS ENERGY                         :Company Name
 WELL    .          Toposi 2H ST                         :Well Name
 PATH    .                                               :Path Name
 FLD     .          TOPOSI                               :Field Name
 LOC     .          TOPOSI                               :Location
 PROV    .          Unused                               :Province
 SRVC    .          BAKER HUGHES INTEQ                   :Service Company Name
 DATE    .          09/04/2015-14                        :28:47 SA Pacific Standard Time: System Date
 UWI     .                                               :Unique Well ID
 TIMEZONE.Hrs            -5.0000                         :Time zone difference from GMT
 PDAT    .          M.S.L                                :PERMANET DATUM
 EDF     .ft            278.6600                         :ELEVATION OF DRILL FLOOR
 EGL     .ft            256.7300                         :ELEVATION OF GROUD LEVEL
 LMF     .          R.T                                  :LOG MEASURED FROM
 APD     .          ft                  21.93            :ABOVE PERMANET DATUM
 DMF     .          DRILL FLOOR                          :DRILLING MEASURED FROM
 DEPIN   .          4685                                 :DEPTH IN
 DEPOU   .          6737                                 :DEPTH OUT
 DCS     .          MAGNA SIRGAS - BOGOTA                :DATUM COORDINATES SYSTEM
 SLAT    .          08° 19' 25.746'' N                   :SUSFACE LATITUDE
 SLON    .          73° 39' 55.448'' W                   :SURFACE LONGITUDE
 SNOR    .          1412256.100 m                        :SURFACE NORTHING
 SEAS    .          1045395.680 m                        :SURFACE EASTING
 BLAT    .          08° 19' 54.030'' N                   :BOTTOM LATITUDE
 BLON    .          73° 39' 45.848'' W                   :BOTTOM LONGITUDE
 BNOR    .          1413125.37 m                         :BOTTOM NORTHING
 BEAS    .          1045688.52 m                         :BOTTOM EASTING
~Curve Information Section
#MNEM      .UNIT         CURVE DESCRIPTION
#----      .----         -------------------------
 DEPTH     .ft           :1 Depth Hole
 TVD       .ft           :2 True Vertical Depth
 GRIM      .unitless     :3 Gamma Ray Data Point Indicator
 GR1AFM    .API          :4 Gamma Ray 1 - Apparent Filtered
 RPCHM     .ohm.m        :5 Resistivity Phase - Corrected - 2MHz
 RPCLM     .ohm.m        :6 Resistivity Phase - Corrected - 400kHz
 RPHIM     .unitless     :7 Resistivity Phase - Data Point Indicator - 2MHz
 TCDM      .degF         :8 Downhole Temperature
 RPTHM     .min          :9 Resistivity Time Since Drilled
 SRSP_VSECT.ft           :10 Planar Vertical Section
 SRSP_NS   .ft           :11 Position North
 SRSP_EW   .ft           :12 Position East
 LAGGAS    .unit         :13 Total Gas - Lagged
~PARAMETER INFORMATION
#MNEM.UNIT                  VALUE                   DESCRIPTION
#----.----     ----------------------------------   --------------------
  DFT.         BRINE                                :Drilling Fluid Type
  DFD.LB/G           9.3000                         :Drilling Fluid Density
  DFV.S             17.0000                         :Drilling Fluid Viscosity
  MSS.         ACTIVE PIT                           :Mud Sample Source
  RMS.OHMM           0.0600                         :Resistivity Of Mud Sample
  MST.DEGF          69.7000                         :Mud Sample Temperature
  RMB.OHMM           0.0300                         :Mud Resistivity At Bht
  BHT.DEGF         144.6000                         :Bottom Hole Temperature
  TSC.         01-04-2015 @ 15		            :Time Since Circulation

  DFT.         BRINE                                :Drilling Fluid Type
  DFD.LB/G           9.6000                         :Drilling Fluid Density
  DFV.S             18.0000                         :Drilling Fluid Viscosity
  MSS.         ACTIVE PIT                           :Mud Sample Source
  RMS.OHMM           0.0600                         :Resistivity Of Mud Sample
  MST.DEGF          71.0000                         :Mud Sample Temperature
  RMB.OHMM           0.8600                         :Mud Resistivity At Bht
  BHT.DEGF         136.0000                         :Bottom Hole Temperature
  TSC.         05-04-2015 @ 11		            :Time Since Circulation
  
  MRT.DEGF          147.300                         :Maximum Recorded Temperature

~Other Information Section
#MUD PROPERTIES
  - DENSITY =  9.3 LB/G
  - PLASTIC VISCOSITY = 17.0 CP
  - CHLORIDES = 94000 MG/LT
  - YIELD POINT =  11 LBF/100 FT^2

  - DENSITY =  9.6 LB/G
  - PLASTIC VISCOSITY = 18.0 CP
  - CHLORIDES = 97000 MG/LT
  - YIELD POINT =  10 LBF/100 FT^2

~Other Information Section
Disclaimer
Any opinion and / or recommendation expressed orally or written herein, has been prepared
carefully and may be used if the user so elects, however, no representative or warranty is
made by ourselves or our agents as to the correctness or completeness, and no liability is
assumed for any damages resulting from use of the same.  Baker Hughes's liabilities and obligations
shall be governed by Baker Hughes's Standard Terms and Conditions.
Creator
Export
#----------------------------------------------------------------------
#
# Curve name cross reference:  XREF 'LAS Name' 'XTF Short Name' 'XTF Structured Name'
#
XREF DEPTH DEPTH DEPTH
XREF TVD TVD GEN.TVD
XREF GRIM GRIM GAM.GRIM
XREF GR1AFM GR1AFM FGAM.GR1AFM
XREF RPCHM RPCHM CRES.RPCHM
XREF RPCLM RPCLM CRES.RPCLM
XREF RPHIM RPHIM CRES.RPHIM
XREF TCDM TCDM GEN.TCDM
XREF RPTHM RPTHM CRES.RPTHM
XREF SRSP_VSECT SRSPVSEC SURVEY_STATION.SRSP_VSECT
XREF SRSP_NS SRSPNS SURVEY_STATION.SRSP_NS
XREF SRSP_EW SRSPEW SURVEY_STATION.SRSP_EW
XREF LAGGAS LAGGAS LAGMUD.LAGGAS

~A  DEPTH     TVD      GRIM     GR1AFM     RPCHM      RPCLM     RPHIM       TCDM     RPTHM   SRSP_VSECT  SRSP_NS    SRSP_EW   LAGGAS  
# ...
 6277.5000 4008.5900    1.0000   32.0000   373.8520 11525.5280    1.0000  143.7000   116.1000 2549.9100  2417.28234 831.36078 -999.2500
 6278.0000 4008.5900    1.0000   32.0000   369.1960 10931.5070    1.0000  143.7000   116.9000 2550.4100  2417.75396 831.52688    3.0000
 6278.5000 4008.5900    1.0000   31.8000   400.8040 14332.6790    1.0000  143.7000   117.7000 2550.9100  2418.22557 831.69297 -999.2500
 6279.0000 4008.5800    1.0000   32.8000   411.3840 22565.6820    1.0000  143.7000   120.5000 2551.4100  2418.69719 831.85906    5.0000
 6279.5000 4008.5800    1.0000   35.9000   393.3450 20532.9670    1.0000  143.7000   121.5000 2551.9100  2419.1688  832.02516 -999.2500
 6280.0000 4008.5800    1.0000   36.6000   376.6690 33933.7650    1.0000  143.7250   121.2000 2552.4100  2419.64042 832.19125    5.0000
 6280.5000 4008.5800    1.0000   36.0000   388.9350 22788.7680    1.0000  143.7500   120.9000 2552.9100  2420.11203 832.35734 -999.2500
 6281.0000 4008.5700    1.0000   35.9000   360.7830  8513.6130    1.0000  143.7750   120.8000 2553.4100  2420.58365 832.52344    4.0000
 6281.5000 4008.5700    1.0000   37.3000   343.6050  2699.4950    1.0000  143.8000   120.5000 2553.9100  2421.05526 832.68953 -999.2500
 6282.0000 4008.5700    1.0000   36.2000   380.0030 15376.1700    1.0000  143.8000   120.4000 2554.4100  2421.52688 832.85563    8.0000
 6282.5000 4008.5700    1.0000   35.8000   382.7350 21768.7310    1.0000  143.8000   120.0000 2554.9100  2421.99849 833.02172 -999.2500
 6283.0000 4008.5700    1.0000   38.3000   349.1390 21264.3060    1.0000  143.8000   119.9000 2555.4100  2422.4701  833.18781    5.0000
 6283.5000 4008.5600    1.0000   38.8000   395.5170 18286.3740    1.0000  143.8000   119.9000 2555.9100  2422.94172 833.35391 -999.2500
 6284.0000 4008.5600    1.0000   37.7000   366.7780 21974.9350    1.0000  143.8250   119.8000 2556.4100  2423.41333 833.5200     4.0000
 6284.5000 4008.5600    1.0000   36.1000   373.8740  7247.4450    1.0000  143.8500   119.8000 2556.9100  2423.88495 833.68609 -999.2500
 6285.0000 4008.5500    1.0000   36.5000   339.1610  9594.1620    1.0000  143.8750   119.6000 2557.4100  2424.35656 833.85219    6.0000
 6285.5000 4008.5500    1.0000   34.3000   337.8510  7318.5450    1.0000  143.9000   119.4000 2557.9100  2424.82818 834.01828 -999.2500
 6286.0000 4008.5500    1.0000   32.8000   329.9870  6096.6890    1.0000  143.9000   119.4000 2558.4100  2425.29979 834.18438    5.0000
 6286.5000 4008.5500    1.0000   32.5000   335.4640  3564.6800    1.0000  143.9000   119.4000 2558.9100  2425.77141 834.35047 -999.2500
 6287.0000 4008.5400    1.0000   33.1000   320.5160  3773.7970    1.0000  143.9000   119.4000 2559.4100  2426.24302 834.51656    4.0000
 6287.5000 4008.5400    1.0000   33.1000   357.7150 13178.5680    1.0000  143.9000   119.4000 2559.9100  2426.71464 834.68266 -999.2500
 6288.0000 4008.5400    1.0000   31.6000   326.6130 10646.6370    1.0000  143.9000   119.5000 2560.4100  2427.18625 834.84875    4.0000
 6288.5000 4008.5400    1.0000   34.8000   320.2330  8000.6980    1.0000  143.9250   119.5000 2560.9100  2427.65786 835.01484 -999.2500
 6289.0000 4008.5300    1.0000   46.9000   321.4250  6160.3390    1.0000  143.9500   119.5000 2561.4100  2428.12948 835.18094    6.0000
 6289.5000 4008.5300    1.0000   60.2000   314.3340  1960.3050    1.0000  143.9750   119.4000 2561.9100  2428.60109 835.34703 -999.2500
 6290.0000 4008.5300    1.0000   65.0000   308.8710 12102.8070    1.0000  144.0000   119.1000 2562.4100  2429.07271 835.51313    3.0000
 6290.5000 4008.5300    1.0000   66.0000   337.6140  6917.7350    1.0000  144.0000   118.9000 2562.9100  2429.54432 835.67922 -999.2500
 6291.0000 4008.5200    1.0000   62.0000   299.1060 13361.1990    1.0000  144.0000   118.7000 2563.4100  2430.01594 835.84531    5.0000
 6291.5000 4008.5200    1.0000   55.7000   334.8580 13038.1080    1.0000  144.0000   118.2000 2563.9100  2430.48755 836.01141 -999.2500
 6292.0000 4008.5200    1.0000   47.7000   323.4740 18509.1210    1.0000  144.0000   117.8000 2564.4100  2430.95917 836.1775     4.0000
 6292.5000 4008.5100    1.0000   42.1000   353.7930 18779.0150    1.0000  144.03333  117.5000 2564.9100  2431.43078 836.34359 -999.2500
 6293.0000 4008.5100    1.0000   38.9000   337.4550  5010.3610    1.0000  144.06667  116.9000 2565.4100  2431.9024  836.50969    4.0000
 6293.5000 4008.5100    1.0000   38.3000   347.5190  2792.5080    1.0000  144.1000   116.5000 2565.9100  2432.37401 836.67578 -999.2500
 6294.0000 4008.5100    1.0000   38.9000   362.2690 17975.0410    1.0000  144.1000   116.1000 2566.4100  2432.84563 836.84188    4.0000
 6294.5000 4008.5000    1.0000   40.8000   347.5070 19242.5520    1.0000  144.1000   115.7000 2566.9100  2433.31724 837.00797 -999.2500
 6295.0000 4008.5000    1.0000   38.0000   415.5980 20835.3310    1.0000  144.1000   115.1000 2567.4100  2433.78885 837.17406    4.0000
 6295.5000 4008.5000    1.0000   42.7000   394.2890 29551.5090    1.0000  144.13333  114.4000 2567.9100  2434.26047 837.34016 -999.2500
 6296.0000 4008.5000    1.0000   41.9000   429.9200 22993.4440    1.0000  144.16667  113.8000 2568.4100  2434.73208 837.50625    4.0000
 6296.5000 4008.4900    1.0000   39.6000   356.5500 17645.2880    1.0000  144.2000   113.1000 2568.9100  2435.2037  837.67234 -999.2500
 6297.0000 4008.4900    1.0000   39.2000   361.8640 24974.9430    1.0000  144.2000   112.3000 2569.4100  2435.67531 837.83844    3.0000
 6297.5000 4008.4900    1.0000   38.5000   374.9580 20700.2570    1.0000  144.2000   111.7000 2569.9100  2436.14693 838.00453 -999.2500
 6298.0000 4008.4800    1.0000   39.2000   377.7580  2305.5340    1.0000  144.2000   110.9000 2570.4100  2436.61854 838.17063    4.0000
 6298.5000 4008.4800    1.0000   40.8000   393.2450 21104.3890    1.0000  144.2000   110.2000 2570.9100  2437.09016 838.33672 -999.2500
 6299.0000 4008.4800    1.0000   39.6000   463.8700 25822.0000    1.0000  144.23333  109.5000 2571.4100  2437.56177 838.50281    4.0000
 6299.5000 4008.4700    1.0000   38.2000   433.9500 17049.7390    1.0000  144.26667  108.9000 2571.9100  2438.03339 838.66891 -999.2500
 6300.0000 4008.4700    1.0000   40.3000   473.0110 39863.8140    1.0000  144.3000   108.2000 2572.4100  2438.5050  838.8350     5.0000
 6300.5000 4008.4700    1.0000   40.3000   465.5800 33946.1510    1.0000  144.3000   107.7000 2572.9100  2438.97661 839.00109 -999.2500
 6301.0000 4008.4700    1.0000   40.3000   378.2360 27413.1570    1.0000  144.3000   107.1000 2573.4100  2439.44823 839.16719    4.0000
 6301.5000 4008.4600    1.0000   42.2000   388.0750 39198.6490    1.0000  144.3000   106.1000 2573.9100  2439.91984 839.33328 -999.2500
 6302.0000 4008.4600    1.0000   41.2000   395.6120 17114.8550    1.0000  143.9000    84.8000 2574.4100  2440.39146 839.49938    4.0000
 6302.5000 4008.4600    1.0000   41.5000   370.4900 13265.7190    1.0000  143.5000    71.2000 2574.9100  2440.86307 839.66547 -999.2500
 6303.0000 4008.4500    1.0000   39.3000   433.7400 14163.8940    1.0000  143.4000    69.8000 2575.4100  2441.33469 839.83156    4.0000
 6303.5000 4008.4500    1.0000   41.9000   455.3920 38354.6690    1.0000  143.3000    65.5000 2575.9100  2441.8063  839.99766 -999.2500
 6304.0000 4008.4500    1.0000   43.3000   471.8370 30403.3900    1.0000  143.2000    61.0000 2576.4100  2442.27792 840.16375    5.0000
 6304.5000 4008.4400    1.0000   46.8000   472.3540 40778.0210    1.0000  142.9500    58.4000 2576.9100  2442.74953 840.32984 -999.2500
 6305.0000 4008.4400    1.0000   49.0000   447.1750 23601.4950    1.0000  142.7000    54.5000 2577.4100  2443.22115 840.49594    3.0000
 6305.5000 4008.4400    1.0000   53.0000   440.1080 29189.4260    1.0000  142.7000    53.8000 2577.9100  2443.69276 840.66203 -999.2500
 6306.0000 4008.4400    1.0000   55.7000   384.8580 25932.1530    1.0000  142.7000    53.1000 2578.4100  2444.16438 840.82813    4.0000
 6306.5000 4008.4300    1.0000   53.9000   423.0170 29865.2600    1.0000  142.7000    52.6000 2578.9100  2444.63599 840.99422 -999.2500
