~Version Information Section
 VERS.      2.0         :CWLS LOG ASCII STANDARD -VERSION 2.0
 WRAP.      No          :SINGLE LINE PER DEPTH STEP
~Well Information Section
#MNEM.UNIT                      VALUE/NAME                 DESCRIPTION
#----.----     ----------------------------------   --------------------
 STRT    .ft           4655.0000                         :Start Depth
 STOP    .ft           6737.0000                         :Stop  Depth
 STEP    .ft              0.5000                         :Step  Depth
 NULL    .             -999.2500                         :Null value
 COMP    .          LEWIS ENERGY                         :Company Name
 WELL    .          Toposi 2H ST                         :Well Name
 PATH    .                                               :Path Name
 FLD     .          TOPOSI                               :Field Name
 LOC     .          TOPOSI                               :Location
 PROV    .          Unused                               :Province
 SRVC    .          BAKER HUGHES INTEQ                   :Service Company Name
 DATE    .          09/04/2015-14                        :28:47 SA Pacific Standard Time: System Date
 UWI     .                                               :Unique Well ID
 TIMEZONE.Hrs            -5.0000                         :Time zone difference from GMT
 PDAT    .          M.S.L                                :PERMANET DATUM
 EDF     .ft            278.6600                         :ELEVATION OF DRILL FLOOR
 EGL     .ft            256.7300                         :ELEVATION OF GROUD LEVEL
 LMF     .          R.T                                  :LOG MEASURED FROM
 APD     .          ft                  21.93            :ABOVE PERMANET DATUM
 DMF     .          DRILL FLOOR                          :DRILLING MEASURED FROM
 DEPIN   .          4685                                 :DEPTH IN
 DEPOU   .          6737                                 :DEPTH OUT
 DCS     .          MAGNA SIRGAS - BOGOTA                :DATUM COORDINATES SYSTEM
 SLAT    .          08° 19' 25.746'' N                   :SUSFACE LATITUDE
 SLON    .          73° 39' 55.448'' W                   :SURFACE LONGITUDE
 SNOR    .          1412256.100 m                        :SURFACE NORTHING
 SEAS    .          1045395.680 m                        :SURFACE EASTING
 BLAT    .          08° 19' 54.030'' N                   :BOTTOM LATITUDE
 BLON    .          73° 39' 45.848'' W                   :BOTTOM LONGITUDE
 BNOR    .          1413125.37 m                         :BOTTOM NORTHING
 BEAS    .          1045688.52 m                         :BOTTOM EASTING
~Curve Information Section
#MNEM      .UNIT         CURVE DESCRIPTION
#----      .----         -------------------------
 DEPTH     .ft           :1 Depth Hole
 TVD       .ft           :2 True Vertical Depth
 GRIM      .unitless     :3 Gamma Ray Data Point Indicator
 GR1AFM    .API          :4 Gamma Ray 1 - Apparent Filtered
 RPCHM     .ohm.m        :5 Resistivity Phase - Corrected - 2MHz
 RPCLM     .ohm.m        :6 Resistivity Phase - Corrected - 400kHz
 RPHIM     .unitless     :7 Resistivity Phase - Data Point Indicator - 2MHz
 TCDM      .degF         :8 Downhole Temperature
 RPTHM     .min          :9 Resistivity Time Since Drilled
 SRSP_VSECT.ft           :10 Planar Vertical Section
 SRSP_NS   .ft           :11 Position North
 SRSP_EW   .ft           :12 Position East
 LAGGAS    .unit         :13 Total Gas - Lagged
~PARAMETER INFORMATION
#MNEM.UNIT                  VALUE                   DESCRIPTION
#----.----     ----------------------------------   --------------------
  DFT.         BRINE                                :Drilling Fluid Type
  DFD.LB/G           9.3000                         :Drilling Fluid Density
  DFV.S             17.0000                         :Drilling Fluid Viscosity
  MSS.         ACTIVE PIT                           :Mud Sample Source
  RMS.OHMM           0.0600                         :Resistivity Of Mud Sample
  MST.DEGF          69.7000                         :Mud Sample Temperature
  RMB.OHMM           0.0300                         :Mud Resistivity At Bht
  BHT.DEGF         144.6000                         :Bottom Hole Temperature
  TSC.         01-04-2015 @ 15		            :Time Since Circulation

  DFT.         BRINE                                :Drilling Fluid Type
  DFD.LB/G           9.6000                         :Drilling Fluid Density
  DFV.S             18.0000                         :Drilling Fluid Viscosity
  MSS.         ACTIVE PIT                           :Mud Sample Source
  RMS.OHMM           0.0600                         :Resistivity Of Mud Sample
  MST.DEGF          71.0000                         :Mud Sample Temperature
  RMB.OHMM           0.8600                         :Mud Resistivity At Bht
  BHT.DEGF         136.0000                         :Bottom Hole Temperature
  TSC.         05-04-2015 @ 11		            :Time Since Circulation
  
  MRT.DEGF          147.300                         :Maximum Recorded Temperature

~Other Information Section
#MUD PROPERTIES
  - DENSITY =  9.3 LB/G
  - PLASTIC VISCOSITY = 17.0 CP
  - CHLORIDES = 94000 MG/LT
  - YIELD POINT =  11 LBF/100 FT^2

  - DENSITY =  9.6 LB/G
  - PLASTIC VISCOSITY = 18.0 CP
  - CHLORIDES = 97000 MG/LT
  - YIELD POINT =  10 LBF/100 FT^2

~Other Information Section
Disclaimer
Any opinion and / or recommendation expressed orally or written herein, has been prepared
carefully and may be used if the user so elects, however, no representative or warranty is
made by ourselves or our agents as to the correctness or completeness, and no liability is
assumed for any damages resulting from use of the same.  Baker Hughes's liabilities and obligations
shall be governed by Baker Hughes's Standard Terms and Conditions.
Creator
Export
#----------------------------------------------------------------------
#
# Curve name cross reference:  XREF 'LAS Name' 'XTF Short Name' 'XTF Structured Name'
#
XREF DEPTH DEPTH DEPTH
XREF TVD TVD GEN.TVD
XREF GRIM GRIM GAM.GRIM
XREF GR1AFM GR1AFM FGAM.GR1AFM
XREF RPCHM RPCHM CRES.RPCHM
XREF RPCLM RPCLM CRES.RPCLM
XREF RPHIM RPHIM CRES.RPHIM
XREF TCDM TCDM GEN.TCDM
XREF RPTHM RPTHM CRES.RPTHM
XREF SRSP_VSECT SRSPVSEC SURVEY_STATION.SRSP_VSECT
XREF SRSP_NS SRSPNS SURVEY_STATION.SRSP_NS
XREF SRSP_EW SRSPEW SURVEY_STATION.SRSP_EW
XREF LAGGAS LAGGAS LAGMUD.LAGGAS

~A  DEPTH     TVD      GRIM     GR1AFM     RPCHM      RPCLM     RPHIM       TCDM     RPTHM   SRSP_VSECT  SRSP_NS    SRSP_EW   LAGGAS  
# ...
 5333.5000 4014.4300    1.0000   67.5000  -999.2500  -999.2500 -999.2500  136.8000  -999.2500 1605.97703 1521.83453 532.65984 -999.2500
 5334.0000 4014.4300    1.0000   66.1000   735.0150 44519.9730    1.0000  136.8250   134.9000 1606.47698 1522.30865 532.81844    7.0000
 5334.5000 4014.4200    1.0000   68.1000   655.5000 44519.9730    1.0000  136.8500   134.6000 1606.97693 1522.78276 532.97703 -999.2500
 5335.0000 4014.4200    1.0000   70.8000   784.8380 44519.9730    2.0000  136.8750   134.5000 1607.47688 1523.25688 533.13563    5.0000
 5335.5000 4014.4100 -999.2500   73.1000   868.7500 44519.9730    1.0000  136.9000   134.6000 1607.97682 1523.73099 533.29422 -999.2500
 5336.0000 4014.4100    1.0000   75.0000   842.6410 44519.9730    1.0000  136.9250   135.0000 1608.47677 1524.2051  533.45281    6.0000
 5336.5000 4014.4000    1.0000   72.0000   795.5540 44519.9730    1.0000  136.9500   135.3000 1608.97672 1524.67922 533.61141 -999.2500
 5337.0000 4014.4000    1.0000   73.8000   752.0230 44519.9730    1.0000  136.9750   135.7000 1609.47667 1525.15333 533.7700     5.0000
 5337.5000 4014.3900    1.0000   74.9000   592.4880 44519.9730    1.0000  137.0000   136.0000 1609.97661 1525.62745 533.92859 -999.2500
 5338.0000 4014.3900    1.0000   75.8000   530.9770 44519.9730    1.0000  137.0000   136.5000 1610.47656 1526.10156 534.08719    4.0000
 5338.5000 4014.3800    1.0000   75.6000   463.7600 44519.9730    1.0000  137.0000   131.3000 1610.97651 1526.57568 534.24578 -999.2500
 5339.0000 4014.3800    1.0000   70.1000  1181.7200 44519.9730    1.0000  136.9000   130.2000 1611.47646 1527.04979 534.40438    4.0000
 5339.5000 4014.3700    1.0000   71.7000  1066.3630 44519.9730    1.0000  136.8000   130.6000 1611.97641 1527.52391 534.56297 -999.2500
 5340.0000 4014.3700    1.0000   71.7000   850.4400 44519.9730    1.0000  136.66667  131.3000 1612.47635 1527.99802 534.72156    5.0000
 5340.5000 4014.3600    1.0000   68.9000   807.9080 44519.9730    1.0000  136.53333  131.6000 1612.9763  1528.47214 534.88016 -999.2500
 5341.0000 4014.3600    1.0000   70.6000   749.7370 44519.9730    1.0000  136.4000   129.6000 1613.47625 1528.94625 535.03875    5.0000
 5341.5000 4014.3500    1.0000   71.8000   631.2190 44519.9730    1.0000  136.2000   129.3000 1613.9762  1529.42036 535.19734 -999.2500
 5342.0000 4014.3500    1.0000   73.7000   716.0770 44519.9730    1.0000  136.0000   129.3000 1614.47615 1529.89448 535.35594    4.0000
 5342.5000 4014.3400    1.0000   76.2000   645.5150 44519.9730    1.0000  135.8500   129.0000 1614.97609 1530.36859 535.51453 -999.2500
 5343.0000 4014.3400    1.0000   75.5000   692.6710 44519.9730    1.0000  135.7000   129.1000 1615.47604 1530.84271 535.67313    5.0000
 5343.5000 4014.3300    1.0000   72.0000   679.3350 44519.9730    1.0000  135.6500   127.5000 1615.97599 1531.31682 535.83172 -999.2500
 5344.0000 4014.3300    1.0000   67.6000  -999.2500  -999.2500 -999.2500  135.6000  -999.2500 1616.47594 1531.79094 535.99031    2.0000
 5344.5000 4014.3200    1.0000   69.3000   661.5730 44519.9730    2.0000  135.4000   124.1000 1616.97589 1532.26505 536.14891 -999.2500
 5345.0000 4014.3100    1.0000   72.7000   607.4230 44519.9730    1.0000  135.2000   126.6000 1617.47583 1532.73917 536.3075     4.0000
 5345.5000 4014.3100    1.0000   76.7000   646.9620 44519.9730    1.0000  135.1000   128.8000 1617.97578 1533.21328 536.46609 -999.2500
 5346.0000 -999.2500    1.0000   79.2000   686.7470 44519.9730    1.0000  135.1000   130.3000 1618.47573 1533.6874  536.62469   11.0000
 5346.5000 4014.3000    1.0000   79.9000   767.3070 44519.9730    1.0000  135.1000   131.2000 1618.97568 1534.16151 536.78328 -999.2500
 5347.0000 4014.2900    1.0000   81.8000   628.3730 44519.9730    1.0000  135.1000   130.6000 1619.47563 1534.63563 536.94188   13.0000
 5347.5000 -999.2500    1.0000   86.0000   698.7460 44519.9730    1.0000  135.06667  128.6000 1619.97557 1535.10974 537.10047 -999.2500
 5348.0000 -999.2500    1.0000   96.3000   751.5130 44519.9730    1.0000  135.03333  129.5000 1620.47552 1535.58385 537.25906   13.0000
 5348.5000 4014.2800    1.0000  101.4000   695.8420 44519.9730    1.0000  135.0000   130.2000 1620.97547 1536.05797 537.41766 -999.2500
 5349.0000 -999.2500    1.0000   98.7000   691.0630 44519.9730    1.0000  135.0000   131.3000 1621.47542 1536.53208 537.57625   12.0000
 5349.5000 4014.2700    1.0000  102.0000   693.4810 44519.9730    1.0000  135.0000   132.0000 1621.97536 1537.0062  537.73484 -999.2500
 5350.0000 -999.2500    1.0000   99.9000   948.4490 44519.9730    1.0000  135.0000   132.5000 1622.47531 1537.48031 537.89344    7.0000
 5350.5000 -999.2500    1.0000   94.3000   484.1110 44519.9730    1.0000  135.0000   132.8000 1622.97526 1537.95443 538.05203 -999.2500
 5351.0000 4014.2500    1.0000   94.1000   687.1500 44519.9730    1.0000  135.0000   132.9000 1623.47521 1538.42854 538.21063    4.0000
 5351.5000 -999.2500    1.0000  100.8000   856.7580 44519.9730    1.0000  135.0000   132.9000 1623.97516 1538.90266 538.36922 -999.2500
 5352.0000 4014.2400    1.0000  104.8000   785.8310 44519.9730    1.0000  135.0000   133.2000 1624.4751  1539.37677 538.52781    4.0000
 5352.5000 -999.2500    1.0000  107.0000   653.8620 44519.9730    1.0000  135.0500   133.2000 1624.97505 1539.85089 538.68641 -999.2500
 5353.0000 4014.2300    1.0000  109.5000   622.1580 44519.9730    1.0000  135.1000   133.4000 1625.4750  1540.3250  538.8450     6.0000
 5353.5000 4014.2300    1.0000  106.7000   712.3740 44519.9730    1.0000  135.1000   110.9000 1625.97495 1540.79911 539.00359 -999.2500
 5354.0000 4014.2200    1.0000  109.5000   719.9940 44519.9730    1.0000  134.3000   102.4000 1626.4749  1541.27323 539.16219    7.0000
 5354.5000 4014.2200    1.0000  112.8000   809.2820 44519.9730    1.0000  134.3000   102.5000 1626.97484 1541.74734 539.32078 -999.2500
 5355.0000 -999.2500    1.0000  118.4000   778.6680 44519.9730    1.0000  134.3000   102.7000 1627.47479 1542.22146 539.47938    9.0000
 5355.5000 4014.2100    1.0000  123.1000   604.9560 44519.9730    1.0000  134.3000   102.8000 1627.97474 1542.69557 539.63797 -999.2500
 5356.0000 -999.2500    1.0000  114.8000   682.3220 44519.9730    1.0000  134.2500   102.9000 1628.47469 1543.16969 539.79656   10.0000
 5356.5000 4014.2000    1.0000  112.2000   643.5270 44519.9730    1.0000  134.2000   103.0000 1628.97464 1543.6438  539.95516 -999.2500
 5357.0000 4014.1900    1.0000  113.2000   656.0870 44519.9730    1.0000  134.3000   102.8000 1629.47458 1544.11792 540.11375    6.0000
 5357.5000 -999.2500    1.0000  115.1000   621.6270 44519.9730    1.0000  134.3000   102.5000 1629.97453 1544.59203 540.27234 -999.2500
 5358.0000 -999.2500    1.0000  125.2000   650.4340 44519.9730    1.0000  134.3000   102.2000 1630.47448 1545.06615 540.43094    9.0000
 5358.5000 4014.1700    1.0000  128.3000   692.3170 44519.9730    1.0000  134.3000   102.1000 1630.97443 1545.54026 540.58953 -999.2500
 5359.0000 -999.2500    1.0000  124.8000   711.8520 44519.9730    1.0000  134.3500   102.0000 1631.47438 1546.01438 540.74813    6.0000
 5359.5000 4014.1600    1.0000  121.9000   764.9520 44519.9730    1.0000  134.4000   101.9000 1631.97432 1546.48849 540.90672 -999.2500
 5360.0000 4014.1600    1.0000  123.1000   642.7530 44519.9730    1.0000  134.4250   101.3000 1632.47427 1546.9626  541.06531    6.0000
 5360.5000 4014.1500    1.0000  124.6000   655.4250 44519.9730    1.0000  134.4500   100.7000 1632.97422 1547.43672 541.22391 -999.2500
 5361.0000 -999.2500    1.0000  128.6000   592.2960 44519.9730    1.0000  134.4750   100.3000 1633.47417 1547.91083 541.3825     7.0000
 5361.5000 4014.1400    1.0000  126.5000   576.5670 44519.9730    1.0000  134.5000   100.0000 1633.97411 1548.38495 541.54109 -999.2500
 5362.0000 -999.2500    1.0000  126.9000   739.8110 44519.9730    1.0000  134.5000    99.5000 1634.47406 1548.85906 541.69969    6.0000
 5362.5000 4014.1300    1.0000  128.5000   840.9570 44519.9730    1.0000  134.5000    99.0000 1634.97401 1549.33318 541.85828 -999.2500
